locationid,stationname,chinesename,latitude,longitude,pm25,pm10,o3,no2,so2,co,temperature,dewpoint,pressure,humidity,wind,est_time
1,Dongcheng Dongsi,,39.9304,116.423239,233,125,3,58,13,19,12,9,1023,82,1,20141030170000
2,"Temple of Heaven, Dongcheng",,39.887403,116.41324,230,120,2,56,5,18,12,9,1023,82,1,20141030170000
3,West Park officials,,39.930333,116.345162,234,116,-,-,-,-,12,9,1023,82,1,20141030170000
4,West Wanshou Nishinomiya,,39.879354,116.358183,248,129,2,61,5,18,12,9,1023,82,1,20141030170000
5,Chaoyang Olympic Sports Center,,39.983406,116.403253,242,127,4,64,8,15,12,9,1023,82,1,20141030170000
6,Chaoyang Agricultural Exhibition Hall,,39.938331,116.46715,269,150,6,76,18,16,13,8,1022,72,2,20141030170000
7,Haidian Wanliu,,39.988245,116.293062,234,141,2,56,8,15,12,9,1023,82,1,20141030170000
8,The Haidian northern New Area,,40.091313,116.180194,243,108,3,28,5,16,12,9,1023,82,1,20141030170000
9,Haidian Beijing Botanical Garden,,40.003252,116.213097,214,117,26,18,18,12,12,9,1023,82,1,20141030170000
10,Fengtai garden,,39.86423,116.285037,246,127,2,55,16,17,12,9,1023,82,1,20141030170000
11,Fengtai Yungang,,39.82535,116.152237,236,133,3,55,11,16,12,9,1023,82,1,20141030170000
12,Shijingshan city,,39.915286,116.190144,210,118,5,48,10,16,12,9,1023,82,1,20141030170000
13,"Fangshan, Liangxiang",,39.743357,116.14225,246,139,1,52,10,18,12,9,1023,82,1,20141030170000
14,"Huangcunzhen, Daxing",,39.719389,116.410219,293,177,1,68,9,24,12,9,1023,82,1,20141030170000
15,BDA,,39.796197,116.51197,284,165,4,67,15,19,12,9,1023,82,1,20141030170000
16,Tongzhou New Town,,39.887113,116.6689,278,188,1,56,12,17,12,9,1023,82,1,20141030170000
17,Shunyi New Town ,,40.128111,116.660908,242,122,4,44,3,16,12,9,1023,82,1,20141030170000
18,Changping Town,,40.218245,116.236084,203,129,3,22,4,16,12,9,1023,82,1,20141030170000
19,"Mentougou, Longquan Town",,39.938397,116.112323,207,96,7,34,6,14,12,9,1023,82,1,20141030170000
20,Pinggu town,,40.144433,117.106563,-,-,-,-,-,-,-,-,0,-,-,20141030170000
21,Huairou town,,40.329104,116.63387,188,98,16,12,3,16,12,9,1023,82,1,20141030170000
22,The town of Miyun,,40.371186,116.838053,231,125,12,27,5,9,12,9,1023,82,1,20141030170000
23,Yanqing town,,40.454217,115.978106,192,-,17,34,12,18,12,9,1023,82,1,20141030170000
24,Changping Dingling,,40.293269,116.226108,198,98,6,13,4,14,12,9,1023,82,1,20141030170000
25,Badaling Northwest,,40.36623,115.994146,194,-,5,44,17,14,12,9,1023,82,1,20141030170000
26,Miyun Reservoir,,40.500157,116.91701,192,-,28,6,5,12,12,9,1023,82,1,20141030170000
27,"Donggaocun Zhen, Pinggu",,40.10142,117.126556,215,85,19,22,12,11,12,9,1023,82,1,20141030170000
28,"Yongledianzhen, Tongzhou",,39.713192,116.78905,318,176,2,47,10,16,12,9,1023,82,1,20141030170000
29,"Yufazhen, Daxing",,39.521203,116.306026,-,-,-,-,-,-,-,-,0,-,-,20141030170000
30,"Liulihezhen, Fangshan",,39.581169,116.006089,326,256,2,55,6,16,12,9,1023,82,1,20141030170000
31,"Qianmen E St, Dongcheng",,39.900402,116.401242,282,112,1,56,2,17,12,9,1023,82,1,20141030170000
32,Yongdingmen Inner St,,39.877401,116.400238,270,113,3,67,13,19,12,9,1023,82,1,20141030170000
33,Xizhimen N St,,39.955352,116.355187,262,132,-,-,-,-,12,9,1023,82,1,20141030170000
34,South Ring Road,,39.857377,116.37421,269,129,1,66,6,21,12,9,1023,82,1,20141030170000
35,East Fourth Ring Road,,39.940273,116.489075,-,-,-,-,-,-,-,-,0,-,-,20141030170000
36,Beijing,,39.955906,116.474246,262,125,3,58,13,19,12,9,1023,82,1,20141030170000
37,Putuo,,31.232979,121.415378,158,73,5,45,7,11,20,19,1018,94,3,20141030170000
38,Yangpu Sipiao,,31.263795,121.540311,154,56,5,45,5,10,20,19,1018,94,3,20141030170000
39,Shanghai Normal College Primary Division,,31.199031,121.487719,157,60,4,43,5,11,20,19,1016,94,2,20141030170000
40,Dianshan Lake,,31.091338,120.982293,167,70,10,20,22,7,20,19,1016,94,2,20141030170000
41,Hongkou Liangcheng,,31.298906,121.47155,162,73,3,45,7,18,20,19,1016,94,2,20141030170000
42,Jingan,,31.224251,121.429637,155,63,6,42,7,13,20,19,1018,94,3,20141030170000
43,Shanghai Normal University,,31.163531,121.416643,160,64,5,44,5,12,20,19,1018,94,3,20141030170000
44,Chuansha,,31.188626,121.707342,159,62,5,30,5,11,20,19,1018,94,3,20141030170000
45,Zhangjiang,,31.204896,121.581215,162,67,6,44,7,10,20,19,1016,94,2,20141030170000
46,Lingshan Road,,31.226286,121.537317,159,61,8,41,6,9,20,19,1016,94,2,20141030170000
1080,City average,,31.228451,121.478227,158,63,5,42,6,11,20,19,1018,94,3,20141030170000
47,Shanghai,,31.202842,121.453493,151,65,7,45,5,11,20,19,1018,94,3,20141030170000
48,Guangzhou,,23.138517,113.263701,119,51,32,22,11,9,25,20,1015,74,1,20141030170000
49,"Huadu town, Guangzhou",,23.389121,113.220062,171,101,34,57,18,6,25,20,1015,74,2,20141030170000
50,"Luogang Zhenlong, Guangzhou",,23.308027,113.567032,158,102,28,37,8,5,25,20,1015,74,2,20141030170000
51,"LuHu, Guangzhou",,23.151743,113.281842,119,44,23,32,8,7,25,20,1015,74,2,20141030170000
52,"Tianhu, Guangzhou",,23.647433,113.629715,107,57,127,5,13,6,25,20,1015,74,2,20141030170000
53,"Zhudong, Guangzhou",,23.418406,113.078552,161,87,41,21,18,9,25,20,1015,74,2,20141030170000
54,"Modiesha station, Guangzhou",,23.103814,113.338238,80,62,22,42,8,5,25,20,1015,74,2,20141030170000
55,Zhuhai,,22.2677,113.581765,82,51,32,8,4,7,25,22,1015,83,4,20141030170000
1075,"Huicai technical school, Foshan",,23.039667,113.105492,151,61,26,28,20,6,25,20,1015,74,2,20141030170000
56,"Sanshuiyun donghai, Foshan",,23.185788,112.865368,151,61,36,46,51,10,25,20,1015,74,2,20141030170000
57,"Nanhai Bureau of Meteorology, Foshan",,23.046836,113.145764,149,59,20,32,17,12,25,20,1015,74,2,20141030170000
58,"Sanshui Monitoring Station, Foshan",,23.163551,112.890843,152,64,28,49,21,7,25,20,1015,74,2,20141030170000
1087,Foshan,,23.018995,113.126899,149,59,20,32,17,12,25,20,1015,74,2,20141030170000
59,"Ronggui street committee, Shunde",,22.762729,113.258356,139,60,23,15,8,10,25,20,1015,74,2,20141030170000
60,Shunde,,22.80246,113.298701,112,51,25,19,11,6,-,-,0,-,-,20141030170000
61,"Donghu, Jiangmen",,22.590411,113.087351,124,47,34,13,11,3,25,22,1015,83,4,20141030170000
62,"Taoyuan Atmosphere Premier Station, Jiangmen",,22.72489,112.93404,139,76,32,17,10,7,25,22,1015,83,4,20141030170000
63,Jiangmen,,22.576047,113.087351,124,47,34,13,11,3,25,22,1015,83,4,20141030170000
64,"Kengkouzi station, Zhaoqing",,23.158865,112.570287,137,56,42,19,10,7,25,20,1015,74,2,20141030170000
65,"Mugangzi station, Zhaoqing",,23.067961,112.431934,153,77,31,42,12,13,25,20,1015,74,2,20141030170000
67,Zhaoqing,,23.044571,112.470346,149,63,43,14,20,5,25,20,1015,74,2,20141030170000
68,"Jinguo Bay, Huizhou",,22.937223,114.385567,107,59,47,7,5,5,25,20,1015,74,3,20141030170000
1091,"Xiabu, Huizhou",,23.077493,114.410275,127,65,39,9,4,2,25,20,1015,74,3,20141030170000
69,"Xijiao, Huizhou",,23.338178,114.112867,107,40,23,11,2,6,25,20,1015,74,3,20141030170000
70,"Jiangbei, Huizhou",,23.111706,114.415274,127,73,48,13,5,2,25,20,1015,74,3,20141030170000
71,"Huiyang chuanhu, Huizhou",,22.814485,114.329292,107,41,44,9,5,6,25,20,1015,74,3,20141030170000
72,"Daya bay management committee, Huizhou",,22.739283,114.53631,107,52,44,13,5,4,25,20,1015,74,3,20141030170000
73,Huizhou,,23.109349,114.421164,127,73,48,13,5,2,25,20,1015,74,3,20141030170000
74,"Guancheng No.2 water plant, Dongguan",,23.057294,113.753254,154,60,26,21,9,8,25,20,1015,74,3,20141030170000
75,"Dongcheng Shijing, Dongguan",,23.010039,113.799529,142,53,23,28,7,6,25,20,1015,74,3,20141030170000
76,"Nancheng Xiping, Dongguan",,22.963051,113.743494,144,66,20,31,16,7,25,20,1015,74,3,20141030170000
77,"Nancheng Yuanling, Dongguan",,23.025058,113.751308,144,54,35,25,14,8,25,20,1015,74,3,20141030170000
78,Dongguan,,23.017813,113.756958,144,54,35,25,14,8,25,20,1015,74,3,20141030170000
79,"Zimaling, Zhongshan",,22.505112,113.407183,102,37,27,10,9,4,25,22,1015,83,4,20141030170000
80,"Yangtze River tourist area, Zhongshan",,22.48589,113.439054,91,32,23,8,3,5,25,22,1015,83,4,20141030170000
81,"Huabai Park, Zhongshan",,22.51839,113.374362,102,44,24,9,8,11,25,22,1015,83,4,20141030170000
82,Zhongshan,,22.513997,113.398277,102,37,27,10,9,4,25,22,1015,83,4,20141030170000
83,"No.8 middle school, Shaoguan",,24.767777,113.583537,144,68,35,17,12,8,22,18,1015,72,2,20141030170000
83,"No.8 middle school, Shaoguan",,24.767777,113.583537,144,68,35,17,12,8,22,18,1015,72,2,20141030170000
84,"Forest area, Shaoguan",,24.796107,113.612131,152,65,35,12,16,8,22,18,1015,72,2,20141030170000
84,"Forest area, Shaoguan",,24.796106,113.612131,152,65,35,12,16,8,22,18,1015,72,2,20141030170000
86,"Shaoguan University, Shaoguan",,24.790864,113.646599,127,46,40,12,11,5,22,18,1015,72,2,20141030170000
86,"Shaoguan University, Shaoguan",,24.790864,113.646598,127,46,40,12,11,5,22,18,1015,72,2,20141030170000
88,"Qujiang Monitoring Station, Shaoguan",,24.683042,113.60157,153,74,28,41,10,11,22,18,1015,72,2,20141030170000
88,"Qujiang Monitoring Station, Shaoguan",,24.683042,113.60157,153,74,28,41,10,11,22,18,1015,72,2,20141030170000
89,Shaoguan,,24.807342,113.602712,152,65,35,12,16,8,22,18,1015,72,2,20141030170000
90,"Chaonanzi Station, Shantou",,23.251213,116.406762,163,111,35,14,7,7,22,21,1016,94,1,20141030170000
91,Shantou,,23.350642,116.686306,95,54,40,6,3,11,22,21,1016,94,1,20141030170000
92,"City Environmental Monitoring Station, Zhanjiang",,21.220431,110.397317,42,30,31,3,3,7,26,23,1015,82,4,20141030170000
93,"EPB Dormitory, Zhanjiang",,21.197376,110.406487,72,40,30,3,4,3,26,23,1015,82,4,20141030170000
94,"Xiashan Swimming Park, Zhanjiang",,21.200431,110.415655,70,44,31,2,7,6,26,23,1015,82,4,20141030170000
95,"Zhanjiang Theatre, Zhanjiang",,21.268177,110.366445,82,40,34,3,4,21,26,23,1015,82,4,20141030170000
96,"Mazhang EPA, Zhanjiang",,21.265486,110.335993,76,38,16,3,4,10,26,23,1015,82,4,20141030170000
97,"Potou District EPB, Zhanjiang",,21.247604,110.454508,72,42,29,5,1,12,26,23,1015,82,4,20141030170000
98,Zhanjiang,,21.26832,110.363883,82,40,34,3,4,21,26,23,1015,82,4,20141030170000
99,"Maogang sub-office EPB, Maoming",,21.466435,111.033462,91,47,36,1,1,3,25,22,0,86,5,20141030170000
100,"Petrochemical No. 7 elementaty school, Maoming",,21.648905,110.937861,102,49,30,5,3,7,25,22,0,86,5,20141030170000
101,"Jiankang road, Maoming",,21.662211,110.909482,89,42,20,7,3,8,25,22,0,86,5,20141030170000
102,"Gaoling, Maoming",,21.690558,110.871146,61,44,22,17,7,6,25,22,0,86,5,20141030170000
1094,Maoming,,21.660223,110.929968,89,42,20,7,3,8,25,22,0,86,5,20141030170000
103,"Jiaying University, Meizhou",,24.325415,116.12816,161,78,60,6,7,8,22,21,1016,94,1,20141030170000
104,"Mexian new town, Meizhou",,24.269283,116.084546,164,85,32,20,8,10,22,21,1016,94,1,20141030170000
105,"Environmental Monitoring Center, Meizhou",,24.262778,116.129621,160,92,33,21,7,10,22,21,1016,94,1,20141030170000
1095,Meizhou,,24.285988,116.127065,160,92,33,21,7,10,22,21,1016,94,1,20141030170000
106,"City EPA, Shanwei",,22.772349,115.370227,119,59,45,4,5,9,23,20,1016,78,2,20141030170000
107,"City government, Shanwei",,22.787161,115.375536,119,50,46,11,6,6,23,20,1016,78,2,20141030170000
108,"Xincheng Middle School, Shanwei",,22.789851,115.367124,107,39,36,6,4,6,23,20,1016,78,2,20141030170000
1099,Shanwei,,22.783576,115.38022,107,39,36,6,4,6,23,20,1016,78,2,20141030170000
109,"No.3 elementary school, Heyuan",,23.755946,114.699091,142,66,29,18,5,11,24,20,1016,70,2,20141030170000
109,"No.3 elementary school, Heyuan",,23.75435,114.703514,142,66,29,18,5,11,24,20,1016,70,2,20141030170000
111,"City water company, Heyuan",,23.754246,114.682459,107,35,32,11,7,8,24,20,1016,70,2,20141030170000
111,"City water company, Heyuan",,23.688709,114.954652,107,35,32,11,7,8,24,20,1016,70,2,20141030170000
113,"Heyuan high school, Heyuan",,23.720037,114.699563,109,43,34,12,6,7,24,20,1016,70,2,20141030170000
113,"Heyuan high school, Heyuan",,23.720666,114.693879,109,43,34,12,6,7,24,20,1016,70,2,20141030170000
115,Heyuan,,23.740888,114.705147,109,43,34,12,6,7,24,20,1016,70,2,20141030170000
116,"Yuanyang Lake, Yangjiang",,21.855869,111.983676,112,51,36,7,2,6,24,21,1016,81,3,20141030170000
1100,Yangjiang,,21.855227,111.987308,112,51,36,7,2,6,24,21,1016,81,3,20141030170000
118,"Town governement, Qingyuan",,23.708005,113.026215,184,124,43,36,19,17,25,20,1015,74,2,20141030170000
119,"Fupin district, Qingyuan",,23.624781,113.067713,156,98,24,59,21,18,25,20,1015,74,2,20141030170000
121,"Environment protection office, Qingyuan",,23.685931,113.053239,174,123,40,30,12,17,25,20,1015,74,2,20141030170000
121,"Environment protection office, Qingyuan",,23.691109,113.047948,174,123,40,30,12,17,25,20,1015,74,2,20141030170000
123,"Fengcheng Subdistrict, Qingyuan",,23.695447,113.068189,184,124,43,36,19,17,25,20,1015,74,2,20141030170000
124,Qingyuan,,23.679304,113.061513,174,123,40,30,12,17,25,20,1015,74,2,20141030170000
125,"Xiyuan Road, Chaozhou",,23.668654,116.638272,160,84,48,6,9,10,22,21,1016,94,1,20141030170000
126,"Archives Bureau, Chaozhou",,23.667881,116.649104,153,73,73,7,11,12,22,21,1016,94,1,20141030170000
127,"Municipal Corporation, Chaozhou",,23.65035,116.621859,152,71,45,4,8,15,22,21,1016,94,1,20141030170000
1101,Chaozhou,,23.654204,116.626969,152,71,45,4,8,15,22,21,1016,94,1,20141030170000
128,"Donghu Park, Jieyang",,23.532877,116.374427,147,64,46,10,13,10,22,21,1016,94,1,20141030170000
129,"Yuhu Middle School, Jieyang",,23.52682,116.414123,158,58,38,14,14,9,22,21,1016,94,1,20141030170000
130,"Experimental Primary School, Jieyang",,23.571473,116.364137,160,84,40,11,11,10,22,21,1016,94,1,20141030170000
1102,Jieyang,,23.547596,116.37754,147,64,46,10,13,10,22,21,1016,94,1,20141030170000
131,"City Environmental Monitoring Station, Yunfu",,22.936779,112.042248,65,38,23,8,4,10,25,20,1015,74,2,20141030170000
132,"The new city government headquarters, Yunfu",,22.914275,112.044475,104,50,25,7,5,18,25,20,1015,74,2,20141030170000
133,"Muyang police sub-station, Yunfu",,22.951267,112.05923,102,35,26,21,12,13,25,20,1015,74,2,20141030170000
1103,Yunfu,,22.912436,112.049811,104,50,25,7,5,18,25,20,1015,74,2,20141030170000
134,Yantian,,22.587949,114.266899,107,57,40,27,13,9,25,20,1015,74,3,20141030170000
135,Kwai Chung,,22.572837,113.867166,134,64,20,23,3,10,25,20,1015,74,3,20141030170000
135,Kwai Chung,,22.354168,114.134558,134,64,20,23,3,10,25,20,1015,74,3,20141030170000
137,Nanyou,,22.513802,113.928051,95,62,30,12,6,9,25,20,1015,74,3,20141030170000
138,Meisha,,22.59611,114.318345,104,32,39,8,4,10,25,20,1015,74,3,20141030170000
139,Xi xiang,,22.717524,114.252304,97,53,38,11,4,14,25,20,1015,74,3,20141030170000
140,Liyuan,,22.54732,114.101205,107,53,26,11,3,10,25,20,1015,74,3,20141030170000
1072,Kwai Chung,,22.627947,114.428875,97,51,32,9,3,12,25,20,1015,74,3,20141030170000
1072,Kwai Chung,,22.354168,114.134558,97,51,32,9,3,12,25,20,1015,74,3,20141030170000
141,OCT,,22.539549,113.992458,91,52,30,19,3,11,25,20,1015,74,3,20141030170000
142,Honghu,,22.559647,114.121976,119,54,40,20,5,7,25,20,1015,74,3,20141030170000
143,Mission Hills,,22.694131,114.050496,151,72,30,11,4,11,25,20,1015,74,3,20141030170000
144,Shenzhen,,22.540382,114.062982,151,72,40,27,13,14,-,-,0,-,-,20141030170000
145,Chengdu,,30.622581,104.069564,102,40,9,16,3,9,16,13,1017,82,1,20141030170000
146,"Jinquan lianghe, Chengdu",,30.710359,103.974209,78,36,9,13,4,9,16,13,1017,82,2,20141030170000
147,"Shilidian, Chengdu",,30.684718,104.17845,91,46,8,13,5,7,16,13,1017,82,2,20141030170000
148,"Sanwayao, Chengdu",,30.568159,104.081524,132,63,,,,7,16,13,1017,82,2,20141030170000
149,"Shahepu, Chengdu",,30.633685,104.120536,107,54,5,21,7,11,16,13,1017,82,2,20141030170000
150,"Liang Lane, Chengdu",,30.682601,104.076522,97,44,15,15,12,9,16,13,1017,82,2,20141030170000
151,"Caotang Temple, Chengdu",,30.651891,104.0284,82,40,9,16,3,9,16,13,1017,82,2,20141030170000
152,"Lingyansi, Chengdu",,31.025729,103.615022,42,28,12,8,1,5,16,13,1017,82,2,20141030170000
153,"Fuleshan, Mianyang",,31.472493,104.7806,25,9,18,5,5,8,16,14,1014,86,5,20141030170000
154,"High-tech Zone Water Company, Mianyang",,31.463309,104.674293,50,20,17,12,3,7,16,14,1014,86,5,20141030170000
155,"No.3 water company, Mianyang",,31.505002,104.731054,46,24,18,10,3,8,16,14,1014,86,5,20141030170000
156,Mianyang,,31.465174,104.681731,50,24,18,13,5,8,16,14,1014,86,5,20141030170000
157,"Dongshan Park, Deyang",,31.118648,104.424587,17,13,19,17,4,8,16,13,1017,82,2,20141030170000
158,"Xixiaoqu, Deyang",,31.131159,104.390972,21,13,22,13,1,8,16,13,1017,82,2,20141030170000
159,"City Procuratorate, Deyang",,31.114554,104.407986,42,11,5,16,6,8,16,13,1017,82,2,20141030170000
160,"Refractory Factory, Deyang",,31.108606,104.356506,38,11,16,11,3,6,16,13,1017,82,2,20141030170000
161,Deyang,,31.124715,104.400703,42,13,22,17,6,8,16,13,1017,82,2,20141030170000
162,"Nongnongping, Panzhihua",,26.566698,101.695438,93,60,10,20,2,10,16,10,0,61,3,20141030170000
163,"Hemenkou, Panzhihua",,26.589072,101.578312,65,39,17,11,8,15,16,10,0,61,3,20141030170000
164,"Bingcaogang, Panzhihua",,26.58143,101.718473,59,53,9,13,6,16,16,10,0,61,3,20141030170000
165,"Renhe, Panzhihua",,26.498166,101.746887,25,12,7,9,2,16,16,10,0,61,3,20141030170000
166,"Jinjina, Panzhihua",,26.553226,101.84862,34,33,9,10,8,8,16,10,0,61,3,20141030170000
167,Panzhihua,,26.578779,101.720211,93,60,17,20,8,16,16,10,0,61,3,20141030170000
168,"Shima Middle School, Yibin",,28.815979,104.599199,80,35,11,8,8,11,18,16,1016,87,0,20141030170000
169,"Municipal party committee, Yibin",,28.762654,104.624834,85,29,8,11,6,9,18,16,1016,87,0,20141030170000
170,"No. 4 middle school, Yibin",,28.783257,104.608407,104,40,8,12,5,8,18,16,1016,87,0,20141030170000
171,"City government, Yibin",,28.760477,104.644079,89,40,7,17,5,9,18,16,1016,87,0,20141030170000
172,"Huangjinzui, Yibin",,28.712319,104.578389,87,40,10,9,5,10,18,16,1016,87,0,20141030170000
173,"Shaping Middle School, Yibin",,28.795569,104.681393,78,28,15,6,16,9,18,16,1016,87,0,20141030170000
174,Yibin,,28.748384,104.645766,104,40,15,17,16,11,18,16,1016,87,0,20141030170000
175,"Datang Hill, Zigong",,29.359969,104.757388,80,34,16,11,7,4,18,16,0,85,2,20141030170000
176,"Yanma Road, Zigong",,29.355752,104.724036,55,48,6,4,4,5,19,16,0,85,2,20141030170000
177,"Tanmulin Street, Zigong",,29.353555,104.777397,70,30,20,6,12,8,18,16,0,85,2,20141030170000
178,"Chunhua Road, Zigong",,29.33825,104.771895,85,31,12,6,13,10,18,16,0,85,2,20141030170000
179,Zigong,,29.33617,104.781138,85,56,20,11,13,10,18,16,0,85,2,20141030170000
180,"Jiushi Hill, Luzhou",,28.955347,105.434207,85,31,24,7,4,7,19,17,0,87,1,20141030170000
181,"Xiaoshishang Port, Luzhou",,28.899583,105.447192,82,37,9,4,5,9,19,17,0,87,1,20141030170000
182,"Lantianxian Bridge, Luzhou",,28.852766,105.4358,68,36,12,8,3,2,19,17,0,87,1,20141030170000
183,"City Environment Monitoring Station, Luzhou",,28.895898,105.435802,87,30,9,13,4,3,19,17,0,87,1,20141030170000
184,Luzhou,,28.868782,105.445938,87,37,24,13,5,9,19,17,0,87,1,20141030170000
185,"City Committee, Nanchong",,30.799993,106.082906,107,34,3,7,2,6,17,17,1015,100,1,20141030170000
186,"Refinery Factory, Nanchong",,30.819412,106.10712,87,51,4,19,4,4,17,17,1015,100,1,20141030170000
187,"Gaoping District Monitoring Station, Nanchong",,30.783291,106.110417,76,53,3,6,3,10,17,17,1015,100,1,20141030170000
188,"Jialing District EPB, Nanchong",,30.761255,106.06818,102,33,11,21,4,6,17,17,1015,100,1,20141030170000
189,"City Environmental Monitoring Station, Nanchong",,30.836519,106.11272,107,39,26,16,10,9,17,17,1015,100,1,20141030170000
190,Nanchong,,30.835511,106.114717,107,53,26,32,10,10,17,17,1015,100,1,20141030170000
1249,"City Monitoring Station, Neijiang",,29.592673,105.036234,102,25,13,3,10,5,18,16,0,85,2,20141030170000
1250,"Dongxing District Government , Neijiang",,29.592148,105.074966,97,30,12,1,2,2,18,16,0,85,2,20141030170000
1251,"No 2 middle school, Neijiang",,29.579135,105.068548,97,34,7,2,6,4,18,16,0,85,2,20141030170000
1252,Neijiang,,29.577653,105.06166,102,34,13,3,10,6,18,16,0,85,2,20141030170000
1253,"City Monitoring Station, Suining",,30.610641,105.683583,68,41,39,9,4,32,18,14,0,82,2,20141030170000
1254,"Administrative center , Suining",,30.63206,105.819747,63,31,24,8,6,6,18,14,0,82,2,20141030170000
1255,Suining,,30.530053,105.596307,76,41,39,10,11,32,18,14,0,82,2,20141030170000
1256,"City Monitoring Station, Leshan",,29.560651,103.759211,53,17,11,5,1,10,16,14,0,85,1,20141030170000
1257,"Leshan Giant Buddha Scenic Area , Leshan",,29.543938,103.772706,55,17,13,6,1,9,16,14,0,85,1,20141030170000
1258,Leshan,,29.54935,103.767777,65,21,13,11,2,11,16,14,0,85,1,20141030170000
1259,"Heilongtan , Meishan",,30.047726,103.900649,85,41,19,5,2,7,16,13,1017,82,2,20141030170000
1260,"Bureau of Meteorology, Meishan",,30.084591,103.843715,114,50,7,11,2,10,16,13,1017,82,2,20141030170000
1261,"Xuguang Community , Meishan",,30.066277,103.8516,119,51,5,9,2,6,16,13,1017,82,2,20141030170000
1262,"City Monitoring Station, Meishan",,30.059205,103.836229,112,49,5,7,2,9,16,13,1017,82,2,20141030170000
1263,Meishan,,30.072618,103.85064,119,51,19,11,2,10,16,13,1017,82,2,20141030170000
1264,"Ziyang middle school, Ziyang",,30.147763,104.638024,65,25,11,3,10,7,18,16,0,85,2,20141030170000
1265,Ziyang,,30.126054,104.63004,65,27,11,6,14,12,18,16,0,85,2,20141030170000
191,Shenyang US Consulate,,41.785668,123.432865,461,114,,32,16,,5,3,1025,87,2,20141030170000
192,"Huishan, Shenyang",,41.835421,123.647773,508,522,13,24,4,17,6,3,1025,81,2,20141030170000
193,"Hunnan, Shenyang",,41.758263,123.540809,547,600,8,30,59,16,5,3,1025,87,2,20141030170000
194,"Zhangshi, Shenyang",,41.771679,123.289859,481,584,3,28,10,17,6,3,1025,81,2,20141030170000
195,"Artillery College, Shenyang",,41.835749,123.547799,251,345,10,28,11,16,5,3,1025,87,2,20141030170000
196,"Beiling, Shenyang",,41.849633,123.434146,505,598,6,30,9,15,6,3,1025,81,2,20141030170000
197,"Wenyi Road, Shenyang",,41.767444,123.416144,559,114,12,32,16,17,5,3,1025,87,2,20141030170000
198,"Xiaoheyan, Shenyang",,41.779828,123.484015,511,544,8,31,11,16,6,3,1025,81,2,20141030170000
199,"Taiyuan Street, Shenyang",,41.799646,123.406146,536,582,4,30,12,18,6,3,1025,81,2,20141030170000
200,"Ermao, Shenyang",,41.783011,123.366679,542,617,15,31,11,17,5,3,1025,87,2,20141030170000
201,"Liaoning University, Shenyang",,41.830704,123.361071,508,89,8,19,6,17,5,3,1025,87,2,20141030170000
202,Shenyang,,41.808126,123.437611,536,582,4,30,12,18,6,3,1025,81,2,20141030170000
1104,"wenhua street, Shenyang , Shenyang",,41.774139,123.441839,559,114,12,32,16,17,6,3,1025,81,2,20141030170000
1105,"Tanglin Road , Shenyang , Shenyang",,41.823665,123.562317,251,345,10,28,11,16,6,3,1025,81,2,20141030170000
203,"Ganjingzi, Dalian",,38.9747,121.616893,109,50,33,22,4,4,14,13,1022,94,3,20141030170000
204,"Zhoushuizi, Dalian",,38.951928,121.569981,119,56,32,17,2,6,14,13,1022,94,3,20141030170000
205,"Xinghai No 3 station, Dalian",,38.885779,121.568864,153,55,35,11,5,5,14,12,1022,88,2,20141030170000
206,"Qingniwa Bridge, Dalian",,38.91274,121.638018,124,47,29,17,2,8,14,12,1022,88,2,20141030170000
207,"Fujiazhuang, Dalian",,38.864647,121.629947,74,40,24,10,3,3,14,13,1022,94,3,20141030170000
208,"Qixianling, Dalian",,38.856978,121.523169,89,47,17,20,2,5,14,13,1022,94,3,20141030170000
209,"Lushun, Dalian",,38.808946,121.264063,102,42,21,10,2,5,14,12,1022,88,2,20141030170000
210,"Jinzhou, Dalian",,39.132192,121.753259,102,88,20,8,1,4,14,13,1022,94,3,20141030170000
211,"BDA, Dalian",,39.05213,121.782022,93,52,12,16,7,5,14,13,1022,94,3,20141030170000
212,"D&D Port, Dalian",,39.064087,121.981874,80,20,16,5,1,5,14,12,1022,88,3,20141030170000
213,Dalian,,38.91478,121.619625,124,47,29,17,2,8,-,-,0,-,-,20141030170000
214,"Bearing Factory, Dandong",,40.068929,124.345703,160,99,7,36,21,15,10,6,1024,67,1,20141030170000
215,"Financial school, Dandong",,40.158723,124.432593,151,74,4,26,11,16,10,6,1024,67,1,20141030170000
216,"Yuanbaoshan water, Dandong",,40.149431,124.391698,-,-,-,-,-,-,-,-,0,-,-,20141030170000
217,"Experimental Primary School, Dandong",,39.887343,124.158056,170,103,2,37,15,15,10,6,1024,67,1,20141030170000
218,Dandong,,40.002046,124.360479,170,103,16,37,15,24,10,6,1024,67,1,20141030170000
1106,"minzhu bridge, Dandong , Dandong",,40.112974,124.373604,170,103,2,37,15,24,10,6,1024,67,1,20141030170000
1107,"yuanbaoshan, Dandong , Dandong",,40.146298,124.399081,122,54,16,12,14,11,10,6,1024,67,1,20141030170000
1108,"linjiang houjie, Dandong , Dandong",,40.152757,124.431745,151,74,5,26,11,16,10,6,1024,67,1,20141030170000
219,"BDA, Panjin",,41.157144,122.06645,296,152,18,17,7,23,9,3,0,65,4,20141030170000
220,"Xinglongtai, Panjin",,41.140948,122.111343,271,144,15,18,24,17,9,3,0,65,4,20141030170000
221,"Dingxiang, Panjin",,41.16139,121.928781,264,143,-,16,5,13,9,3,0,65,4,20141030170000
222,Panjin,,41.122089,122.076206,296,152,18,17,7,23,9,3,0,65,4,20141030170000
223,"No.3 water company, Yingkou",,40.682052,122.385352,197,131,23,14,6,11,9,4,1025,65,4,20141030170000
224,"Yingkou University, Yingkou",,40.683689,122.388285,179,125,18,16,6,13,9,4,1025,65,4,20141030170000
225,"Botanical garden, Yingkou",,40.711674,122.281568,-,-,-,-,-,-,-,-,0,-,-,20141030170000
226,Yingkou,,40.668578,122.24059,197,131,23,16,8,15,9,4,1025,65,4,20141030170000
1109,"jinghu west street, Yingkou , Yingkou",,40.653831,122.221943,197,131,23,14,6,11,9,4,1025,65,4,20141030170000
1110,"Daqing Road , Yingkou , Yingkou",,40.709181,122.28243,-,-,-,-,-,-,-,-,0,-,-,20141030170000
227,"Xishanpo, Huludao",,40.724078,120.921974,200,205,22,23,143,19,,,0,,,20141030170000
228,"Huagong hospital, Huludao",,40.755662,120.848435,185,153,19,14,13,21,,,0,,,20141030170000
229,"New district park, Huludao",,40.723415,120.853801,191,176,26,15,11,20,,,0,,,20141030170000
230,"Lianshan district governement, Huludao",,40.775488,120.872292,191,149,27,16,10,15,,,0,,,20141030170000
231,Huludao,,40.712501,120.842107,200,205,26,23,143,21,,,0,,,20141030170000
1111,"Dongcheng District , Huludao , Huludao",,40.775362,120.871706,191,149,27,16,10,15,,,0,,,20141030170000
1112,"huagong street, Huludao , Huludao",,40.758901,120.842935,185,153,19,14,13,21,,,0,,,20141030170000
232,Anshan,,41.110466,123.000147,466,536,17,35,19,29,6,3,1025,81,2,20141030170000
233,"Qianshan Park, Anshan",,41.033486,123.143897,345,260,20,22,7,9,5,3,1025,87,2,20141030170000
234,"Tiexi, Anshan",,41.121636,122.97506,461,536,7,22,16,27,5,3,1025,87,2,20141030170000
235,"Taiping Station, Anshan",,41.153322,123.052433,451,449,7,20,18,22,5,3,1025,87,2,20141030170000
236,"Central Station, Anshan",,41.106731,123.002736,434,373,12,26,14,17,5,3,1025,87,2,20141030170000
237,"Shengou Temple, Anshan",,41.137157,123.031901,466,457,9,35,9,18,6,3,1025,81,2,20141030170000
1113,"Qianshan , Anshan , Anshan",,41.014521,123.122538,345,260,17,22,7,10,6,3,1025,81,2,20141030170000
1114,"Tiexi Sandao jie, Anshan",,41.103264,122.978613,461,536,7,22,16,29,6,3,1025,81,2,20141030170000
1115,"Taiyang, Anshan",,41.094946,123.019037,434,373,12,26,14,17,6,3,1025,81,2,20141030170000
238,Fushun,,41.883028,123.962984,410,348,19,35,9,33,6,3,1025,81,2,20141030170000
239,"Shenfu new town, Fushun",,41.804638,123.631684,-,-,-,-,-,-,-,-,0,-,-,20141030170000
240,"Reservoir, Fushun",,41.8464,123.802857,255,193,19,34,5,33,5,3,1025,87,2,20141030170000
241,"Train Station, Fushun",,41.89726,124.017604,344,265,7,25,8,22,5,3,1025,87,2,20141030170000
242,"Dongzhou, Fushun",,41.855578,124.044738,142,239,12,27,9,14,5,3,1025,87,2,20141030170000
243,"Xinhua, Fushun",,41.888598,123.932932,410,348,8,35,6,20,5,3,1025,87,2,20141030170000
244,"Wanghua, Fushun",,41.888825,123.093723,363,280,18,26,7,16,5,3,1025,87,2,20141030170000
245,Benxi,,41.296267,123.772371,180,105,3,37,10,10,6,3,1025,81,2,20141030170000
246,"Weining, Benxi",,41.349663,123.826071,208,130,37,42,3,14,5,3,1025,87,2,20141030170000
247,"Occupational disease hospital, Benxi",,41.305432,123.74645,174,102,4,38,10,9,5,3,1025,87,2,20141030170000
248,"Dongming, Benxi",,41.292369,123.765058,195,103,5,37,57,31,5,3,1025,87,2,20141030170000
249,"Caitun, Benxi",,41.301591,123.746039,206,144,11,25,5,27,5,3,1025,87,2,20141030170000
250,"Xihu, Benxi",,41.331332,123.773537,284,69,20,37,10,17,5,3,1025,87,2,20141030170000
251,"Dayu, Benxi",,41.308091,123.818442,184,80,30,25,10,10,6,3,1025,81,2,20141030170000
1116,"Xinlitun , Benxi , Benxi",,41.264104,123.811523,180,105,3,37,10,10,5,3,1025,87,2,20141030170000
252,Jinzhou,,41.097169,121.132647,246,151,29,26,37,23,9,-2,1026,34,3,20141030170000
253,"Beihu Park, Jinzhou",,41.141447,121.137339,208,125,28,17,16,18,9,-2,1026,34,3,20141030170000
254,"Monitoring station, Jinzhou",,41.113441,121.140911,190,108,28,19,13,13,9,-2,1026,34,3,20141030170000
255,"Nanshan, Jinzhou",,41.570689,122.046753,204,107,28,19,19,23,9,-2,1026,34,3,20141030170000
1118,"BDA, Jinzhou",,40.853915,121.061756,229,148,11,20,26,19,9,-2,1026,34,3,20141030170000
1119,"tianan street, Jinzhou , Jinzhou",,41.124468,121.126119,195,101,28,20,14,13,9,-2,1026,34,3,20141030170000
1120,"baigu street, Jinzhou, Jinzhou",,41.12214,121.21027,212,123,24,17,16,23,9,-2,1026,34,3,20141030170000
1121,Chaoyang,,41.576022,120.456053,198,109,28,9,28,29,-,-,0,-,-,20141030170000
472,"Fukang road, Tianjin",,39.098136,117.157621,157,77,9,50,8,30,13,7,1022,67,1,20141030170000
1122,"Agricultural Area, Chaoyang",,43.93968,125.247371,196,85,6,7,6,15,9,-2,1026,32,3,20141030170000
1123,Tieling,,42.225197,123.732174,802,630,7,28,13,21,-,-,0,-,-,20141030170000
260,"Waterpark, Tieling",,42.297031,123.880748,802,242,7,28,13,18,5,3,1025,87,2,20141030170000
1124,"Huigong Street West , Tieling , Tieling",,42.311115,123.845614,744,102,6,26,6,17,6,3,1025,81,2,20141030170000
1125,Liaoyang,,41.269312,123.24268,458,173,8,23,12,36,-,-,0,-,-,20141030170000
1126,"Riverside Road , Liaoyang , Liaoyang",,41.176884,123.419859,341,72,6,17,9,20,5,3,1025,87,2,20141030170000
1127,Fuxin,,42.02373,121.675733,424,188,17,23,10,18,-,-,0,-,-,20141030170000
266,"Agricultural Area, Fuxin",,42.071291,121.696445,321,110,15,14,12,6,6,1,0,71,3,20141030170000
267,"Industrial Area, Fuxin",,42.041052,121.715554,424,178,17,22,8,13,6,1,0,71,3,20141030170000
1128,"Yulong Metro , Fuxin , Fuxin",,42.035091,121.666531,375,188,16,23,10,18,6,1,0,71,3,20141030170000
1129,"Dongyuan , Fuxin , Fuxin",,42.029119,121.681553,252,220,27,23,11,11,6,1,0,71,3,20141030170000
268,"City Monitoring Station, Jinan",,36.662614,117.054645,173,97,2,35,58,24,15,13,1020,85,2,20141030170000
269,"Shandong Institute of Economics, Jinan",,36.63819,117.074975,178,95,5,33,44,22,15,13,1020,85,2,20141030170000
270,"Quancheng Plaza, Jinan",,36.661711,117.027043,168,86,7,26,46,26,15,13,1020,85,2,20141030170000
271,"Kegansuo, Jinan",,36.611582,116.99384,165,91,2,37,37,21,15,13,1020,85,2,20141030170000
272,"Agriculture Science Institute, Jinan",,36.663115,116.95063,168,92,11,36,46,18,15,13,1020,85,2,20141030170000
273,"Lanxiang technical school, Jinan",,36.700421,116.95342,155,71,4,22,29,15,15,13,1020,85,2,20141030170000
274,"Chemical factory, Jinan",,36.687463,116.994406,159,69,4,34,50,16,15,13,1020,85,2,20141030170000
275,"Provincial Seed Warehouse, Jinan",,36.685706,117.066348,153,73,3,31,54,19,15,13,1020,85,2,20141030170000
276,"Shandong Architecture University, Jinan",,36.681732,117.191868,155,76,6,22,55,20,15,13,1020,85,2,20141030170000
277,"Baosheng cable company, Jinan",,36.724638,117.130855,153,65,3,27,32,18,15,13,1020,85,2,20141030170000
278,"Paomaling, Jinan",,36.47869,117.219027,42,16,20,17,18,12,15,13,1020,85,2,20141030170000
279,"Changqing District Communist Party School, Jinan",,36.548797,116.770859,171,97,6,33,51,20,15,13,1020,85,2,20141030170000
280,"BDA, Jinan",,36.685835,117.130851,160,88,16,34,55,24,15,13,1020,85,2,20141030170000
281,Jinan,,36.651426,117.126625,173,97,2,35,58,24,15,13,1020,85,2,20141030170000
282,"Shinan district No. 1, Qingdao",,36.065534,120.40839,38,19,47,7,4,3,15,13,1018,88,6,20141030170000
283,"Shibei district No. 1, Qingdao",,36.069919,120.341264,13,6,42,2,8,7,15,13,1018,88,7,20141030170000
284,"Shibei district No. 2, Qingdao",,36.104146,120.36637,25,9,18,10,4,6,15,13,1018,88,7,20141030170000
285,"Huangdao District No. 1, Qingdao",,35.958935,120.191041,53,35,41,6,12,5,15,13,1018,88,7,20141030170000
286,"Huangdao District No. 2, Qingdao",,35.970487,120.160339,50,11,36,10,9,2,15,13,1018,88,7,20141030170000
287,"Laoshan District No. 1, Qingdao",,36.085881,120.451839,42,8,48,8,16,7,15,13,1018,88,7,20141030170000
288,"Laoshan District No. 2, Qingdao",,36.091075,120.490388,21,13,63,8,9,1,15,13,1018,88,7,20141030170000
289,"Licang District No. 1, Qingdao",,36.184872,120.38533,25,14,23,3,4,8,15,13,1018,88,7,20141030170000
290,"Licang District No. 2, Qingdao",,36.154369,120.432287,17,23,26,4,6,4,15,13,1018,88,7,20141030170000
291,"Chengyang District No. 1, Qingdao",,36.308502,120.40008,50,12,35,8,11,3,15,13,1018,88,7,20141030170000
292,"Chengyang District No. 2, Qingdao",,36.308429,120.465806,34,36,43,4,5,4,15,13,1018,88,7,20141030170000
293,Qingdao,,36.067358,120.387773,61,16,47,7,4,3,15,13,1018,88,7,20141030170000
294,"Zichuan Meteo. Stations, Zibo",,36.637916,117.960222,-,-,-,-,-,-,-,-,0,-,-,20141030170000
295,"Dongfeng Chemical factory, Zibo",,36.838576,118.050785,161,68,2,23,36,16,13,12,0,94,3,20141030170000
296,"Boshan shuangshan, Zibo",,36.497278,117.853581,164,65,1,32,25,17,13,12,0,94,3,20141030170000
297,"Linzi Putian Park, Zibo",,36.820171,118.315022,102,44,14,18,5,7,13,12,0,94,3,20141030170000
298,"Qilu Petrochemical, Zibo",,36.765907,118.254967,99,59,10,20,5,8,13,12,0,94,3,20141030170000
299,"Zhoucun sanjin Group, Zibo",,36.8044,117.85694,112,42,13,29,17,14,13,12,0,94,3,20141030170000
300,"Vocational College, Zibo",,36.825208,117.926305,112,53,6,28,15,15,13,12,0,94,3,20141030170000
301,"BDA, Zibo",,36.905214,118.021824,149,57,8,17,20,6,13,12,0,94,3,20141030170000
302,Zibo,,36.813618,118.060948,170,80,6,32,44,18,13,12,0,94,3,20141030170000
303,"Shizhong District Government, Zaozhuang",,34.850397,117.569545,61,25,25,12,19,6,16,15,1018,98,0,20141030170000
304,"Sewage treatment plant, Zaozhuang",,34.818951,117.595345,59,43,21,7,40,26,16,15,1018,98,0,20141030170000
305,"Xuecheng EPA, Zaozhuang",,34.790214,117.272455,85,32,6,14,17,4,16,15,1018,98,0,20141030170000
306,"Yicheng District government, Zaozhuang",,34.772806,117.57647,65,29,20,13,17,4,16,15,1018,98,0,20141030170000
307,"Taierzhuang EPA, Zaozhuang",,34.579462,117.741067,46,30,9,9,4,8,16,15,1018,98,0,20141030170000
308,"Shanting EPA, Zaozhuang",,35.070373,117.457691,61,30,25,10,10,8,16,15,1018,98,0,20141030170000
309,"City EPA, Zaozhuang",,34.809466,117.320608,68,29,16,8,26,4,16,15,1018,98,0,20141030170000
310,"High-tech zone, Zaozhuang",,34.821779,117.363495,63,26,17,8,20,5,16,15,1018,98,0,20141030170000
311,Zaozhuang,,34.809693,117.329634,61,25,25,12,19,6,16,15,1018,98,0,20141030170000
312,"City EPA, Dongying",,37.432052,118.672871,93,55,23,9,18,10,15,13,0,86,4,20141030170000
313,"Vocational College, Dongying",,37.438653,118.630567,95,51,27,6,13,7,15,13,0,86,4,20141030170000
314,"Xianhe Oil Production Plant, Dongying",,37.442419,118.510222,104,57,25,9,7,8,15,13,0,86,4,20141030170000
315,"Gengjin village, Dongying",,37.445072,118.55839,87,57,23,10,10,5,15,13,0,86,4,20141030170000
316,"City environmental company, Dongying",,37.466599,118.508012,72,48,22,10,4,9,15,13,0,86,4,20141030170000
317,"Hekou  district, Dongying",,37.883786,118.522171,80,51,27,7,6,4,15,13,0,86,4,20141030170000
318,"BDA, Dongying",,37.435162,118.701827,154,62,28,11,10,12,15,13,0,86,4,20141030170000
319,Dongying,,37.435429,118.680434,93,55,23,9,18,10,15,13,0,86,4,20141030170000
320,"Bearing Factory, Yantai",,37.544126,121.376956,53,32,21,19,5,8,,,0,,,20141030170000
321,"Xijiao Chemical Station, Yantai",,37.547148,121.323695,61,46,33,4,4,8,,,0,,,20141030170000
322,"Fushan Monitoring Stations, Yantai",,37.472245,121.260116,46,8,13,6,6,6,,,0,,,20141030170000
323,"Mouping EPA, Yantai",,37.376681,121.586509,50,17,21,5,1,9,,,0,,,20141030170000
324,"Laishan EPA, Yantai",,37.478422,121.44829,38,10,34,10,9,3,,,0,,,20141030170000
325,"Laishan Shengquan Industrial Park, Yantai",,37.4271,121.408386,59,14,25,10,11,1,,,0,,,20141030170000
326,"China Agricultural University, Yantai",,37.423568,121.511838,74,23,30,8,8,5,,,0,,,20141030170000
327,"BDA EPA, Yantai",,37.560827,121.257954,55,22,16,6,4,7,,,0,,,20141030170000
329,"Dajijia, Yantai",,37.673849,121.071465,59,29,26,5,6,5,,,0,,,20141030170000
330,Yantai,,37.464793,121.453142,53,32,30,19,5,9,,,0,,,20141030170000
331,"BDA, Weifang",,36.720022,119.054064,78,30,19,12,11,3,,,0,,,20141030170000
332,"Business School, Weifang",,36.682442,119.105909,76,20,20,11,10,4,,,0,,,20141030170000
333,"Hanting District, Weifang",,36.773484,119.199705,57,33,23,2,5,3,,,0,,,20141030170000
334,"Gongda Company, Weifang",,36.657635,119.167266,57,17,29,8,6,3,,,0,,,20141030170000
335,"City EPA, Weifang",,36.701272,119.16838,63,26,26,6,3,3,,,0,,,20141030170000
336,"City Arbitration Committee, Weifang",,36.702422,119.145927,50,24,32,4,6,4,,,0,,,20141030170000
337,"Xinhui Group, Weifang",,36.641581,119.11679,59,23,23,13,10,6,,,0,,,20141030170000
338,"Jincheng Middle School, Weifang",,36.773611,119.115539,74,23,29,4,7,4,,,0,,,20141030170000
339,Weifang,,36.707217,119.167638,78,29,22,8,9,6,,,0,,,20141030170000
340,"City Monitoring Station, Jining",,35.408443,116.623917,152,65,9,24,10,11,16,15,1019,93,1,20141030170000
1090,"Shengdi Hollidays Resort, Jining",,35.424746,116.699093,134,65,8,31,17,10,16,15,1019,93,1,20141030170000
341,"Sewage treatment plant, Jining",,35.364286,116.609177,158,62,9,27,9,12,16,15,1019,93,1,20141030170000
342,"Electrochemical Factory, Jining",,35.390473,116.552956,142,75,10,27,18,16,16,15,1019,93,1,20141030170000
343,"Rencheng BDA, Jining",,35.390484,116.662995,155,84,13,28,20,14,16,15,1019,93,1,20141030170000
344,"Agricultural School, Jining",,35.44235,116.601682,109,67,6,26,6,9,16,15,1019,93,1,20141030170000
345,"BDA Huojucheng, Jining",,35.436377,116.642953,152,75,7,25,26,13,16,15,1019,93,1,20141030170000
346,Jining,,35.414473,116.59239,152,65,8,32,10,11,16,15,1019,93,1,20141030170000
347,"Taishan monitoring station, Taian",,36.194362,117.159648,72,37,13,11,5,12,8,8,0,98,8,20141030170000
348,"Shandong Electric Power School, Taian",,36.176071,117.12413,78,33,16,22,6,12,8,8,0,98,8,20141030170000
349,"Population Education school, Taian",,36.194417,117.104131,151,73,19,19,4,11,8,8,0,98,8,20141030170000
350,"Houfeng company, Taian",,36.204863,117.19015,72,50,11,15,6,5,8,8,0,98,8,20141030170000
351,"Nongda new campus, Taian",,36.170179,117.165191,117,75,6,38,30,15,8,8,0,98,8,20141030170000
352,"Transportation technical school, Taian",,36.202126,117.047068,124,65,3,26,7,17,8,8,0,98,8,20141030170000
353,"ICT Technology, Taian",,36.116621,117.107458,117,59,9,23,20,14,8,8,0,98,8,20141030170000
354,Taian,,36.200502,117.093682,72,37,13,11,5,12,8,8,0,98,8,20141030170000
355,"City Environmental Monitoring Station, Weihai",,37.513939,122.067058,25,20,37,10,4,3,15,13,0,82,5,20141030170000
356,"Woodworking Factory, Weihai",,37.325455,122.160777,38,17,42,6,3,2,15,13,0,82,5,20141030170000
357,"Lantian Hotel, Weihai",,37.514641,122.146276,17,21,42,9,10,6,15,13,0,82,5,20141030170000
358,"Zhang village government, Weihai",,37.485561,122.049436,21,12,30,6,3,6,15,13,0,82,5,20141030170000
359,"Gao District Bank, Weihai",,37.534919,122.056294,46,21,33,11,6,2,15,13,0,82,5,20141030170000
360,"Huxia technical school, Weihai",,37.427951,122.130811,50,32,31,9,1,2,15,13,0,82,5,20141030170000
361,Weihai,,37.5141,122.125477,34,21,37,10,4,3,15,13,0,82,5,20141030170000
362,"City governement square, Rizhao",,35.4075,119.526008,17,8,38,1,5,2,17,17,1018,100,1,20141030170000
363,"Port Authority, Rizhao",,35.381297,119.55396,9,14,39,2,2,3,17,17,1018,100,1,20141030170000
364,"City Monitoring Station, Rizhao",,35.388683,119.496405,9,10,37,6,3,2,17,17,1018,100,1,20141030170000
365,"Professor Garden, Rizhao",,35.462161,119.574193,42,30,38,2,2,3,17,17,1018,100,1,20141030170000
366,"Vocational and Technical College, Rizhao",,35.441939,119.538187,9,9,42,2,3,4,17,17,1018,100,1,20141030170000
367,"Lanshan EPA branch, Rizhao",,35.293405,119.345716,50,19,33,5,11,7,17,17,1018,100,1,20141030170000
368,"Jinma Industrial Park, Rizhao",,35.373339,119.514108,25,10,33,16,10,2,17,17,1018,100,1,20141030170000
369,Rizhao,,35.416089,119.532316,25,6,38,16,5,2,17,17,1018,100,1,20141030170000
370,"Vegetable oil factory, Laiwu",,36.205028,117.700917,160,35,3,19,5,12,14,14,1020,97,2,20141030170000
371,"Nursing home, Laiwu",,36.266067,117.652769,137,56,5,17,9,15,14,14,1020,97,2,20141030170000
372,"Xinyi middle school, Laiwu",,36.245086,117.739025,97,50,4,19,6,14,14,14,1020,97,2,20141030170000
373,"Risheng International School, Laiwu",,36.208125,117.730959,314,53,8,12,6,14,14,14,1020,97,2,20141030170000
374,"Gangcheng EPA, Laiwu",,36.066836,117.871823,102,50,4,24,35,11,14,14,1020,97,2,20141030170000
375,"City EPA, Laiwu",,36.228913,117.694797,107,40,3,3,8,16,14,14,1020,97,2,20141030170000
376,Laiwu,,36.213688,117.682612,160,35,13,19,5,12,-,-,0,-,-,20141030170000
377,"Lunan Pharmaceutical Factory, Linyi",,35.061671,118.299527,72,21,9,13,4,6,15,14,0,93,4,20141030170000
378,"Yihe compound, Linyi",,35.056752,118.34739,74,13,12,12,9,9,15,14,0,93,4,20141030170000
379,"Linyi University, Linyi",,35.114777,118.293414,80,24,10,8,7,11,15,14,0,93,4,20141030170000
380,City EPA,Nanfang,35.104871,118.353518,68,26,16,9,9,10,15,14,0,93,4,20141030170000
381,"Xinguang woolen factory, Linyi",,34.981004,118.282,74,21,9,9,7,10,15,14,0,93,4,20141030170000
382,"Hongfu Baijiu Factory, Linyi",,34.998788,118.257275,68,33,9,11,7,11,15,14,0,93,4,20141030170000
384,"Hedong insurance company, Linyi",,35.089354,118.40812,61,11,12,10,6,7,15,14,0,93,4,20141030170000
385,"Jianghua vehicule center, Linyi",,35.010082,118.435749,57,36,7,8,14,11,15,14,0,93,4,20141030170000
386,Linyi,,35.10428,118.362202,72,21,9,13,17,6,15,14,0,93,4,20141030170000
387,"Heima group, Dezhou",,37.466063,116.314134,163,84,8,24,24,18,15,11,1021,68,1,20141030170000
388,"Monitoring station, Dezhou",,37.433107,116.377312,170,94,5,22,11,6,15,11,1021,68,1,20141030170000
389,"Supervision Station, Dezhou",,37.449689,116.324709,174,114,11,20,14,17,15,11,1021,68,1,20141030170000
390,"Huayu technical school, Dezhou",,37.462809,116.357559,161,67,6,32,17,13,15,11,1021,68,1,20141030170000
391,"Shuangyi group, Dezhou",,37.478848,116.316362,171,68,11,19,9,13,15,11,1021,68,1,20141030180000
392,Dezhou,,37.434959,116.363366,163,84,8,24,24,18,15,11,1021,68,1,20141030180000
393,"Dongchang District Government, Liaocheng",,36.444473,115.971733,197,122,16,37,39,24,16,8,1020,47,3,20141030180000
394,"Light Machinery Factory No. 2, Liaocheng",,36.456788,116.002383,224,166,15,34,35,21,16,8,1020,47,3,20141030180000
395,"City committee communist party school, Liaocheng",,36.479537,115.989288,192,149,14,34,36,16,16,8,1020,47,3,20141030180000
396,"Customs, Liaocheng",,36.431933,115.956974,224,139,22,36,40,20,16,8,1020,47,3,20141030180000
397,"Hongshun Garden, Liaocheng",,36.471124,115.960319,192,145,11,48,38,15,16,8,1020,47,3,20141030180000
398,"BDA, Liaocheng",,36.459407,116.043621,208,145,13,28,51,20,16,8,1020,47,3,20141030180000
399,Liaocheng,,36.456792,115.991051,197,122,16,37,39,24,16,8,1020,47,3,20141030180000
400,"City EPA, Binzhou",,37.38024,118.026895,112,29,10,10,7,15,15,13,1021,85,3,20141030180000
401,"Beizhong new school, Binzhou",,37.38374,117.988996,114,36,12,5,7,10,15,13,1021,85,3,20141030180000
402,"No.2 water factory, Binzhou",,37.36155,118.002648,137,42,7,12,8,14,15,13,1021,85,3,20141030180000
403,"Keling Chemical factory, Binzhou",,37.396138,117.943609,97,60,5,10,14,15,15,13,1021,85,3,20141030180000
404,"Yinhe logistics company, Binzhou",,37.356122,117.943326,151,52,9,6,18,10,15,13,1021,85,3,20141030180000
405,"Bilin compond, Binzhou",,37.36815,117.978964,142,39,11,12,32,13,15,13,1021,85,3,20141030180000
406,Binzhou,,37.382639,117.976606,112,29,10,10,7,15,15,13,1021,85,3,20141030180000
407,"Bureau of Meteorology, Heze",,35.248625,115.428775,197,125,15,22,49,14,15,12,0,81,4,20141030180000
408,"Sewage treatment plant, Heze",,35.222517,115.531511,195,141,15,32,33,21,15,12,0,81,4,20141030180000
409,"Municipal CPPCC, Heze",,35.237125,115.480591,191,123,16,26,54,17,15,12,0,81,4,20141030180000
410,"Huarun Pharmaceutical Company, Heze",,35.261463,115.524873,194,129,15,25,45,17,15,12,0,81,4,20141030180000
411,"Heze University, Heze",,35.269706,115.460934,203,130,20,23,53,14,15,12,0,81,4,20141030180000
412,Heze,,35.233354,115.486503,197,125,15,22,49,14,15,12,0,81,4,20141030180000
413,"Shiji Park, Shijiazhuang",,38.03155,114.547873,287,182,14,53,44,27,11,10,1022,94,2,20141030180000
414,"Xinan College, Shijiazhuang",,38.012764,114.473163,283,193,3,42,43,23,11,10,1022,94,2,20141030180000
415,"Chemical College, Shijiazhuang",,38.055503,114.569816,287,193,1,42,30,21,11,10,1022,94,2,20141030180000
416,"Worker hospital, Shijiazhuang",,38.051784,114.461209,271,314,1,49,43,31,11,10,1022,94,2,20141030180000
417,"Northwest Water Company, Shijiazhuang",,38.140638,114.508038,283,220,3,42,17,20,11,10,1022,94,2,20141030180000
418,"High-tech zone, Shijiazhuang",,38.040482,114.610775,296,263,2,53,49,32,11,10,1022,94,2,20141030180000
419,"Fenglong Montain, Shijiazhuang",,37.910829,114.360264,287,880,41,17,56,7,11,10,1022,94,2,20141030180000
1130,"Zhengding Unicom, Shijiazhuang",,38.159458,114.59879,314,258,3,47,39,21,11,10,1022,94,2,20141030180000
1131,"Luancheng Communications, Shijiazhuang",,37.906534,114.638785,308,206,3,53,39,27,11,10,1022,94,2,20141030180000
1132,"Gaocheng Experimental School, Shijiazhuang",,38.039518,114.867812,353,482,-,34,43,20,11,10,1022,94,2,20141030180000
1133,"Wuji EPA, Shijiazhuang",,38.17862,114.997012,320,203,20,42,57,19,11,10,1022,94,2,20141030180000
1134,"Shenze Power Supply Bureau, Shijiazhuang",,38.197674,115.219126,267,229,22,47,61,17,12,10,1023,88,1,20141030180000
1135,"Zhaoxian EPA, Shijiazhuang",,37.77171,114.775957,330,305,4,54,50,25,11,10,1022,94,2,20141030180000
1136,"Gaoyi County City Hall, Shijiazhuang",,37.623535,114.612729,279,195,4,50,52,24,11,10,1022,94,2,20141030180000
1137,"Zanhuang County City Hall, Shijiazhuang",,37.672898,114.398269,270,198,1,47,19,24,11,10,1022,94,2,20141030180000
1138,"Jingxing Bureau of Meteorology, Shijiazhuang",,38.038788,114.158406,258,225,1,43,33,28,11,10,1022,94,2,20141030180000
1139,"Pingshan Ye River, Shijiazhuang",,38.266657,114.210275,225,193,6,33,12,17,11,10,1022,94,2,20141030180000
420,Shijiazhuang,,38.042926,114.520834,289,213,22,49,52,20,11,10,1022,94,2,20141030180000
421,"No. 12 middle school, Tangshan",,39.659306,118.190271,,,,,,,-,-,0,-,-,20141030180000
422,"Ceramics Company, Tangshan",,39.669255,118.225185,240,185,4,42,22,30,13,7,1022,67,2,20141030180000
423,"Commodities Bureau, Tangshan",,39.642301,118.191265,251,173,5,33,17,28,13,7,1022,67,2,20141030180000
424,"Leidazhanzi Station, Tangshan",,39.644375,118.150383,231,171,5,41,19,31,13,7,1022,67,2,20141030180000
425,"Supply and marketing cooperatives, Tangshan",,39.632334,118.17232,237,163,9,43,24,31,13,7,1022,67,2,20141030180000
1140,"Guye District City Hall, Tangshan",,39.741379,118.460246,193,113,10,34,12,35,11,6,1023,71,3,20141030180000
1141,"Kaiping Stations, Tangshan",,39.675246,118.275149,199,158,2,35,16,18,12,7,1022,72,2,20141030180000
1142,"Fengnan District City Hall, Tangshan",,39.5834,118.097454,222,166,3,46,21,32,12,7,1022,72,2,20141030180000
1143,"Fengrun City Hall, Tangshan",,39.840355,118.175338,305,187,2,35,37,35,12,7,1022,72,2,20141030180000
1144,"Qianxi EPA, Tangshan",,40.153339,118.317265,232,177,7,56,22,52,12,7,1022,72,2,20141030180000
1145,"Caofeidian Xinli  Primary School, Tangshan",,39.291232,118.462182,193,110,15,41,15,9,11,6,1023,71,3,20141030180000
1146,"Zunhua EPA, Tangshan",,40.206249,117.997315,269,187,14,56,26,36,12,7,1022,72,2,20141030180000
1147,"Qianan No.1 middle school, Tangshan",,40.004248,118.717055,215,125,8,22,16,30,12,7,1022,72,2,20141030180000
1266,"Luannan County , Tangshan",,39.511132,118.686928,163,68,8,30,4,15,12,7,1022,72,2,20141030180000
1267,"Yutian County , Tangshan",,39.908249,117.751417,291,289,7,57,49,20,12,7,1022,72,2,20141030180000
426,Tangshan,,39.632175,118.186472,251,173,5,33,17,28,-,-,0,-,-,20141030180000
427,"City Monitoring Station, Qinhuangdao",,39.958109,119.607773,93,30,22,27,10,10,,,0,,,20141030180000
428,"Beidaihe, Qinhuangdao",,39.829209,119.53194,76,28,18,24,16,11,,,0,,,20141030180000
429,"Shanhai Pass, Qinhuangdao",,40.019298,119.767898,70,26,26,24,19,7,,,0,,,20141030180000
430,"Contruction Plazz, Qinhuangdao",,39.943187,119.542912,68,45,24,44,4,4,,,0,,,20141030180000
431,"City government, Qinhuangdao",,39.93711,119.612769,107,24,21,27,45,6,,,0,,,20141030180000
1148,"Qinglong EPA, Qinhuangdao",,40.419223,118.958002,190,115,50,22,21,22,,,0,,,20141030180000
1149,"Changli EPA, Qinhuangdao",,39.714369,119.173237,119,54,22,20,12,6,,,0,,,20141030180000
1268,"Lulong County Bureau of Meteorology , Qinhuangdao",,39.901091,118.904857,203,116,26,1,13,14,,,0,,,20141030180000
432,Qinhuangdao,,39.936485,119.606263,107,24,21,27,45,6,,,0,,,20141030180000
433,"CongTai Park, Handan",,36.620197,114.501891,311,333,15,38,65,23,,,0,,,20141030180000
434,"City EPA, Handan",,36.618145,114.518822,319,268,19,31,1,21,,,0,,,20141030180000
435,"East Sewage Factory, Handan",,36.616064,114.548714,332,338,11,63,22,16,,,0,,,20141030180000
436,"Mine Hospital, Handan",,36.578149,114.509854,343,268,16,49,55,18,,,0,,,20141030180000
1150,"Fengfeng mine Inland Revenue Department, Handan",,36.423085,114.245994,338,296,20,32,77,9,,,0,,,20141030180000
1151,"Shexian EPA, Handan",,36.589084,113.692341,315,186,16,31,69,44,,,0,,,20141030180000
1152,"Ci County Vocational Education Center, Handan",,36.380247,114.390119,320,263,23,49,61,18,,,0,,,20141030180000
1153,"Yongnian government guesthouse, Handan",,36.783297,114.502905,273,194,12,69,52,19,,,0,,,20141030180000
1154,"Wuan BDA, Handan",,36.686223,114.269009,285,236,8,49,42,13,,,0,,,20141030180000
1085,Handan,,36.625683,114.544812,332,338,11,63,22,16,,,0,,,20141030180000
437,"Road and Bridge Corporation, Xingtai",,37.096415,114.538799,266,209,6,46,48,17,13,7,1023,54,1,20141030180000
438,"Dahuo fontain, Xingtai",,37.097563,114.488001,274,184,8,32,50,19,13,7,1023,54,1,20141030180000
439,"Xingtai Normal College, Xingtai",,37.053404,114.531819,275,229,13,41,53,17,13,7,1023,54,1,20141030180000
440,"Environment protection office, Xingtai",,37.06253,114.490985,255,219,12,27,53,38,13,7,1023,54,1,20141030180000
1155,"Cultural centers within the mound, Xingtai",,37.293569,114.524873,254,189,10,38,55,39,13,7,1023,54,1,20141030180000
383,Xingtai,,37.071066,114.510749,255,219,12,27,53,38,13,7,1023,54,1,20141030180000
441,"City Monitoring Station, Baoding",,38.871737,115.527103,248,177,18,34,39,9,14,7,1022,53,2,20141030180000
442,"Surface water Company, Baoding",,38.842891,115.467326,227,158,8,65,40,11,14,7,1022,53,2,20141030180000
443,"Huadian II, Baoding",,38.896748,115.528102,268,187,9,46,54,12,14,7,1022,53,2,20141030180000
444,"Reception Center, Baoding",,38.911905,115.477301,291,196,5,40,30,12,14,7,1022,53,2,20141030180000
445,"Film Factory, Baoding",,38.876949,115.448383,181,188,14,38,38,14,14,7,1022,53,2,20141030180000
446,"Natatorium, Baoding",,38.863815,115.499212,221,190,14,39,41,14,14,7,1022,53,2,20141030180000
1156,"Qingyuan City Hall, Baoding",,38.771758,115.502189,259,178,9,1,23,14,14,7,1022,53,2,20141030180000
1157,"Xushui EPA, Baoding",,39.025781,115.668023,299,226,12,38,49,17,14,7,1022,53,2,20141030180000
1158,"Zhouzhou Monitoring Stations, Baoding",,39.493241,116.040187,283,270,5,63,23,17,14,7,1022,53,2,20141030180000
1159,"Gaobeidian EPA, Baoding",,39.3329,115.885891,250,213,6,77,29,17,14,7,1022,53,2,20141030180000
447,Baoding,,38.874791,115.471124,181,188,14,70,38,14,14,7,1022,53,2,20141030180000
448,"Century Compound, Zhangjiakou",,40.770279,114.909106,65,62,10,16,7,11,10,5,1022,62,1,20141030180000
449,"North Pumping Station, Zhangjiakou",,40.874362,114.910119,156,70,4,29,11,20,10,5,1022,62,1,20141030180000
450,"Hardware Warehouse, Zhangjiakou",,40.81232,114.887119,102,106,23,14,33,29,10,5,1022,62,1,20141030180000
451,"Tanji Chang, Zhangjiakou",,40.796301,114.89811,152,54,14,15,17,13,10,5,1022,62,1,20141030180000
1160,"Xiahuayuan EPA, Zhangjiakou",,40.509345,115.302442,191,98,22,19,14,12,10,5,1022,62,1,20141030180000
1161,"Huaian EPA, Zhangjiakou",,40.68157,114.398646,207,134,6,53,43,17,10,5,1022,62,1,20141030180000
1162,"Huailai Fuqian Primary School, Zhangjiakou",,40.422204,115.530285,193,122,11,35,10,14,10,5,1022,62,1,20141030180000
1269,"Zhangbei EPA , Zhangjiakou",,41.166775,114.732369,188,103,24,18,16,9,10,5,1022,62,1,20141030180000
1270,"Kangbao County Environmental Protection Agency , Zhangjiakou",,41.837866,114.591246,167,73,24,8,9,7,10,5,1022,62,1,20141030180000
1271,"Guyuan County welfare , Zhangjiakou",,41.669984,115.687401,155,71,21,10,3,8,10,5,1022,62,1,20141030180000
1272,"Shangyi County Environmental Protection Bureau , Zhangjiakou",,41.086638,113.984688,179,90,25,21,18,11,10,5,1022,62,1,20141030180000
1273,"Yuxian Secondary School , Zhangjiakou",,39.84699,114.601986,160,79,11,31,15,12,10,5,1022,62,1,20141030180000
1274,"Yang County Vocational Education Center , Zhangjiakou",,40.106343,114.134732,171,104,16,20,12,42,10,5,1022,62,1,20141030180000
1275,"Wan county Environmental Protection Agency , Zhangjiakou",,40.770459,114.75033,61,127,8,25,34,19,10,5,1022,62,1,20141030180000
473,"Nankou road, Tianjin",,39.174022,117.199688,206,124,4,62,58,25,13,7,1022,67,1,20141030180000
1276,"Zhuolu County Environmental Protection Agency , Zhangjiakou",,40.374273,115.221393,254,157,8,3,13,24,10,5,1022,62,1,20141030180000
452,Zhangjiakou,,40.825744,114.893659,158,62,4,18,15,20,10,5,1022,62,1,20141030180000
453,"Railway, Chengde",,40.917557,117.972331,202,248,13,35,13,17,10,4,1024,57,1,20141030180000
454,"Cultural Center, Chengde",,40.974625,117.824437,206,167,5,39,18,19,10,4,1024,57,1,20141030180000
455,"Bank of China, Chengde",,40.985582,117.958304,183,134,5,28,15,14,10,4,1024,57,1,20141030180000
456,"BDA, Chengde",,40.937567,117.969325,198,238,7,22,15,17,10,4,1024,57,1,20141030180000
457,"Ligong, Chengde",,41.012579,117.94428,201,124,15,22,13,12,10,4,1024,57,1,20141030180000
1163,"Chengde County EPA, Chengde",,40.776643,118.17646,168,116,12,19,11,15,10,4,1024,57,1,20141030180000
1164,"Xinglong County City Hall, Chengde",,40.424301,117.513488,192,109,23,31,16,20,10,4,1024,57,1,20141030180000
1165,"Luanping EPA, Chengde",,40.950792,117.350715,194,123,14,43,17,20,10,4,1024,57,1,20141030180000
1166,"Fengning County City Hall, Chengde",,41.216739,116.658037,183,117,27,32,9,20,10,4,1024,57,1,20141030180000
1277,"Longhua EPA , Chengde",,41.311956,117.739605,186,98,11,29,3,21,10,4,1024,57,1,20141030180000
458,Chengde,,40.955652,117.968737,198,238,7,22,15,17,10,4,1024,57,1,20141030180000
459,"Municipal EPB, Cangzhou",,38.323507,116.876746,191,120,14,30,2,9,12,7,1022,72,2,20141030180000
460,"Cangxian Urban Construction Bureau, Cangzhou",,38.299495,116.890734,194,99,7,22,7,9,12,7,1022,72,2,20141030180000
461,"TV Broadcast Station, Cangzhou",,38.325525,116.863761,197,106,9,14,16,9,12,7,1022,72,2,20141030180000
1167,"Qing County City Hall, Cangzhou",,38.589643,116.815876,219,121,1,45,26,19,12,7,1022,72,2,20141030180000
1168,"Poyoushi City Hall, Cangzhou",,38.089516,116.590575,177,112,10,22,4,13,12,7,1022,72,2,20141030180000
1169,"Huanghua Finance Bureau Training Center, Cangzhou",,38.377793,117.343356,172,89,6,26,6,7,12,7,1022,72,2,20141030180000
462,Cangzhou,,38.305035,116.844625,197,106,9,14,16,9,12,7,1022,72,2,20141030180000
463,"Environmental Monitoring Supervision Center, Langfang",,39.558157,116.720995,317,229,10,78,25,17,12,7,1022,72,2,20141030180000
464,"TCM Medical Material Company, Langfang",,39.519096,116.689914,285,180,4,68,34,19,12,7,1022,72,2,20141030180000
465,"BDA, Langfang",,39.576175,116.779041,287,189,2,69,30,20,12,7,1022,72,2,20141030180000
466,"North China Institute of Aerospace, Langfang",,39.53517,116.743027,271,167,3,63,20,22,12,7,1022,72,2,20141030180000
1170,"Guan Party School, Langfang",,39.446185,116.311026,264,198,6,94,25,19,12,7,1022,72,2,20141030180000
1171,"Xianghe EPA, Langfang",,39.76725,117.015252,259,196,3,58,22,20,12,7,1022,72,2,20141030180000
1172,"Wenan County EPA, Langfang",,38.880927,116.47001,277,196,8,58,42,23,12,7,1022,72,2,20141030180000
1173,"Three Rivers Department of Transportation, Langfang",,39.989419,117.091528,266,233,3,45,14,16,12,7,1022,72,2,20141030180000
1278,"Yongqing EPA , Langfang",,39.329071,116.510917,301,300,3,72,24,14,12,7,1022,72,2,20141030180000
1279,"Dacheng EPA, Langfang",,38.712628,116.665751,236,188,12,77,33,15,12,7,1022,72,2,20141030180000
467,Langfang,,39.539148,116.689668,285,180,4,68,34,19,12,7,1022,72,2,20141030180000
468,"Hengshui City EPB, Hengshui",,37.739679,115.695929,288,213,12,40,41,18,12,11,0,90,3,20141030180000
469,"Environmental Monitoring Station, Hengshui",,37.738593,115.648837,296,202,11,73,27,16,12,11,0,90,3,20141030180000
470,"Electrical Machine North Factory, Hengshui",,37.758686,115.70094,254,265,8,25,42,19,12,11,0,90,3,20141030180000
1174,"Anping EPA, Hengshui",,38.238559,115.537988,271,175,18,38,39,21,12,11,0,89,3,20141030180000
1175,"Jizhou EPA, Hengshui",,37.548552,115.58679,267,196,20,35,32,18,12,11,0,89,3,20141030180000
1280,"Zaoqiang EPA, Hengshui",,37.520698,115.714936,291,195,37,40,38,17,12,11,0,89,3,20141030180000
1281,"Wuyi EPA, Hengshui",,37.801554,115.898697,302,233,15,34,49,19,12,11,0,89,3,20141030180000
1282,"Wuqiang EPA , Hengshui",,38.03557,115.959767,272,175,16,1,34,29,12,11,0,89,3,20141030180000
1283,"Raoyang EPA , Hengshui",,38.230652,115.741041,287,226,22,1,44,24,12,11,0,89,3,20141030180000
1284,"Gucheng County , Hengshui",,37.347569,115.966707,265,149,26,1,35,9,12,11,0,89,3,20141030180000
471,Hengshui,,37.739562,115.676066,254,265,8,25,42,19,12,11,0,90,3,20141030180000
1176,"Xinji City Hall, Xinji",,37.949711,115.230084,325,255,14,37,49,18,12,11,0,89,3,20141030180000
474,"Qinjian street, Tianjin",,39.166588,117.15104,208,121,12,53,51,20,13,7,1022,67,1,20141030180000
475,"Nanjing Road, Tianjin",,39.120958,117.195112,183,91,16,46,24,20,13,7,1022,67,1,20141030180000
476,"Dazhigu No.8 road, Tianjin",,39.111811,117.25147,182,124,19,52,21,13,13,7,1022,67,1,20141030180000
477,"Qianjin street, Tianjin",,39.09371,117.207981,170,110,14,61,22,16,13,7,1022,67,1,20141030180000
478,"Huaihe street, Tianjin",,39.227167,117.191293,240,152,5,64,18,17,13,7,1022,67,1,20141030180000
479,"Xiangshan street, Tianjin",,39.134752,117.275125,187,109,5,13,20,16,13,7,1022,67,1,20141030180000
480,"Yuejin Road, Tianjin",,39.088177,117.320884,184,80,5,56,22,13,13,7,1022,67,1,20141030180000
482,"No.4 street, Tianjin",,39.035228,117.713424,190,148,3,53,24,14,13,7,1022,67,1,20141030180000
483,"Yongming road, Tianjin",,38.840392,117.463805,173,103,10,35,16,17,13,7,1022,67,1,20141030180000
484,"Xinhua street, Tianjin",,39.138671,117.010083,207,155,2,39,22,14,13,7,1022,67,1,20141030180000
485,"Jingu Road, Tianjin",,38.985659,117.381254,161,98,3,30,7,10,13,7,1022,67,1,20141030180000
486,"Tanggu Yingkou street, Tianjin",,39.021768,117.656454,174,111,4,45,18,12,13,7,1022,67,1,20141030180000
487,"Hexi Yijing road, Tianjin",,39.248392,117.798043,197,141,11,29,19,14,13,7,1022,67,1,20141030180000
488,"Jianshe Road, Tianjin",,39.720075,117.310588,252,142,11,56,11,20,13,7,1022,67,1,20141030180000
489,"Quanzhou South road, Tianjin",,39.373857,117.050329,234,117,5,57,23,24,13,7,1022,67,1,20141030180000
490,"Donghuan road, Tianjin",,40.043144,117.451062,181,103,28,30,5,36,13,7,1022,67,1,20141030180000
491,"Tuanpowa, Tianjin",,38.920418,117.16299,159,60,10,41,3,7,13,7,1022,67,1,20141030180000
493,"Beiwei No.2 road, Tianjin",,38.943857,116.920624,190,118,2,34,14,14,13,7,1022,67,1,20141030180000
494,"Haitai fazhan No.2 road, Tianjin",,39.079608,117.096583,179,107,4,43,15,17,13,7,1022,67,1,20141030180000
495,"Hangtian road, Tianjin",,39.152244,117.381309,172,76,8,48,15,13,13,7,1022,67,1,20141030180000
496,"Hanbei road, Tianjin",,39.159768,117.770477,180,132,8,55,22,23,13,7,1022,67,1,20141030180000
497,"Baobai highway, Tianjin",,39.51757,117.349635,204,172,17,36,7,15,13,7,1022,67,1,20141030180000
498,Tianjin,,39.085164,117.207281,170,110,14,61,22,16,13,7,1022,67,1,20141030180000
499,"Wolong bridge, Hangzhou",,30.24371,120.132762,144,48,4,20,3,8,20,17,1016,83,1,20141030180000
500,"Hemu primary school, Hangzhou",,30.309669,120.124507,171,57,16,35,3,12,20,17,1016,83,1,20141030180000
501,"Zhejiang Agricultural University, Hangzhou",,30.265601,120.197583,156,61,9,34,5,14,20,17,1016,83,1,20141030180000
502,"Xiasha, Hangzhou",,30.303516,120.352618,190,72,1,44,7,11,20,17,1016,83,1,20141030180000
503,"Yunqi, Hangzhou",,30.178555,120.093142,119,51,2,14,3,9,20,17,1016,83,1,20141030180000
504,"Xixi, Hangzhou",,30.272425,120.068144,149,38,4,25,5,10,20,17,1016,83,1,20141030180000
505,"Chengxiang town, Hangzhou",,30.179493,120.274184,154,67,3,34,8,9,20,17,1016,83,1,20141030180000
506,"Qiandao lake, Hangzhou",,29.638139,119.031092,95,30,14,3,4,5,20,17,1016,83,2,20141030180000
507,"Linping town, Hangzhou",,30.415948,120.305059,167,69,2,35,9,13,20,17,1016,83,2,20141030180000
509,"No.2 Middle School, Hangzhou",,30.044303,119.956356,152,71,12,15,4,10,20,17,1016,83,1,20141030180000
510,"City Hall, Hangzhou",,30.234185,119.723503,151,56,23,13,3,9,20,17,1016,83,1,20141030180000
511,"No. 4 middle school, Hangzhou",,30.229428,119.699591,134,55,8,18,6,10,20,17,1016,83,1,20141030180000
512,Hangzhou,,30.271756,120.159765,164,65,2,35,3,17,20,17,1016,83,2,20141030180000
513,"City Station, Wenzhou",,28.009715,120.679129,132,62,5,22,8,11,18,17,0,96,0,20141030180000
514,"Ouhai, Wenzhou",,28.001846,120.641982,161,97,4,33,14,14,18,17,0,96,0,20141030180000
515,"Longwan, Wenzhou",,27.968122,120.768393,168,117,5,32,9,16,18,17,0,96,0,20141030180000
516,"Nanpu, Wenzhou",,27.981763,120.683685,114,65,4,16,7,10,18,17,0,96,0,20141030180000
517,Wenzhou,,27.990985,120.703425,114,65,4,16,7,10,18,17,0,96,0,20141030180000
518,"Monitoring station, Jiaxing",,30.75437,120.767373,161,75,11,32,9,9,19,19,1016,100,2,20141030180000
519,"Jiaxing University, Jiaxing",,30.745099,120.735004,169,66,2,32,7,10,19,19,1016,100,2,20141030180000
520,"Qinghe Primary School, Jiaxing",,30.775685,120.747969,159,85,2,29,10,10,19,19,1016,100,2,20141030180000
521,Jiaxing,,30.751627,120.762862,161,75,11,32,9,9,19,19,1016,100,2,20141030180000
522,"Chengbei water plant, Huzhou",,30.891155,120.096593,114,45,3,28,2,11,19,19,1016,100,2,20141030180000
523,"Jishan new village, Huzhou",,30.859939,120.120168,149,52,3,30,3,11,19,19,1016,100,2,20141030180000
524,"Town west water plant, Huzhou",,30.862371,120.084577,109,36,2,29,3,10,19,19,1016,100,2,20141030180000
525,Huzhou,,30.892304,120.091694,114,45,3,28,2,11,19,19,1016,100,2,20141030180000
526,"Donghu middle school, Shaoxing",,29.990447,120.647547,243,0,13,33,17,12,20,17,1016,83,0,20141030180000
527,"City EPA station, Shaoxing",,30.001695,120.584318,186,104,3,44,23,11,20,17,1016,83,0,20141030180000
528,"Chengdong BDA committee, Shaoxing",,29.986643,120.613578,180,101,5,32,18,8,20,17,1016,83,0,20141030180000
529,"Paojiang station, Shaoxing",,30.07574,120.62154,180,98,4,43,32,12,20,17,1016,83,0,20141030180000
530,"Shaoxing technical school, Shaoxing",,29.930983,120.577131,184,107,9,41,19,9,20,17,1016,83,0,20141030180000
531,"Library, Shaoxing",,29.706266,120.253183,172,94,7,40,8,22,20,17,1016,83,0,20141030180000
532,"Transporation management station, Shaoxing",,29.726405,120.221602,162,107,6,38,5,25,20,17,1016,83,0,20141030180000
533,"Dongpu Town Governement, Shaoxing",,30.049601,120.539893,180,104,20,41,24,11,20,17,1016,83,0,20141030180000
534,Shaoxing,,29.993122,120.590182,186,104,3,44,23,11,-,-,0,-,-,20141030180000
535,"City Monitoring Station, Jinhua",,29.100031,119.690373,191,94,21,39,32,11,19,18,0,96,1,20141030180000
536,"No.15 middle school, Jinhua",,29.074022,119.652121,175,118,12,30,8,10,19,18,0,96,1,20141030180000
537,"No.4 middle school, Jinhua",,29.110109,119.653654,192,108,20,33,22,10,19,18,0,96,1,20141030180000
538,"Beiyuan, Jinhua",,29.332898,120.083351,185,120,11,51,36,15,19,18,0,96,1,20141030180000
539,"Jiangdong, Jinhua",,29.302486,120.095291,194,130,22,48,33,15,19,18,0,96,1,20141030180000
540,Jinhua,,29.076083,119.65215,175,118,12,30,8,10,19,18,0,96,1,20141030180000
541,"EPA building, Quzhou",,28.937291,118.876081,137,74,19,22,10,10,22,19,1016,77,2,20141030180000
542,"Experimental school, Quzhou",,28.961502,118.880916,147,69,20,17,7,8,22,19,1016,77,2,20141030180000
543,"Quzhou University, Quzhou",,28.971452,118.860052,163,72,21,29,4,9,22,19,1016,77,2,20141030180000
544,Quzhou,,28.966994,118.864252,163,72,21,29,4,9,22,19,1016,77,2,20141030180000
545,"Putuo east port, Zhoushan",,29.951412,122.317679,53,30,31,3,1,3,22,19,1016,83,2,20141030180000
546,"Dinghai tanfeng, Zhoushan",,30.018014,122.126566,63,32,27,9,5,12,22,19,1016,83,2,20141030180000
547,Zhoushan,,29.983049,122.210763,61,37,26,9,2,4,22,19,1016,83,2,20141030180000
548,"Taizhou EPA building, Taizhou",,28.651216,121.42331,161,105,12,17,5,9,18,18,0,98,1,20141030180000
549,"Luqiao Tian Yang Wang, Taizhou",,28.574364,121.381194,154,79,10,21,9,10,18,18,0,98,1,20141030180000
550,"Huangyan EPA building, Taizhou",,28.656151,121.285064,109,59,11,20,3,5,18,18,0,98,1,20141030180000
551,"Yu Zhuang Qian, Lishui",,28.419638,119.883884,-,-,-,-,-,-,-,-,0,-,-,20141030180000
552,"Monitoring station building, Lishui",,28.444379,119.923103,124,62,25,17,3,5,22,18,1017,70,0,20141030180000
553,"Liandu primary school, Lishui",,28.450912,119.939332,132,67,22,18,2,6,22,18,1017,70,0,20141030180000
554,Lishui,,28.464224,119.927201,124,62,25,17,3,5,22,18,1017,70,0,20141030180000
1248,Jingningxian,,27.977454,119.634837,97,57,6,14,2,7,,,,,,20141030180000
555,Taigu Primary School,,29.864178,121.60022,78,46,25,10,4,5,22,19,1016,83,2,20141030180000
556,Qianhu shuihan,,29.862459,121.5328,155,65,16,25,6,8,22,19,1016,83,2,20141030180000
557,Sanjiang secondary schools,,29.891563,121.568427,91,53,22,13,5,6,22,19,1016,83,2,20141030180000
558,Longsai Hospital,,29.957301,121.726734,76,39,23,17,8,6,22,19,1016,83,2,20141030180000
559,Beilun District EPB,,29.911633,121.850773,70,42,28,7,3,4,22,19,1016,83,2,20141030180000
560,Wanli University,,29.821314,121.574364,97,60,20,17,5,6,22,19,1016,83,2,20141030180000
561,Qianhu water plant,,29.774416,121.648136,72,33,30,5,4,5,22,19,1017,83,1,20141030180000
562,Municipal management station,,29.899182,121.626691,78,50,26,10,3,5,22,19,1016,83,2,20141030180000
1177,Daxie Literary Museum,,29.9027,121.986447,68,34,30,8,3,4,22,19,1016,83,2,20141030180000
1178,Cixi EPB,,30.165807,121.248991,159,85,5,29,7,16,22,19,1016,83,2,20141030180000
1179,Cixi Experimently Primary School,,30.179808,121.268672,159,85,4,30,8,11,22,19,1016,83,2,20141030180000
1180,"Yongsan Park, Yuyao",,30.050842,121.162477,156,79,5,27,8,10,22,19,1016,83,2,20141030180000
1181,"Qilupu Water Company, Yuyao",,30.039112,121.133416,155,70,5,15,13,9,22,19,1016,83,2,20141030180000
1182,Fenghua EPB,,29.666557,121.42069,97,52,34,8,6,7,22,19,1016,83,2,20141030180000
1183,"Yuelong station, Ninghai",,29.296505,121.445872,139,60,16,18,8,7,22,19,1016,83,2,20141030180000
1184,"Wenfeng Primary School, Xiangshan",,29.470908,121.889544,74,47,26,5,4,5,22,19,1016,83,2,20141030180000
1185,"Chengnan Primary School, Ninghai",,29.293812,121.43666,142,61,18,17,7,7,22,19,1016,83,2,20141030180000
1186,"Xingang Primary School, Xiangshan",,29.203878,121.952514,50,13,29,4,3,3,22,19,1016,83,2,20141030180000
1356,Haishu City Monitoring Center,,29.86835,121.539341,151,61,15,17,5,7,22,19,1016,83,2,20141030180000
1357,Fenghua Xikou government,,29.693164,121.29331,117,56,32,28,5,8,22,19,1016,83,2,20141030180000
1294,Ningbo,,29.865766,121.548164,78,50,26,10,3,5,22,19,1016,83,2,20141030180000
1187,Fuyang,,30.046157,119.96468,152,71,12,15,4,10,-,-,0,-,-,20141030180000
1188,Yiwu,,29.304353,120.079794,194,130,22,51,36,15,-,-,0,-,-,20141030180000
1189,Zhuji,,29.711185,120.240748,172,107,7,40,8,25,20,17,1016,83,0,20141030180000
563,"Shanxi Road , Nanjing",,32.06795,118.779216,132,47,4,15,2,7,17,16,1016,94,1,20141030180000
564,"Ruijin Road , Nanjing",,32.029321,118.80817,127,45,2,17,3,5,17,16,1016,94,1,20141030180000
565,"Xuanwu Lake, Nanjing",,32.075423,118.800188,119,40,3,14,1,7,17,16,1016,94,1,20141030180000
566,"Olympic Center, Nanjing",,32.007171,118.742217,151,51,6,7,1,4,17,16,1016,94,1,20141030180000
567,"Xianlin University Town , Nanjing",,32.106958,118.919882,122,51,1,24,4,10,17,16,1016,94,1,20141030180000
568,Nanjing,,32.058179,118.802061,139,56,3,15,4,6,17,16,1016,94,1,20141030180000
569,"Shangfang hill , Suzhou",,31.24502,120.565211,168,69,3,18,3,7,19,19,1016,100,2,20141030180000
570,"Wuzhong District , Suzhou",,31.268105,120.61717,178,76,1,32,6,9,19,19,1016,100,2,20141030180000
571,"Suzhou New District , Suzhou",,31.297277,120.547262,177,73,2,23,15,7,19,19,1016,100,2,20141030180000
572,"Suzhou Industrial Area, Suzhou",,31.307603,120.673257,182,74,1,33,11,7,19,19,1016,100,2,20141030180000
573,"Xiangcheng district, Suzhou",,31.368674,120.645209,170,80,2,37,8,9,19,19,1016,100,2,20141030180000
574,Suzhou,,31.296701,120.589493,185,80,1,26,8,7,19,19,1016,100,2,20141030180000
575,"South suburb , Nantong",,31.957836,120.917218,178,70,3,24,9,5,17,17,0,96,1,20141030180000
576,"Xinghu park, Nantong",,31.927873,120.944254,183,104,6,31,12,8,17,17,0,96,1,20141030180000
577,"Zilang school, Nantong",,32.039638,120.814358,173,81,5,38,15,0,17,17,0,96,1,20141030180000
578,Nantong,,31.978005,120.898555,177,94,6,37,18,8,17,17,0,96,1,20141030180000
579,Lianyungang,,34.595509,119.226814,152,84,21,27,10,7,8,8,1016,96,0,20141030180000
580,"Hongmen police substation, Lianyungang",,34.588692,119.146693,63,28,3,11,4,4,17,17,1016,99,3,20141030180000
581,"Xugou Nuclear Expert Village , Lianyungang",,34.749957,119.373707,85,60,3,19,8,4,17,17,1016,99,3,20141030180000
582,"Hengrui pharmaceutical company, BDA, Lianyungang",,34.697574,119.353668,74,69,3,19,6,4,17,17,1016,99,3,20141030180000
583,"City Monitoring Station, Lianyungang",,34.586791,119.186929,70,37,3,13,7,7,17,17,1016,99,3,20141030180000
584,"Yellow river new village , Xuzhou",,34.271542,117.177241,152,57,4,16,13,5,16,15,1018,98,0,20141030180000
585,"Tongshan Veterinary Hospital , Xuzhou",,34.307086,117.197766,144,51,5,14,5,4,16,15,1018,98,0,20141030180000
586,"New Town , Xuzhou",,34.213992,117.261718,87,38,4,14,6,3,16,15,1018,98,0,20141030180000
587,"Taoyuan road, Xuzhou",,34.289822,117.249721,157,47,7,10,4,7,16,15,1018,98,0,20141030180000
588,"Agricultural Science Academy , Xuzhou",,34.27655,117.299079,117,40,3,8,5,4,16,15,1018,98,0,20141030180000
589,"Tongshan EPA, Xuzhou",,34.179384,117.171798,147,42,5,4,9,5,16,15,1018,98,0,20141030180000
590,Xuzhou,,34.20346,117.289825,157,54,7,15,13,7,16,15,1018,98,0,20141030180000
591,Yangzhou,,32.39233,119.418446,159,69,10,19,10,5,11,9,0,90,6,20141030180000
592,"Hanjiang Monitoring Station, Yangzhou",,32.374218,119.394484,93,44,4,12,7,6,18,17,0,93,2,20141030180000
593,"No. 4 Hospital, Yangzhou",,32.401394,119.44444,80,55,5,6,13,8,18,17,0,93,2,20141030180000
594,"City Monitoring Station, Yangzhou",,32.406588,119.41591,95,53,3,6,18,7,18,17,0,93,2,20141030180000
595,"University Town , Wuxi",,31.484752,120.273571,161,75,10,8,10,6,19,19,1016,100,2,20141030180000
596,"Shibei High School , Wuxi",,31.619969,120.279584,178,88,5,26,9,7,19,19,1016,100,2,20141030180000
597,"Yuhong Elementary School , Wuxi",,31.561155,120.249588,162,74,5,18,6,5,19,19,1016,100,2,20141030180000
598,Wuxi,,31.488746,120.31575,162,92,3,26,3,5,-,-,0,-,-,20141030180000
599,Changzhou,,31.808037,119.979205,172,86,6,22,36,13,11,9,0,88,5,20141030180000
600,"Chengjian School, Changzhou",,31.776476,119.937681,152,57,3,16,6,9,17,16,0,94,1,20141030180000
601,"Changzhou Engineering Institute , Changzhou",,31.806828,119.966724,122,53,4,17,6,9,17,16,0,94,1,20141030180000
602,"Wujin Monitoring Station, Changzhou",,31.701788,119.939676,151,58,2,14,4,10,17,16,0,94,1,20141030180000
603,"City Monitoring Station, Changzhou",,31.777201,119.979426,117,40,7,16,6,10,17,16,0,94,1,20141030180000
604,Zhenjiang,,32.18597,119.431281,170,79,4,39,15,13,9,8,0,93,5,20141030180000
605,"New District Administrative office , Zhenjiang",,32.186174,119.685021,124,49,8,26,7,4,16,16,1016,100,1,20141030180000
606,"Vocational Education Center , Zhenjiang",,32.212973,119.496253,127,42,7,29,4,8,16,16,1016,100,1,20141030180000
607,"Dantu Monitoring Station , Zhenjiang",,32.130026,119.435432,114,45,7,23,7,6,16,16,1016,100,1,20141030180000
608,"City Monitoring Station, Zhenjiang",,32.202178,119.439766,112,48,7,28,9,12,16,16,1016,100,1,20141030180000
609,"Gaogang Adminstrative office , Taizhoushi",,32.300768,119.886757,149,61,4,9,15,6,18,17,0,93,2,20141030180000
610,"Students Innovation Park , Taizhoushi",,32.461672,119.892761,156,-,6,13,20,5,18,17,0,93,2,20141030180000
611,Taizhoushi,,32.453555,119.927852,158,78,9,36,20,9,18,17,0,93,2,20141030180000
612,"Yancheng power station , Yancheng",,33.400859,120.123067,155,57,11,12,5,6,,,0,,,20141030180000
613,Yancheng,,33.345939,120.168504,144,52,30,5,3,7,11,10,1016,95,4,20141030180000
614,"Wenfeng Middle School , Yancheng",,33.370531,120.134041,155,57,8,13,5,5,,,0,,,20141030180000
615,"BDA Management Committe, Yancheng",,33.393191,120.22978,91,50,11,9,6,6,,,0,,,20141030180000
616,"City Monitoring Station, Yancheng",,33.390623,120.164423,157,58,12,15,5,6,,,0,,,20141030180000
617,Suqian,,33.960666,118.281004,160,87,24,7,5,7,11,10,0,91,6,20141030180000
618,"Suqian College , Suqian",,33.951472,118.298523,50,44,6,21,2,6,16,16,0,95,2,20141030180000
619,"Suqian Middle School , Suqian",,33.95784,118.249505,80,55,6,25,3,4,16,16,0,95,2,20141030180000
620,"Suyu District Environmental Protection Agency , Suqian",,33.94932,118.326569,151,61,2,14,3,4,16,16,0,95,2,20141030180000
621,"City Monitoring Station, Suqian",,33.956982,118.277022,80,38,3,25,5,6,16,16,0,95,2,20141030180000
622,Taizhou,,28.653436,121.425185,161,105,12,17,5,9,18,18,0,98,1,20141030180000
623,Donghu Liyuan,,30.572324,114.377844,-,-,-,-,-,-,-,-,0,-,-,20141030180000
624,Yuehu Lake,,30.554662,114.256937,117,38,5,22,1,6,15,15,1017,100,2,20141030180000
625,Hankou Huaqiao ,,30.61724,114.287652,99,40,5,22,2,9,15,15,1017,100,2,20141030180000
626,Wuchang Ziyang ,,30.530801,114.309438,124,42,3,22,4,7,15,15,1017,100,2,20141030180000
627,Qingshan Ganghua,,30.622435,114.375599,149,30,10,17,11,8,15,15,1017,100,2,20141030180000
628,Dunkou Xinou,,30.480091,114.162176,154,49,4,17,7,10,15,15,1017,100,2,20141030180000
629,Donghu Gaoxin,,30.48095,114.40724,114,10,12,13,2,7,15,15,1017,100,2,20141030180000
630,Wujianshan,,30.63114,114.135907,151,36,8,13,0,10,15,15,1017,100,2,20141030180000
631,Yuanshun Road,,30.297142,113.858587,102,39,16,7,7,5,15,15,1017,100,2,20141030180000
632,Wuhan,,30.590689,114.310838,107,34,3,14,11,7,15,15,1017,100,2,20141030180000
1190,"Silingsan Factory, Yichang",,30.713288,111.306585,124,57,5,13,11,6,13,13,1019,94,2,20141030180000
633,Yichang,,30.689528,111.292131,147,60,11,16,15,11,13,13,1019,94,2,20141030180000
633,Yichang,,30.689528,111.292131,147,60,11,16,15,11,13,13,1019,94,2,20141030180000
1191,"City Library , Jingzhou",,30.31494,112.260844,1,1,8,0,0,8,14,12,1020,83,1,20141030180000
1192,"City committee communist party school, Jingzhou",,30.35054,112.20743,1,1,11,0,0,8,14,12,1020,83,1,20141030180000
1193,"kerong EPA, Jingzhou",,30.302965,112.29443,1,1,12,0,0,11,14,12,1020,83,1,20141030180000
634,Jingzhou,,30.332608,112.245451,1,1,12,0,0,11,15,13,1020,87,2,20141030180000
634,Jingzhou,,30.332608,112.245451,1,1,12,0,0,11,15,13,1020,87,2,20141030180000
635,Huangshi,,30.19723,115.043908,87,50,2,11,5,21,18,,1019,100,1,20141030180000
635,Huangshi,,30.19723,115.043908,87,50,2,11,5,21,18,,1019,100,1,20141030180000
1194,"Chenjiaying, Huangshi",,30.232823,115.067923,78,52,2,10,3,20,18,,1019,100,1,20141030180000
1195,"Chenjiawan , Huangshi",,30.200422,115.082138,89,54,1,15,5,23,18,,1019,100,1,20141030190000
1196,"Xinxialu, Huangshi",,30.17332,114.954357,74,42,1,14,2,24,18,,1019,100,1,20141030190000
1197,"Tie montian, Huangshi",,30.203885,114.906439,107,44,2,13,1,17,18,,1019,100,1,20141030190000
1198,"BDA, Huangshi",,30.207491,115.031739,91,49,3,3,13,21,18,,1019,100,1,20141030190000
636,Shiyan,,32.627208,110.803311,119,56,11,10,4,5,11,,,100,1,20141030190000
636,Shiyan,,32.627208,110.803311,119,56,11,10,4,5,11,,,100,1,20141030190000
1199,"Wudang Mountain , Shiyan",,32.392921,111.047655,93,32,30,2,6,5,11,,,100,1,20141030190000
1200,"Riverside Village , Shiyan",,32.647286,110.785335,117,56,13,20,6,5,10,,,100,1,20141030190000
1201,"Liujiagou , Shiyan",,32.636732,110.731129,137,61,7,2,4,1,10,,,100,1,20141030190000
637,Xiangyang,,32.007029,112.128496,161,75,8,7,10,8,14,,1020,99,3,20141030190000
637,Xiangyang,,32.007029,112.128496,161,75,8,7,10,8,14,,1020,99,3,20141030190000
638,Ezhou,,30.389244,114.899884,78,30,6,7,2,10,17,,1026,100,2,20141030190000
638,Ezhou,,30.389244,114.899884,78,30,6,7,2,10,17,,1026,100,2,20141030190000
1203,"City government, Ezhou",,30.391836,114.892822,76,22,12,11,3,10,17,,1026,100,2,20141030190000
1204,"Zhaojiaba, Ezhou",,30.368966,114.90365,78,36,3,6,1,12,17,,1026,100,2,20141030190000
1205,"Fankou BDA, Ezhou",,30.410759,114.818225,78,34,11,6,1,9,17,,1026,100,2,20141030190000
639,Jingmen,,31.033208,112.205093,166,79,12,16,18,7,14,,1012,98,3,20141030190000
639,Jingmen,,31.033208,112.205093,166,79,12,16,18,7,14,,1012,98,3,20141030190000
640,Xiaogan,,30.922089,113.922387,159,79,14,4,2,10,15,,1017,100,2,20141030190000
640,Xiaogan,,30.922089,113.922387,159,79,14,4,2,10,15,,1017,100,2,20141030190000
1206,"wenhua street, Shenyang , Xiaogan",,30.925856,113.92104,159,80,12,6,4,12,15,,1017,100,2,20141030190000
1207,"Dongcheng District , Huludao , Xiaogan",,30.917963,113.943904,158,78,16,1,1,8,15,,1017,100,2,20141030190000
641,Huanggang,,30.45124,114.877378,68,34,9,11,2,15,17,,1026,100,2,20141030190000
641,Huanggang,,30.45124,114.877378,68,34,9,11,2,15,17,,1026,100,2,20141030190000
1208,"Dazhou Island, Huanggang",,30.446205,114.900323,72,48,8,17,-,13,17,,1026,100,2,20141030190000
1209,"Workers Center , Huanggang",,30.469244,114.912504,-,-,-,-,-,-,-,,0,-,-,20141030190000
642,Xianning,,29.838978,114.327898,97,51,2,21,5,32,15,,992,100,1,20141030190000
642,Xianning,,29.838978,114.327898,97,51,2,21,5,32,15,,992,100,1,20141030190000
1210,"Municipal Development and Reform Commission , Xianning",,29.818645,114.328461,104,52,4,23,1,36,15,,992,100,1,20141030190000
1211,"Xianan District Governement, Xianning",,29.51107,114.181864,104,53,3,20,8,34,16,,999,100,1,20141030190000
1212,"Yangtze River Industrial Park , Xianning",,29.883098,114.32909,95,54,2,20,9,33,15,,992,100,1,20141030190000
1213,"Qianshan Park, Xianning",,29.815351,114.328689,89,40,2,19,3,26,15,,992,100,1,20141030190000
643,Suizhou,,31.688342,113.388675,171,74,7,8,10,19,15,,1013,97,2,20141030190000
643,Suizhou,,31.688342,113.388675,171,74,7,8,10,19,15,,1013,97,2,20141030190000
1338,"City committee communist party school, Suizhou",,31.725316,113.3648,178,-,6,7,5,13,15,,1013,97,2,20141030190000
1339,"Forestry Bureau, Suizhou",,31.690065,113.383157,163,80,9,5,10,14,15,,1013,97,2,20141030190000
645,Xiantao,,30.360228,113.460616,95,40,7,5,2,11,15,,1028,98,2,20141030190000
645,Xiantao,,30.360228,113.460616,95,40,7,5,2,11,15,,1028,98,2,20141030190000
1214,"Xiangcheng Yundong Street, Xiangfan",,32.017716,112.16102,157,71,5,13,10,6,14,,1020,99,3,20141030190000
1359,"Fancheng Xinhua Road , Xiangfan",,32.0544,112.145224,166,80,11,1,9,10,14,,1020,99,3,20141030190000
655,"City Environmental Monitoring Station, Baotou",,40.657201,109.886738,139,80,7,17,13,7,,,0,,,20141030190000
656,"Donghe EPB, Baotou",,40.586213,110.002224,154,79,7,18,17,16,,,0,,,20141030190000
657,"Baotou shopping mall, Baotou",,40.508334,109.819085,173,83,6,18,12,16,,,0,,,20141030190000
658,"Huilong logistics, Baotou",,40.633436,109.879821,157,77,7,15,7,11,,,0,,,20141030190000
659,Baotou,,40.658597,109.846051,173,83,10,22,17,16,,,0,,,20141030190000
660,"Huatai Automobile Mall, Eerduosi",,39.837048,109.972209,154,67,21,13,4,11,7,6,1019,87,3,20141030190000
661,"Olympus Garden, Eerduosi",,39.789171,109.987742,154,69,17,20,7,11,7,6,1019,87,3,20141030190000
662,Eerduosi,,39.609284,109.78704,157,73,22,20,53,12,7,6,1019,87,3,20141030190000
663,"Tianyi Road, Chifeng",,42.275552,118.88507,142,57,34,9,19,11,3,1,1028,77,1,20141030190000
664,"Songshan No.1 Middle School, Chifeng",,42.329307,118.793045,132,58,30,5,7,4,3,1,1028,77,1,20141030190000
665,"Hada Street, Chifeng",,42.280714,118.988235,144,60,18,6,9,8,3,1,1028,77,1,20141030190000
666,"Songshan Road, Chifeng",,42.171487,118.89501,97,53,33,4,7,4,3,1,1028,77,1,20141030190000
667,Chifeng,,42.259752,118.893027,144,60,34,9,19,11,3,1,1028,77,1,20141030190000
674,Fuzhou,,26.071406,119.301294,82,64,12,27,1,7,22,19,1016,83,3,20141030190000
675,"Xidong, Xiamen",,24.815345,118.161848,74,29,38,6,2,5,23,21,1015,88,1,20141030190000
676,"Hongwen, Xiamen",,24.473969,118.156281,85,53,42,24,5,5,23,21,1015,88,1,20141030190000
677,"Gulangyu, Xiamen",,24.443168,118.068571,80,40,43,30,8,5,23,21,1015,88,1,20141030190000
678,"Huli, Xiamen",,24.51235,118.099146,91,49,59,18,4,4,23,21,1015,88,1,20141030190000
679,Xiamen,,24.477187,118.094402,91,49,59,18,4,4,-,-,0,-,-,20141030190000
680,"Qingyuan Montain, Quanzhou",,24.939503,118.598337,57,20,29,1,2,3,23,21,1015,88,1,20141030190000
681,"Tushan Street, Quanzhou",,24.90867,118.586397,76,45,36,11,3,4,23,21,1015,88,1,20141030190000
682,"Wanan, Quanzhou",,24.304154,118.070903,68,30,156,11,2,5,23,21,1015,88,1,20141030190000
683,Quanzhou,,24.87179,118.68001,87,45,201,17,4,5,23,21,1015,88,1,20141030190000
687,"Jiancaoping, Taiyuan",,37.887889,112.528383,178,111,1,17,18,15,11,6,1020,71,3,20141030190000
688,"Jianhe, Taiyuan",,37.910779,112.579258,212,163,2,5,24,20,11,6,1020,71,3,20141030190000
689,"Shanglan, Taiyuan",,38.011589,112.440679,178,91,2,15,11,18,11,6,1020,71,3,20141030190000
690,"Jinyuan, Taiyuan",,37.713164,112.475552,178,101,1,19,36,14,11,6,1020,71,3,20141030190000
691,"Xiaodian, Taiyuan",,37.782137,112.483533,170,86,13,16,30,16,11,6,1020,71,3,20141030190000
692,"Taoyuan, Taiyuan",,37.869752,112.543332,168,108,1,26,19,22,11,6,1020,71,3,20141030190000
693,"Wucheng, Taiyuan",,37.819998,112.576252,197,133,1,17,35,24,11,6,1020,71,3,20141030190000
694,"Nanzhai, Taiyuan",,37.985902,112.555312,173,94,4,9,18,22,11,6,1020,71,3,20141030190000
695,"Jinsheng, Taiyuan",,37.781205,112.494494,183,114,2,16,51,15,11,6,1020,71,3,20141030190000
696,Taiyuan,,37.871115,112.555178,168,108,1,26,19,22,-,-,0,-,-,20141030190000
697,"Monitoring station, Changzhi",,36.194062,113.10389,198,108,22,27,16,21,,,0,,,20141030190000
698,"Auditing bureau, Changzhi",,36.212787,113.095221,241,142,31,20,10,23,,,0,,,20141030190000
699,"Qinghua station, Changzhi",,36.154328,113.116385,191,113,19,22,9,28,,,0,,,20141030190000
700,"No.8 middle school, Changzhi",,36.185451,113.099481,196,114,23,27,42,30,,,0,,,20141030190000
701,Changzhi,,36.195553,113.12292,241,142,31,28,42,30,,,0,,,20141030190000
702,"Yungang Hotel, Datong",,40.076997,113.278079,119,57,17,4,5,14,9,8,1020,88,2,20141030190000
703,"college of education, Datong",,40.085608,113.27808,147,50,9,5,8,12,9,8,1020,88,2,20141030190000
704,Datong,,40.078016,113.307143,151,68,19,11,10,14,9,8,1020,88,2,20141030190000
705,"Technical Schools, Linfen",,36.07131,111.509046,104,169,8,41,20,45,7,5,0,85,2,20141030190000
706,"Municipal party committee, Linfen",,36.087425,111.508771,179,79,10,28,37,28,7,5,0,85,2,20141030190000
1073,"City Monitoring Station, Linfen",,36.097676,111.518739,193,111,16,24,38,31,7,5,0,85,2,20141030190000
707,"South Airport, Linfen",,36.041614,111.497968,178,88,23,21,43,20,7,5,0,85,2,20141030190000
708,Linfen,,36.087944,111.525098,230,169,23,41,43,45,7,5,0,85,2,20141030190000
709,"City center, Yangquan",,37.848012,113.578636,155,173,31,27,27,30,11,6,1020,71,3,20141030190000
710,Yangquan,,37.857475,113.586921,192,161,31,27,40,35,11,6,1020,71,3,20141030190000
711,"Water Company, Jincheng",,35.504787,112.857245,192,118,12,22,59,11,12,10,1020,78,1,20141030190000
712,"Baiyun shopping mall, Jincheng",,35.492858,112.841566,195,142,11,25,22,16,12,10,1020,78,1,20141030190000
713,"City EPA, Jincheng",,35.488422,112.858528,199,145,10,13,50,15,12,10,1020,78,1,20141030190000
714,"Institute of Technology, Jincheng",,35.484844,112.878073,189,146,14,12,6,12,12,10,1020,78,1,20141030190000
715,"No.1 middle school, Jincheng",,35.478725,112.838636,162,81,10,18,32,8,12,10,1020,78,1,20141030190000
716,Jincheng,,35.490287,112.85794,199,146,15,18,59,8,12,10,1020,78,1,20141030190000
718,"District Government, Shuozhou",,39.320857,112.430641,162,60,7,31,32,13,11,8,1022,68,1,20141030190000
719,"City EPA, Shuozhou",,39.331495,112.407997,153,73,8,25,22,18,11,8,1022,68,1,20141030190000
720,"No.2 middle school, Shuozhou",,39.377963,112.432877,153,60,17,25,19,30,11,8,1022,68,1,20141030190000
721,Shuozhou,,39.332756,112.439672,171,73,17,31,36,30,11,8,1022,68,1,20141030190000
722,"Jinlun compound, Jinzhong",,37.697891,112.771017,157,68,9,9,23,13,11,6,1020,71,3,20141030190000
723,"Hydraulic Component Factory, Jinzhong",,37.688355,112.725844,161,77,6,18,32,17,11,6,1020,71,3,20141030190000
724,"Nandu compound, Jinzhong",,37.713148,112.732036,161,74,2,8,50,15,11,6,1020,71,3,20141030190000
725,"Yuci district government, Jinzhong",,37.698228,112.714167,159,68,4,6,28,18,11,6,1020,71,3,20141030190000
726,Jinzhong,,37.687705,112.759187,161,77,4,6,28,18,11,6,1020,71,3,20141030190000
727,"Yuncheng Middle School, Yuncheng",,35.012345,111.003215,153,99,14,19,8,14,13,11,1021,80,0,20141030190000
728,"Yudou BDA, Yuncheng",,35.05065,111.029571,178,112,11,7,2,13,13,11,1021,80,0,20141030190000
730,"Regional Technical School, Yuncheng",,35.028727,110.974076,159,75,9,7,7,20,13,11,1021,80,0,20141030190000
731,"Airport new district, Yuncheng",,35.084515,111.05339,178,78,15,14,11,22,13,11,1021,80,0,20141030190000
732,Yuncheng,,35.025675,111.013344,178,112,15,19,11,22,-,-,0,-,-,20141030190000
733,"Jiyin, Xinzhou",,38.413292,112.742432,17,15,10,31,42,12,11,6,1021,71,2,20141030190000
734,"BDA, Xinzhou",,38.450069,112.736723,188,109,3,5,34,15,11,6,1020,71,3,20141030190000
735,"Convention Center, Xinzhou",,38.492043,112.709772,237,127,5,26,18,31,11,6,1020,71,3,20141030190000
736,Xinzhou,,38.417244,112.740742,237,127,2,26,29,31,11,6,1020,71,3,20141030190000
737,"City EPA, Luliang",,37.522189,111.144365,142,63,3,24,20,26,12,10,0,87,1,20141030190000
738,"Soybean factory, Luliang",,37.51689,111.135101,134,75,7,7,55,31,12,10,0,87,1,20141030190000
739,"Water Company, Luliang",,37.53394,111.138834,158,106,9,20,26,29,12,10,0,87,1,20141030190000
740,Luliang,,25.027007,103.668566,158,106,3,24,20,26,12,10,0,87,1,20141030190000
741,"City government, Sanmenxia",,34.776251,111.198781,161,92,6,20,20,12,12,10,1019,84,1,20141030190000
743,"BDA, Sanmenxia",,34.800434,111.204332,152,86,6,24,24,13,12,10,1019,84,1,20141030190000
744,Sanmenxia,,34.771506,111.206129,162,107,8,24,33,17,12,10,1019,84,1,20141030190000
745,"Food Factory, Changchun",,43.919094,125.329521,198,258,8,12,4,21,2,-1,1027,81,2,20141030190000
746,"Bus Factory, Changchun",,43.912337,125.293431,189,110,9,14,5,21,2,-1,1027,81,2,20141030190000
747,"Institute of Posts and Telecommunications, Changchun",,43.842368,125.285005,225,435,2,16,7,27,2,-1,1027,81,2,20141030190000
748,"Laodong Park, Changchun",,43.877293,125.371519,184,133,2,13,8,27,1,-1,1026,87,2,20141030190000
749,"Forest area, Changchun",,43.871825,125.331519,219,148,5,13,3,33,1,-1,1026,87,2,20141030190000
750,"Jinyuetan, Changchun",,43.79031,125.460561,269,154,15,13,2,29,2,-1,1027,81,2,20141030190000
751,"Shuaiwanzi, Changchun",,43.552321,125.639086,627,594,17,22,4,18,2,-1,1027,81,2,20141030190000
752,"Economic Development Zone Sanitation Department, Changchun",,43.869221,125.42365,237,130,10,14,5,27,2,-1,1027,81,2,20141030190000
753,"High-tech Zone Administrative Committee, Changchun",,43.819064,125.256375,286,194,8,17,6,34,2,-1,1027,81,2,20141030190000
754,"Daishan Park, Changchun",,43.852365,125.223399,206,146,10,16,9,26,2,-1,1027,81,2,20141030190000
755,Changchun,,43.819415,125.329977,225,133,2,16,7,27,-,-,0,-,-,20141030190000
756,"Hadawan, Jilin",,43.888081,126.545727,504,494,12,28,46,63,3,1,0,89,2,20141030190000
757,"Fengman, Jilin",,43.768169,126.678802,-,-,-,-,-,-,-,-,0,-,-,20141030190000
758,"Electric Power College, Jilin",,43.827403,126.502281,478,504,10,30,16,36,3,1,0,89,2,20141030190000
759,"Jiangnan Park, Jilin",,43.83531,126.556519,635,619,17,33,18,43,3,1,0,89,2,20141030190000
760,"Dongjuzi, Jilin",,43.838597,126.590068,592,802,7,38,14,40,3,1,0,89,2,20141030190000
763,Jilin,,43.840137,126.555262,592,802,36,48,46,63,3,1,0,89,2,20141030190000
764,"Lingbei, Haerbin",,45.756979,126.548008,137,58,11,21,6,8,-2,-4,1026,86,1,20141030190000
765,"Songbei Commercial University, Haerbin",,45.818624,126.566963,95,56,9,16,6,0,-2,-4,1026,86,1,20141030190000
766,"Acheng huining, Haerbin",,45.544286,126.985183,159,67,16,12,5,3,-2,-4,1026,86,1,20141030190000
767,"Nangang College Street, Haerbin",,45.724121,126.604906,91,52,19,19,24,3,-2,-4,1027,86,1,20141030190000
768,"Taiping Hongwei Park, Haerbin",,45.775332,126.695101,76,33,6,14,9,3,-2,-4,1026,86,1,20141030190000
769,"Daowai Chengde Square, Haerbin",,45.768637,126.640955,142,48,7,17,34,4,-2,-4,1026,86,1,20141030190000
770,"Xiangfang Hongqi Street, Haerbin",,45.733936,126.691083,97,39,7,5,29,4,-2,-4,1026,86,1,20141030190000
771,"Dongli Heping Road, Haerbin",,45.727765,126.651974,134,46,8,22,21,1,-2,-4,1026,86,1,20141030190000
772,"Daoli Jianguo Road, Haerbin",,45.749715,126.59891,97,51,19,22,28,1,-2,-4,1026,86,1,20141030190000
773,"Pingfang Light Factory, Haerbin",,45.611951,126.620898,169,85,3,21,8,9,-2,-4,1026,86,1,20141030190000
774,"Hulan Normal College, Haerbin",,45.983745,126.616553,59,18,26,12,2,5,-2,-4,1026,86,1,20141030190000
775,"Provincial Academy of Agricultural Sciences, Haerbin",,45.686141,126.626517,109,55,7,25,58,6,-2,-4,1026,86,1,20141030190000
776,Haerbin,,45.805757,126.541007,95,56,9,16,6,0,-,-,0,-,-,20141030190000
777,"Anju Compound, Qiqihaer",,47.365672,123.937016,57,20,147,3,3,8,-1,-4,1030,80,1,20141030190000
778,"Farming Vehicule Factory, Qiqihaer",,47.326793,123.961427,50,14,24,12,35,6,-1,-4,1030,80,1,20141030190000
779,"Fuqu EPA, Qiqihaer",,47.1853,123.62322,82,25,25,,3,8,-1,-4,1030,80,1,20141030190000
780,"City Center Square, Qiqihaer",,47.343096,123.96192,53,13,28,2,9,13,-1,-4,1030,80,1,20141030190000
1217,"City Environmental Monitoring Station, Qiqihaer",,47.303639,123.957551,70,29,22,9,9,6,-1,-4,1030,80,1,20141030190000
781,Qiqihaer,,47.356387,123.924736,82,29,140,12,35,13,-1,-4,1030,80,1,20141030190000
782,"Saertu District, Daqing",,46.582368,125.152904,17,11,25,10,5,2,0,-4,1028,68,3,20141030190000
783,"Datong District, Daqing",,46.036786,124.842115,42,16,18,5,6,6,0,-4,1028,68,3,20141030190000
784,"Honggang District, Daqing",,46.418381,124.88973,42,10,17,17,6,4,0,-4,1028,68,3,20141030190000
785,"Longfeng District, Daqing",,46.535426,125.107043,42,10,23,13,21,5,0,-4,1028,68,3,20141030190000
786,"Ranghulu District, Daqing",,46.635123,124.85648,21,11,26,12,7,2,0,-4,1028,68,3,20141030190000
787,Daqing,,46.591414,125.110838,42,16,25,17,21,6,0,-4,1028,68,3,20141030190000
788,"Locomotive Factory, Mudanjiang",,44.610589,129.652672,221,147,15,22,18,23,4,-2,1024,58,1,20141030190000
789,"No. 1 hospital, Mudanjiang",,44.567775,129.617043,217,140,20,26,14,23,4,-2,1024,58,1,20141030190000
1220,"EPA building, Mudanjiang",,44.567777,129.620658,204,135,5,22,12,22,4,-2,1024,58,1,20141030190000
1221,"Cultural Square, Mudanjiang",,44.586388,129.623164,219,132,2,31,26,25,4,-2,1024,58,1,20141030190000
790,Mudanjiang,,44.553619,129.640246,221,147,20,31,26,25,4,-2,1024,58,1,20141030190000
791,"Mingzhu Plaza, Hefei",,31.782847,117.201512,93,33,6,8,7,10,15,15,1017,100,3,20141030190000
792,"Sanli Street, Hefei",,31.874637,117.312573,91,37,3,3,3,5,15,15,1017,100,3,20141030190000
793,"Hupo Compound, Hefei",,31.868583,117.264491,114,49,6,4,6,8,15,15,1017,100,3,20141030190000
794,"Dongpu Reservoir, Hefei",,31.90319,117.165584,89,29,12,4,3,4,15,15,1017,100,3,20141030190000
795,"Changjiang middle road, Hefei",,31.855185,117.255484,93,34,12,6,4,9,15,15,1017,100,3,20141030190000
796,"Luyang District, Hefei",,31.941771,117.271504,99,33,9,2,15,7,15,15,1017,100,3,20141030190000
797,"Yaohai District, Hefei",,31.856595,117.341644,78,32,20,15,2,11,15,15,1017,100,3,20141030190000
798,"Baohe District, Hefei",,31.793644,117.307554,70,30,227,3,20,7,15,15,1017,100,3,20141030190000
799,"Lake district, Hefei",,31.736619,117.283501,107,36,28,11,3,7,15,15,1017,100,3,20141030190000
800,"High-tech zone, Hefei",,31.849755,117.129624,91,27,8,4,7,4,15,15,1017,100,3,20141030190000
801,Hefei,,31.819449,117.232753,93,34,12,6,4,9,-,-,0,-,-,20141030190000
802,"Hudong Road No.4 Elementary School, Maanshan",,31.684121,118.511017,95,43,10,18,11,13,16,16,1016,100,1,20141030190000
803,"Tianping Garment Factory, Maanshan",,31.64197,118.488043,93,30,20,20,8,13,16,16,1016,100,1,20141030190000
804,"City education base, Maanshan",,31.711216,118.648913,97,45,12,7,6,8,16,16,1016,100,1,20141030190000
805,"Cihu No.2 elementary school, Maanshan",,31.748546,118.515729,122,52,5,18,14,11,16,16,1016,100,1,20141030190000
806,"Maanshan steel factory power plant, Maanshan",,31.690864,118.48528,82,51,7,16,9,19,16,16,1016,100,1,20141030190000
807,Maanshan,,31.668461,118.511939,122,52,20,20,14,19,16,16,1016,100,1,20141030190000
808,"Science Innovation Center, Wuhu",,31.417056,118.375406,82,25,29,10,4,10,16,16,1016,100,1,20141030190000
809,"No.4 Water Plant, Wuhu",,31.315914,118.376231,74,27,14,13,3,13,16,16,1016,100,1,20141030190000
810,"Monitoring station, Wuhu",,31.348955,118.358154,68,19,7,20,7,14,16,16,1016,100,1,20141030190000
811,"Wuqierling Factory, Wuhu",,31.382068,118.407639,87,39,144,14,8,5,16,16,1016,100,1,20141030190000
812,Wuhu,,31.351007,118.438322,87,39,144,20,8,14,16,16,1016,100,1,20141030190000
813,"Jiangxi Foreign Affairs Office, Nanchang",,28.678027,115.903436,114,48,3,3,6,18,18,18,1016,96,1,20141030190000
814,"Provincial forestry company, Nanchang",,28.69065,115.898546,127,63,5,1,6,6,18,18,1016,96,1,20141030190000
815,"Institute of Forestry, Nanchang",,28.731518,115.82478,57,31,11,1,1,13,18,18,1016,96,1,20141030190000
816,"Jingdong town government, Nanchang",,28.680659,115.972736,82,42,6,7,3,7,18,18,1016,96,1,20141030190000
817,"Contruction Industry College, Nanchang",,28.684018,115.865891,25,8,9,12,5,9,18,18,1016,96,1,20141030190000
818,"Xianghu, Nanchang",,28.637831,115.9033,93,50,6,19,5,11,18,18,1016,96,1,20141030190000
819,"Martial Arts School, Nanchang",,28.794538,115.752876,82,42,8,10,5,10,18,18,1017,93,1,20141030190000
820,"Petrifaction Company, Nanchang",,28.608634,115.912999,95,51,6,15,6,10,18,18,1016,96,1,20141030190000
821,"Provincial Station, Nanchang",,28.677155,115.941896,42,32,5,12,1,8,18,18,1016,96,1,20141030190000
822,Nanchang,,28.679883,115.863022,95,51,6,15,6,16,18,18,1016,96,1,20141030190000
939,Sanya,,18.251142,109.515993,57,41,16,3,1,5,25,23,1012,89,2,20141030190000
823,"Lushan Mountain Observatory, Jiujiang",,29.5751,115.998926,30,4,37,11,1,3,15,15,1017,100,2,20141030190000
824,"Shili, Jiujiang",,29.668119,115.992381,65,5,4,23,7,5,15,15,1017,100,2,20141030190000
825,"Maoshantou, Jiujiang",,29.700819,115.967192,55,8,5,20,11,7,15,15,1017,100,2,20141030190000
826,"Xiyuan, Jiujiang",,29.723929,115.998206,65,7,5,17,13,4,15,15,1017,100,2,20141030190000
827,"Wuqierling Factory, Jiujiang",,29.640802,116.022713,57,10,7,17,9,10,15,15,1017,100,2,20141030190000
828,"Water Scientific Research Institute, Jiujiang",,29.679179,116.068081,59,11,5,16,5,4,15,15,1017,100,2,20141030190000
829,"Zonghe Industrial Park, Jiujiang",,29.592047,115.916335,59,9,2,16,13,5,15,15,1017,100,2,20141030190000
830,"Petrochemical General Plant, Jiujiang",,29.738832,116.09463,59,11,8,17,12,6,15,15,1017,100,2,20141030190000
831,Jiujiang,,29.70254,116.007025,65,11,37,23,13,10,15,15,1017,100,2,20141030190000
1332,"Feiyu, Xinyu",,27.844697,115.000136,124,57,15,6,12,,20,,1016,88,3,20141030190000
1333,"Beigang, Xinyu",,27.932491,115.103767,117,61,13,6,9,,20,,1016,88,3,20141030190000
1334,"No.2 water factory, Xinyu",,27.839577,114.933915,161,64,7,7,6,,20,,1016,88,3,20141030190000
1335,"Bureau of Meteorology, Xinyu",,27.81048,114.936507,122,77,14,7,17,,20,,1016,88,3,20141030190000
1336,Xinyu,,27.814351,114.922194,142,77,15,11,20,,20,,1016,88,3,20141030190000
832,"Tobacco Factory, Zhengzhou",,34.753419,113.687131,204,138,15,22,37,25,15,7,1020,59,4,20141030190000
833,"Textile Machinery Factory, Zhengzhou",,34.773366,113.647067,190,132,8,24,45,27,15,7,1020,59,4,20141030190000
834,"Banking College, Zhengzhou",,34.800856,113.681126,211,115,8,21,45,15,15,7,1020,59,4,20141030190000
835,"Water Supply Company, Zhengzhou",,34.807188,113.571089,209,122,8,28,48,16,15,7,1020,59,4,20141030190000
836,"Economic Development Zone Management Committee, Zhengzhou",,34.717652,113.733182,213,111,7,12,33,19,15,7,1020,59,4,20141030190000
837,"No. 47 middle school, Zhengzhou",,34.772211,113.74009,228,135,9,27,35,16,15,7,1020,59,4,20141030190000
838,"City Monitoring Station, Zhengzhou",,34.748404,113.60514,198,106,20,28,36,31,15,7,1020,59,4,20141030190000
839,"Henan Medical University, Zhengzhou",,34.752637,113.641658,220,136,19,28,45,27,15,7,1020,59,4,20141030190000
840,"Gangli Reservoir, Zhengzhou",,34.952652,113.64248,212,97,7,20,28,17,15,7,1020,59,4,20141030190000
841,Zhengzhou,,34.745417,113.631415,220,136,19,28,45,27,-,-,0,-,-,20141030190000
842,"Henan University No.1 Hospital, Kaifeng",,34.799302,114.352706,193,113,13,18,26,15,15,7,1020,59,4,20141030190000
843,"Maternity And Child Hospital, Kaifeng",,34.795803,114.386103,234,121,9,23,32,17,15,7,1020,59,4,20141030190000
844,"Cancer Hospital, Kaifeng",,34.775428,114.350292,216,115,7,16,35,16,15,7,1020,59,4,20141030190000
845,"Yellow River Conservancy Institute, Kaifeng",,34.826066,114.324772,165,108,83,9,25,11,15,7,1020,59,4,20141030190000
846,"Shijixing Kindergarden, Kaifeng",,34.793606,114.302744,193,113,6,17,25,12,15,7,1020,59,4,20141030190000
847,Kaifeng,,34.796346,114.313426,193,113,13,18,26,15,15,7,1020,59,4,20141030190000
852,Jiaozuo,,35.215381,113.248188,171,109,19,26,46,16,15,7,1020,59,4,20141030190000
853,"Cotton Research Institute, Anyang",,36.081435,114.486451,234,152,10,48,56,18,14,6,1021,46,3,20141030190000
854,"Hongmiao Street, Anyang",,36.086733,114.326,13,6,-,-,-,-,14,6,1021,46,3,20141030190000
855,"Yinxing Compound, Anyang",,36.056519,114.36495,315,156,10,33,55,21,14,6,1021,46,3,20141030190000
856,"Tiefo Temple, Anyang",,36.110041,114.309309,154,140,6,39,73,34,14,6,1021,46,3,20141030190000
857,Anyang,,36.097767,114.398846,315,156,13,48,69,21,14,6,1021,46,3,20141030190000
858,"City Monitoring Station, Luoyang",,34.669055,112.439633,197,113,7,28,23,22,13,,1023,88,1,20141030190000
859,"BDA Management Committee, Luoyang",,34.622084,112.390759,190,107,7,19,20,26,13,,1023,88,1,20141030190000
860,"New municipal office, Luoyang",,34.623745,112.432973,190,101,11,25,19,32,13,,1023,88,1,20141030190000
861,"City committee communist party school, Luoyang",,34.650169,112.400212,196,127,5,32,20,14,13,,1023,88,1,20141030190000
862,"Henan Forestry College, Luoyang",,34.685566,112.509429,206,150,7,26,20,49,13,,1023,88,1,20141030190000
863,"CITIC No.2 Elementary School, Luoyang",,34.668212,112.36907,195,96,5,21,19,15,13,,1023,88,1,20141030190000
864,"Yuxi Hotel, Luoyang",,34.685949,112.472611,124,108,8,20,23,42,13,,1023,88,1,20141030190000
865,Luoyang,,34.617424,112.46054,206,150,11,32,23,49,13,,1023,88,1,20141030190000
866,"City Planning Design Institute, Pingdingshan",,33.7352,113.297916,190,112,19,24,61,16,15,7,1020,59,4,20141030190000
867,"Xinhua Hotel, Pingdingshan",,33.737754,113.328814,194,112,15,27,40,20,15,7,1020,59,4,20141030190000
868,"Engineering College, Pingdingshan",,33.772474,113.188235,178,103,10,23,23,11,15,7,1020,59,4,20141030190000
869,"High Voltage Switchgear Factory, Pingdingshan",,33.719941,113.312665,193,108,9,27,59,15,15,7,1020,59,4,20141030190000
870,Pingdingshan,,33.764754,113.199082,194,112,19,27,61,20,15,7,1020,59,4,20141030190000
