locationid,stationname,chinesename,latitude,longitude,pm25,pm10,o3,no2,so2,co,temperature,dewpoint,pressure,humidity,wind,est_time
1,Dongcheng Dongsi,,39.9304,116.423239,291,193,3,38,9,36,4,3,1021,93,2,20141129170000
2,"Temple of Heaven, Dongcheng",,39.887403,116.41324,251,134,4,42,6,34,4,3,1021,93,2,20141129170000
3,West Park officials,,39.930333,116.345162,301,166,4,48,10,34,4,3,1021,93,2,20141129170000
4,West Wanshou Nishinomiya,,39.879354,116.358183,296,171,3,47,6,36,4,3,1021,93,2,20141129170000
5,Chaoyang Olympic Sports Center,,39.983406,116.403253,277,144,1,48,13,32,4,3,1021,93,2,20141129170000
6,Chaoyang Agricultural Exhibition Hall,,39.938331,116.46715,307,174,3,41,12,34,4,3,1021,93,2,20141129170000
7,Haidian Wanliu,,39.988245,116.293062,290,183,1,46,11,30,4,3,1021,93,2,20141129170000
8,The Haidian northern New Area,,40.091313,116.180194,340,217,1,37,9,34,4,3,1021,93,2,20141129170000
9,Haidian Beijing Botanical Garden,,40.003252,116.213097,325,147,4,40,8,25,4,3,1021,93,2,20141129170000
10,Fengtai garden,,39.86423,116.285037,307,169,1,45,9,33,4,2,1020,87,1,20141129170000
11,Fengtai Yungang,,39.82535,116.152237,315,165,1,43,10,31,4,3,1021,93,2,20141129170000
12,Shijingshan city,,39.915286,116.190144,288,173,3,43,13,29,4,3,1021,93,2,20141129170000
13,"Fangshan, Liangxiang",,39.743357,116.14225,353,185,1,46,9,30,4,3,1021,93,2,20141129170000
14,"Huangcunzhen, Daxing",,39.719389,116.410219,298,165,1,37,14,25,4,3,1021,93,2,20141129170000
15,BDA,,39.796197,116.51197,393,337,3,40,7,22,4,3,1021,93,2,20141129170000
16,Tongzhou New Town,,39.887113,116.6689,388,258,2,33,11,26,4,3,1021,93,2,20141129170000
17,Shunyi New Town ,,40.128111,116.660908,294,288,6,35,4,32,4,2,1020,87,2,20141129170000
18,Changping Town,,40.218245,116.236084,287,168,1,45,13,31,4,3,1021,93,2,20141129170000
19,"Mentougou, Longquan Town",,39.938397,116.112323,300,163,2,41,11,26,4,3,1021,93,2,20141129170000
20,Pinggu town,,40.144433,117.106563,265,125,4,33,13,22,4,3,1021,93,2,20141129170000
21,Huairou town,,40.329104,116.63387,312,190,1,31,6,30,4,2,1020,87,2,20141129170000
22,The town of Miyun,,40.371186,116.838053,279,177,1,28,11,23,4,3,1021,93,2,20141129170000
23,Yanqing town,,40.454217,115.978106,341,134,2,40,7,29,4,3,1021,93,2,20141129170000
24,Changping Dingling,,40.293269,116.226108,328,168,2,35,6,30,4,3,1021,93,2,20141129170000
25,Badaling Northwest,,40.36623,115.994146,252,134,1,38,13,20,4,3,1021,93,2,20141129170000
26,Miyun Reservoir,,40.500157,116.91701,268,164,1,14,8,16,4,3,1021,93,2,20141129170000
27,"Donggaocun Zhen, Pinggu",,40.10142,117.126556,264,135,3,37,10,20,4,3,1021,93,2,20141129170000
28,"Yongledianzhen, Tongzhou",,39.713192,116.78905,302,216,1,41,5,20,4,3,1021,93,2,20141129170000
29,"Yufazhen, Daxing",,39.521203,116.306026,245,127,1,24,8,19,4,3,1021,93,2,20141129170000
30,"Liulihezhen, Fangshan",,39.581169,116.006089,346,261,2,40,11,26,4,3,1021,93,2,20141129170000
31,"Qianmen E St, Dongcheng",,39.900402,116.401242,294,215,1,39,9,34,4,3,1021,93,2,20141129170000
32,Yongdingmen Inner St,,39.877401,116.400238,285,167,4,73,8,34,4,3,1021,93,2,20141129170000
33,Xizhimen N St,,39.955352,116.355187,334,188,1,47,11,35,4,3,1021,93,2,20141129170000
34,South Ring Road,,39.857377,116.37421,338,174,1,17,15,37,4,3,1021,93,2,20141129170000
35,East Fourth Ring Road,,39.940273,116.489075,359,198,1,30,9,34,4,3,1021,93,2,20141129170000
36,Beijing,,39.955906,116.474246,292,193,1,38,9,36,4,3,1021,93,2,20141129170000
37,Putuo,,31.232979,121.415378,70,28,25,6,4,3,19,17,1011,88,5,20141129170000
38,Yangpu Sipiao,,31.263795,121.540311,63,37,27,11,2,11,19,17,1011,88,5,20141129170000
39,Shanghai Normal College Primary Division,,31.199031,121.487719,65,34,26,15,5,7,19,17,1011,88,5,20141129170000
40,Dianshan Lake,,31.091338,120.982293,93,32,24,15,7,5,19,17,1011,88,5,20141129170000
41,Hongkou Liangcheng,,31.298906,121.47155,63,30,28,10,7,5,19,17,1011,88,5,20141129170000
42,Jingan,,31.224251,121.429637,70,25,25,9,6,7,19,17,1011,88,5,20141129170000
43,Shanghai Normal University,,31.163531,121.416643,74,29,29,12,5,4,19,17,1011,88,5,20141129170000
44,Chuansha,,31.188626,121.707342,59,23,32,5,3,4,19,17,1011,88,5,20141129170000
45,Zhangjiang,,31.204896,121.581215,72,24,33,5,3,5,19,17,1011,88,5,20141129170000
46,Lingshan Road,,31.226286,121.537317,74,30,32,7,6,3,19,17,1011,88,5,20141129170000
1080,City average,,31.228451,121.478227,68,29,27,9,5,5,19,17,1011,88,5,20141129170000
47,Shanghai,,31.202842,121.453493,53,50,26,18,5,5,19,17,1011,88,5,20141129170000
48,Guangzhou,,23.138517,113.263701,74,55,23,18,9,6,25,22,1012,83,1,20141129170000
49,"Huadu town, Guangzhou",,23.389121,113.220062,76,24,34,25,4,10,25,22,1012,83,1,20141129170000
50,"Luogang Zhenlong, Guangzhou",,23.308027,113.567032,97,51,60,26,4,11,25,22,1012,83,1,20141129170000
51,"LuHu, Guangzhou",,23.151743,113.281842,72,28,23,18,5,7,25,22,1012,83,1,20141129170000
52,"Tianhu, Guangzhou",,23.647433,113.629715,74,40,49,7,6,7,25,22,1012,83,1,20141129170000
53,"Zhudong, Guangzhou",,23.418406,113.078552,76,40,33,30,14,10,25,22,1012,83,1,20141129170000
54,"Modiesha station, Guangzhou",,23.103814,113.338238,50,41,19,28,11,2,25,22,1012,83,1,20141129170000
55,Zhuhai,,22.2677,113.581765,78,30,30,12,2,9,23,22,1012,94,7,20141129170000
1075,"Huicai technical school, Foshan",,23.039667,113.105492,68,31,43,-,7,8,25,22,1012,83,1,20141129170000
56,"Sanshuiyun donghai, Foshan",,23.185788,112.865368,97,51,44,24,14,10,25,22,1012,83,1,20141129170000
57,"Nanhai Bureau of Meteorology, Foshan",,23.046836,113.145764,70,23,36,26,6,7,25,22,1012,83,1,20141129170000
58,"Sanshui Monitoring Station, Foshan",,23.163551,112.890843,97,37,44,23,20,10,25,22,1012,83,1,20141129170000
1087,Foshan,,23.018995,113.126899,70,23,36,26,6,7,25,22,1012,83,1,20141129170000
59,"Ronggui street committee, Shunde",,22.762729,113.258356,80,29,20,22,-,9,25,22,1012,83,1,20141129170000
60,Shunde,,22.80246,113.298701,55,25,25,29,13,4,-,-,0,-,-,20141129170000
61,"Donghu, Jiangmen",,22.590411,113.087351,70,29,47,14,4,1,23,22,1012,94,7,20141129170000
62,"Taoyuan Atmosphere Premier Station, Jiangmen",,22.72489,112.93404,74,37,13,6,4,13,23,22,1012,94,7,20141129170000
63,Jiangmen,,22.576047,113.087351,70,29,47,14,4,1,23,22,1012,94,7,20141129170000
64,"Kengkouzi station, Zhaoqing",,23.158865,112.570287,95,55,37,20,13,8,25,22,1012,83,1,20141129170000
65,"Mugangzi station, Zhaoqing",,23.067961,112.431934,122,53,42,17,15,10,25,22,1012,83,1,20141129170000
67,Zhaoqing,,23.044571,112.470346,114,51,44,15,16,7,25,22,1012,83,1,20141129170000
68,"Jinguo Bay, Huizhou",,22.937223,114.385567,68,34,23,8,3,5,24,22,1013,89,3,20141129170000
1091,"Xiabu, Huizhou",,23.077493,114.410275,85,35,32,1,3,6,24,22,1013,89,3,20141129170000
69,"Xijiao, Huizhou",,23.338178,114.112867,55,21,21,6,27,6,24,22,1013,89,3,20141129170000
70,"Jiangbei, Huizhou",,23.111706,114.415274,80,51,34,9,5,1,24,22,1013,89,3,20141129170000
71,"Huiyang chuanhu, Huizhou",,22.814485,114.329292,68,21,47,5,6,4,24,22,1013,89,3,20141129170000
72,"Daya bay management committee, Huizhou",,22.739283,114.53631,68,20,43,6,6,4,24,22,1013,89,3,20141129170000
73,Huizhou,,23.109349,114.421164,80,51,34,9,5,6,24,22,1013,89,3,20141129170000
74,"Guancheng No.2 water plant, Dongguan",,23.057294,113.753254,82,25,53,6,2,9,24,22,1013,89,3,20141129170000
75,"Dongcheng Shijing, Dongguan",,23.010039,113.799529,80,28,50,12,6,6,24,22,1013,89,3,20141129170000
76,"Nancheng Xiping, Dongguan",,22.963051,113.743494,91,31,47,13,5,9,24,22,1013,89,3,20141129170000
77,"Nancheng Yuanling, Dongguan",,23.025058,113.751308,85,36,62,16,4,7,24,22,1013,89,3,20141129170000
78,Dongguan,,23.017813,113.756958,85,36,62,16,4,7,24,22,1013,89,3,20141129170000
79,"Zimaling, Zhongshan",,22.505112,113.407183,82,28,15,13,10,9,23,22,1012,94,6,20141129170000
80,"Yangtze River tourist area, Zhongshan",,22.48589,113.439054,61,23,16,12,4,6,23,22,1012,94,6,20141129170000
81,"Huabai Park, Zhongshan",,22.51839,113.374362,80,35,15,12,7,11,23,22,1012,94,6,20141129170000
82,Zhongshan,,22.513997,113.398277,82,28,15,13,10,9,23,22,1012,94,6,20141129170000
83,"No.8 middle school, Shaoguan",,24.767777,113.583537,171,107,33,39,11,15,21,20,1012,93,2,20141129170000
83,"No.8 middle school, Shaoguan",,24.767777,113.583537,171,107,33,39,11,15,21,20,1012,93,2,20141129170000
84,"Forest area, Shaoguan",,24.796106,113.612131,161,83,40,35,15,12,21,20,1012,93,2,20141129170000
84,"Forest area, Shaoguan",,24.796107,113.612131,161,83,40,35,15,12,21,20,1012,93,2,20141129170000
86,"Shaoguan University, Shaoguan",,24.790864,113.646598,154,62,41,18,8,16,21,20,1012,93,2,20141129170000
86,"Shaoguan University, Shaoguan",,24.790864,113.646599,154,62,41,18,8,16,21,20,1012,93,2,20141129170000
88,"Qujiang Monitoring Station, Shaoguan",,24.683042,113.60157,160,92,44,29,21,11,21,20,1012,93,2,20141129170000
88,"Qujiang Monitoring Station, Shaoguan",,24.683042,113.60157,160,92,44,29,21,11,21,20,1012,93,2,20141129170000
89,Shaoguan,,24.807342,113.602712,161,83,40,35,15,12,21,20,1012,93,2,20141129170000
90,"Chaonanzi Station, Shantou",,23.251174,116.406606,107,40,22,11,4,10,22,20,1014,88,2,20141129170000
90,"Chaonanzi Station, Shantou",,23.251213,116.406762,107,40,22,11,4,10,22,20,1014,88,2,20141129170000
91,Shantou,,23.350642,116.686306,85,39,27,13,4,17,22,20,1014,88,2,20141129170000
92,"City Environmental Monitoring Station, Zhanjiang",,21.220431,110.397317,80,51,35,6,-,14,24,22,1012,88,2,20141129170000
93,"EPB Dormitory, Zhanjiang",,21.197376,110.406487,68,28,31,6,3,4,24,22,1012,88,2,20141129170000
94,"Xiashan Swimming Park, Zhanjiang",,21.200431,110.415655,50,35,28,3,6,12,24,22,1012,88,2,20141129170000
95,"Zhanjiang Theatre, Zhanjiang",,21.268177,110.366445,65,34,31,4,4,5,24,22,1012,88,2,20141129170000
96,"Mazhang EPA, Zhanjiang",,21.265486,110.335993,80,40,16,4,5,12,24,22,1012,88,2,20141129170000
97,"Potou District EPB, Zhanjiang",,21.247604,110.454508,50,30,34,-,2,13,24,22,1012,88,2,20141129170000
98,Zhanjiang,,21.26832,110.363883,65,34,31,4,7,5,24,22,1012,88,2,20141129170000
99,"Maogang sub-office EPB, Maoming",,21.466435,111.033462,70,28,36,1,1,4,24,23,0,94,3,20141129170000
100,"Petrochemical No. 7 elementaty school, Maoming",,21.648905,110.937861,85,33,31,7,1,8,24,23,0,94,3,20141129170000
101,"Jiankang road, Maoming",,21.662211,110.909482,78,39,26,7,2,9,24,23,0,94,3,20141129170000
102,"Gaoling, Maoming",,21.690558,110.871146,34,23,24,6,9,8,24,23,0,94,3,20141129170000
1094,Maoming,,21.660223,110.929968,78,39,26,7,2,9,24,23,0,94,3,20141129170000
103,"Jiaying University, Meizhou",,24.325415,116.12816,76,38,31,12,6,5,22,20,1014,88,2,20141129170000
104,"Mexian new town, Meizhou",,24.269283,116.084546,104,50,28,13,6,8,22,20,1014,88,2,20141129170000
105,"Environmental Monitoring Center, Meizhou",,24.262778,116.129621,82,48,26,14,5,8,22,20,1014,88,2,20141129170000
1095,Meizhou,,24.285988,116.127065,82,48,26,14,5,8,22,20,1014,88,2,20141129170000
106,"City EPA, Shanwei",,22.772349,115.370227,82,26,37,4,5,9,23,22,1014,87,2,20141129170000
107,"City government, Shanwei",,22.787161,115.375536,80,24,37,2,6,7,23,22,1014,87,2,20141129170000
108,"Xincheng Middle School, Shanwei",,22.789851,115.367124,74,23,21,4,4,7,23,22,1014,87,2,20141129170000
1099,Shanwei,,22.783576,115.38022,74,23,21,4,4,7,23,22,1014,87,2,20141129170000
109,"No.3 elementary school, Heyuan",,23.75435,114.703514,53,22,31,10,5,9,24,21,1013,82,1,20141129170000
109,"No.3 elementary school, Heyuan",,23.755946,114.699091,53,22,31,10,5,9,24,21,1013,82,1,20141129170000
111,"City water company, Heyuan",,23.754246,114.682459,93,39,31,17,6,9,24,21,1013,82,1,20141129170000
111,"City water company, Heyuan",,23.688709,114.954652,93,39,31,17,6,9,24,21,1013,82,1,20141129170000
113,"Heyuan high school, Heyuan",,23.720037,114.699563,85,27,33,14,10,7,24,21,1013,82,1,20141129170000
113,"Heyuan high school, Heyuan",,23.720666,114.693879,85,27,33,14,10,7,24,21,1013,82,1,20141129170000
115,Heyuan,,23.740888,114.705147,85,27,33,14,10,7,24,21,1013,82,1,20141129170000
116,"Yuanyang Lake, Yangjiang",,21.855869,111.983676,82,32,32,5,1,8,23,22,1013,87,2,20141129170000
1100,Yangjiang,,21.855227,111.987308,82,32,32,5,1,8,23,22,1013,87,2,20141129170000
118,"Town governement, Qingyuan",,23.708005,113.026215,139,82,40,37,19,24,25,22,1012,83,1,20141129170000
119,"Fupin district, Qingyuan",,23.624781,113.067713,117,53,35,38,26,18,25,22,1012,83,1,20141129170000
121,"Environment protection office, Qingyuan",,23.685931,113.053239,34,8,41,33,22,21,25,22,1012,83,1,20141129170000
121,"Environment protection office, Qingyuan",,23.691109,113.047948,34,8,41,33,22,21,25,22,1012,83,1,20141129170000
123,"Fengcheng Subdistrict, Qingyuan",,23.695447,113.068189,139,82,40,37,19,24,25,22,1012,83,1,20141129170000
124,Qingyuan,,23.679304,113.061513,34,8,41,33,22,21,25,22,1012,83,1,20141129170000
125,"Xiyuan Road, Chaozhou",,23.668654,116.638272,169,92,28,12,9,15,22,20,1014,88,2,20141129170000
126,"Archives Bureau, Chaozhou",,23.667881,116.649104,160,78,32,16,11,10,22,20,1014,88,2,20141129170000
127,"Municipal Corporation, Chaozhou",,23.65035,116.621859,169,89,25,12,7,15,22,20,1014,88,2,20141129170000
1101,Chaozhou,,23.654204,116.626969,169,89,25,12,7,15,22,20,1014,88,2,20141129170000
128,"Donghu Park, Jieyang",,23.532877,116.374427,78,35,28,11,9,15,22,20,1014,88,2,20141129170000
129,"Yuhu Middle School, Jieyang",,23.52682,116.414123,85,32,28,12,10,10,22,20,1014,88,2,20141129170000
130,"Experimental Primary School, Jieyang",,23.571473,116.364137,114,38,26,12,12,12,22,20,1014,88,2,20141129170000
1102,Jieyang,,23.547596,116.37754,78,35,28,11,9,15,22,20,1014,88,2,20141129170000
131,"City Environmental Monitoring Station, Yunfu",,22.936779,112.042248,112,77,28,11,8,15,25,22,1012,83,1,20141129170000
132,"The new city government headquarters, Yunfu",,22.914275,112.044475,99,51,27,1,6,20,25,22,1012,83,1,20141129170000
133,"Muyang police sub-station, Yunfu",,22.951267,112.05923,109,52,28,21,10,18,25,22,1012,83,1,20141129170000
1103,Yunfu,,22.912436,112.049811,99,51,27,17,6,20,25,22,1012,83,1,20141129170000
134,Yantian,,22.587949,114.266899,85,36,40,7,5,16,24,22,1013,89,3,20141129170000
135,Kwai Chung,,22.572837,113.867166,74,27,23,13,1,11,24,22,1013,89,3,20141129170000
135,Kwai Chung,,22.354168,114.134558,74,27,23,13,1,11,24,22,1013,89,3,20141129170000
137,Nanyou,,22.513802,113.928051,78,30,40,8,4,12,24,22,1013,89,3,20141129170000
138,Meisha,,22.59611,114.318345,76,31,39,6,3,8,24,22,1013,89,3,20141129170000
139,Xi xiang,,22.717524,114.252304,72,29,25,7,2,12,24,22,1013,89,3,20141129170000
140,Liyuan,,22.54732,114.101205,72,27,29,9,3,11,24,22,1013,89,3,20141129170000
1072,Kwai Chung,,22.627947,114.428875,72,28,32,5,1,6,24,22,1013,89,3,20141129170000
1072,Kwai Chung,,22.354168,114.134558,72,28,32,5,1,6,24,22,1013,89,3,20141129170000
141,OCT,,22.539549,113.992458,72,29,22,13,2,12,24,22,1013,89,3,20141129170000
142,Honghu,,22.559647,114.121976,78,25,30,12,1,6,24,22,1013,89,3,20141129170000
143,Mission Hills,,22.694131,114.050496,78,25,32,8,2,7,24,22,1013,89,3,20141129170000
144,Shenzhen,,22.540382,114.062982,85,36,40,13,5,16,-,-,0,-,-,20141129170000
145,Chengdu,,30.622581,104.069564,184,121,16,46,10,16,14,10,1016,77,3,20141129170000
146,"Jinquan lianghe, Chengdu",,30.710359,103.974209,168,111,17,33,7,17,13,9,1016,77,0,20141129170000
147,"Shilidian, Chengdu",,30.684718,104.17845,162,114,15,32,5,15,13,9,1016,77,0,20141129170000
148,"Sanwayao, Chengdu",,30.568159,104.081524,155,103,,,,16,13,9,1016,77,0,20141129170000
149,"Shahepu, Chengdu",,30.633685,104.120536,158,100,7,32,4,16,13,9,1016,77,0,20141129170000
150,"Liang Lane, Chengdu",,30.682601,104.076522,182,144,18,37,10,17,13,9,1016,77,0,20141129170000
151,"Caotang Temple, Chengdu",,30.651891,104.0284,172,121,14,46,10,16,13,9,1016,77,0,20141129170000
152,"Lingyansi, Chengdu",,31.025729,103.615022,65,40,30,6,9,6,13,9,1016,77,0,20141129170000
153,"Fuleshan, Mianyang",,31.472493,104.7806,82,34,29,7,4,8,15,10,1013,67,1,20141129170000
154,"High-tech Zone Water Company, Mianyang",,31.463309,104.674293,112,54,24,21,9,10,15,10,1013,67,1,20141129170000
155,"No.3 water company, Mianyang",,31.505002,104.731054,87,38,32,20,7,6,15,10,1013,67,1,20141129170000
156,Mianyang,,31.465174,104.681731,112,54,32,21,9,11,15,10,1013,67,1,20141129170000
157,"Dongshan Park, Deyang",,31.118648,104.424587,102,32,13,7,5,10,13,9,1016,77,0,20141129170000
158,"Xixiaoqu, Deyang",,31.131159,104.390972,99,29,8,16,2,11,13,9,1016,77,0,20141129170000
159,"City Procuratorate, Deyang",,31.114554,104.407986,102,44,21,13,3,12,13,9,1016,77,0,20141129170000
160,"Refractory Factory, Deyang",,31.108606,104.356506,85,47,27,16,2,7,13,9,1016,77,0,20141129170000
161,Deyang,,31.124715,104.400703,102,47,27,16,5,10,13,9,1016,77,0,20141129170000
162,"Nongnongping, Panzhihua",,26.566698,101.695438,76,55,30,21,5,6,12,4,0,46,2,20141129170000
163,"Hemenkou, Panzhihua",,26.589072,101.578312,99,53,36,9,6,12,12,4,0,46,2,20141129170000
164,"Bingcaogang, Panzhihua",,26.58143,101.718473,104,68,31,30,10,19,12,4,0,46,2,20141129170000
165,"Renhe, Panzhihua",,26.498166,101.746887,72,36,31,19,2,14,12,4,0,46,2,20141129170000
166,"Jinjina, Panzhihua",,26.553226,101.84862,91,114,34,16,25,8,12,4,0,46,2,20141129170000
167,Panzhihua,,26.578779,101.720211,104,114,36,30,25,19,12,4,0,46,2,20141129170000
168,"Shima Middle School, Yibin",,28.815979,104.599199,160,87,19,22,9,14,15,12,1015,80,1,20141129170000
169,"Municipal party committee, Yibin",,28.762654,104.624834,164,88,13,20,15,17,15,12,1015,80,1,20141129170000
170,"No. 4 middle school, Yibin",,28.783257,104.608407,171,93,18,19,7,12,15,12,1015,80,1,20141129170000
171,"City government, Yibin",,28.760477,104.644079,157,89,18,23,9,16,15,12,1015,80,1,20141129170000
172,"Huangjinzui, Yibin",,28.712319,104.578389,167,102,15,21,10,14,15,12,1015,80,1,20141129170000
173,"Shaping Middle School, Yibin",,28.795569,104.681393,152,69,16,11,5,12,15,12,1015,80,1,20141129170000
174,Yibin,,28.748384,104.645766,171,102,19,23,15,17,15,12,1015,80,1,20141129170000
175,"Datang Hill, Zigong",,29.359969,104.757388,182,78,27,12,21,9,12,11,0,90,2,20141129170000
176,"Yanma Road, Zigong",,29.355752,104.724036,177,99,9,6,5,9,12,11,0,90,2,20141129170000
177,"Tanmulin Street, Zigong",,29.353555,104.777397,161,85,24,11,18,7,12,11,0,90,2,20141129170000
178,"Chunhua Road, Zigong",,29.33825,104.771895,168,96,18,21,25,14,12,11,0,90,2,20141129170000
179,Zigong,,29.33617,104.781138,182,99,27,21,25,14,12,11,0,90,2,20141129170000
180,"Jiushi Hill, Luzhou",,28.955347,105.434207,147,63,25,9,2,6,14,12,0,85,1,20141129170000
181,"Xiaoshishang Port, Luzhou",,28.899583,105.447192,168,84,17,20,15,12,14,12,0,85,1,20141129170000
182,"Lantianxian Bridge, Luzhou",,28.852766,105.4358,161,92,23,25,5,6,14,12,0,85,1,20141129170000
183,"City Environment Monitoring Station, Luzhou",,28.895898,105.435802,169,83,14,31,9,9,14,12,0,85,1,20141129170000
184,Luzhou,,28.868782,105.445938,169,92,25,31,15,12,14,12,0,85,1,20141129170000
185,"City Committee, Nanchong",,30.799993,106.082906,160,75,18,7,4,7,14,14,1015,99,1,20141129170000
186,"Refinery Factory, Nanchong",,30.819412,106.10712,159,88,9,21,10,7,14,14,1015,99,1,20141129170000
187,"Gaoping District Monitoring Station, Nanchong",,30.783291,106.110417,147,76,11,24,19,19,14,14,1015,99,1,20141129170000
188,"Jialing District EPB, Nanchong",,30.761255,106.06818,155,70,16,23,3,13,14,14,1015,99,1,20141129170000
189,"City Environmental Monitoring Station, Nanchong",,30.836519,106.11272,153,73,9,4,9,12,14,14,1015,99,1,20141129170000
190,Nanchong,,30.835511,106.114717,160,88,20,24,19,19,14,14,1015,99,1,20141129170000
1249,"City Monitoring Station, Neijiang",,29.592673,105.036234,153,70,12,6,16,12,12,11,0,90,2,20141129170000
1250,"Dongxing District Government , Neijiang",,29.592148,105.074966,156,69,14,8,4,8,12,11,0,90,2,20141129170000
1251,"No 2 middle school, Neijiang",,29.579135,105.068548,155,69,15,10,8,7,12,11,0,90,2,20141129170000
1252,Neijiang,,29.577653,105.06166,171,70,15,12,16,12,12,11,0,90,2,20141129170000
1253,"City Monitoring Station, Suining",,30.610641,105.683583,132,64,9,14,10,-,11,10,0,89,1,20141129170000
1254,"Administrative center , Suining",,30.63206,105.819747,-,-,,-,-,,-,-,0,-,-,20141129170000
1255,Suining,,30.530053,105.596307,151,78,12,14,25,11,11,10,0,89,1,20141129170000
1256,"City Monitoring Station, Leshan",,29.560651,103.759211,186,123,10,27,11,14,13,10,0,82,1,20141129170000
1257,"Leshan Giant Buddha Scenic Area , Leshan",,29.543938,103.772706,172,94,14,21,10,12,13,10,0,82,1,20141129170000
1258,Leshan,,29.54935,103.767777,186,123,14,27,16,19,13,10,0,82,1,20141129170000
1259,"Heilongtan , Meishan",,30.047726,103.900649,152,58,23,4,1,4,13,9,1016,77,0,20141129170000
1260,"Bureau of Meteorology, Meishan",,30.084591,103.843715,169,80,1,20,7,11,13,9,1016,77,0,20141129170000
1261,"Xuguang Community , Meishan",,30.066277,103.8516,153,64,14,18,3,7,13,9,1016,77,0,20141129170000
1262,"City Monitoring Station, Meishan",,30.059205,103.836229,152,60,13,17,3,7,13,9,1016,77,0,20141129170000
1263,Meishan,,30.072618,103.85064,169,80,23,20,7,11,13,9,1016,77,0,20141129170000
1264,"Ziyang middle school, Ziyang",,30.147763,104.638024,142,62,17,1,41,9,12,11,0,90,2,20141129170000
1265,Ziyang,,30.126054,104.63004,157,93,24,20,21,11,12,11,0,90,2,20141129170000
191,Shenyang US Consulate,,41.785668,123.432865,189,91,,24,50,,2,-4,1018,65,3,20141129170000
192,"Huishan, Shenyang",,41.835421,123.647773,160,77,29,25,36,17,2,-4,1018,65,3,20141129170000
193,"Hunnan, Shenyang",,41.758263,123.540809,224,163,21,40,57,31,-1,-5,1018,75,2,20141129170000
194,"Zhangshi, Shenyang",,41.771679,123.289859,154,86,9,28,40,27,2,-4,1018,65,3,20141129170000
195,"Artillery College, Shenyang",,41.835749,123.547799,155,111,25,38,57,21,-1,-5,1018,75,2,20141129170000
196,"Beiling, Shenyang",,41.849633,123.434146,189,122,4,44,65,25,-1,-5,1018,75,2,20141129170000
197,"Wenyi Road, Shenyang",,41.767444,123.416144,155,91,16,24,50,23,-1,-5,1018,75,2,20141129170000
198,"Xiaoheyan, Shenyang",,41.779828,123.484015,211,150,13,39,58,30,-1,-5,1018,75,2,20141129170000
199,"Taiyuan Street, Shenyang",,41.799646,123.406146,147,72,4,33,54,25,-1,-5,1018,75,2,20141129170000
200,"Ermao, Shenyang",,41.783011,123.366679,155,78,20,26,45,25,-1,-5,1018,75,2,20141129170000
201,"Liaoning University, Shenyang",,41.830704,123.361071,195,122,12,33,51,27,-1,-5,1018,75,2,20141129170000
202,Shenyang,,41.808126,123.437611,154,72,4,33,54,25,-1,-5,1018,75,2,20141129170000
1104,"wenhua street, Shenyang , Shenyang",,41.774139,123.441839,155,91,10,24,50,23,-1,-5,1018,75,2,20141129170000
1105,"Tanglin Road , Shenyang , Shenyang",,41.823665,123.562317,155,111,4,38,57,20,-1,-5,1018,75,2,20141129170000
203,"Ganjingzi, Dalian",,38.9747,121.616893,161,88,5,37,19,12,6,4,1019,87,1,20141129170000
204,"Zhoushuizi, Dalian",,38.951928,121.569981,165,97,17,37,30,20,6,4,1019,87,1,20141129170000
205,"Xinghai No 3 station, Dalian",,38.885779,121.568864,162,82,12,19,17,11,6,4,1019,87,1,20141129170000
206,"Qingniwa Bridge, Dalian",,38.91274,121.638018,157,79,23,26,15,15,6,4,1019,87,1,20141129170000
207,"Fujiazhuang, Dalian",,38.864647,121.629947,129,64,7,11,11,9,6,4,1019,87,1,20141129170000
208,"Qixianling, Dalian",,38.856978,121.523169,127,76,17,15,11,12,6,4,1019,87,1,20141129170000
209,"Lushun, Dalian",,38.808946,121.264063,154,77,21,11,12,11,6,4,1019,87,1,20141129170000
210,"Jinzhou, Dalian",,39.132192,121.753259,165,88,5,9,9,14,6,4,1019,87,1,20141129170000
211,"BDA, Dalian",,39.05213,121.782022,167,100,7,39,20,1,6,4,1019,87,1,20141129170000
212,"D&D Port, Dalian",,39.064087,121.981874,149,68,6,12,13,11,6,4,1019,87,1,20141129170000
213,Dalian,,38.91478,121.619625,157,79,23,26,15,15,-,-,0,-,-,20141129170000
214,"Bearing Factory, Dandong",,40.068929,124.345703,162,87,23,22,28,29,2,1,1021,92,4,20141129170000
215,"Financial school, Dandong",,40.158723,124.432593,157,72,24,17,15,29,2,1,1021,92,4,20141129170000
216,"Yuanbaoshan water, Dandong",,40.149431,124.391698,164,85,24,15,20,29,2,1,1021,92,4,20141129170000
217,"Experimental Primary School, Dandong",,39.887343,124.158056,164,87,24,23,23,18,2,1,1021,92,4,20141129170000
218,Dandong,,40.002046,124.360479,156,73,2,21,21,30,2,1,1021,92,4,20141129170000
1106,"minzhu bridge, Dandong , Dandong",,40.112974,124.373604,156,73,14,21,16,18,2,1,1021,92,4,20141129170000
1107,"yuanbaoshan, Dandong , Dandong",,40.146298,124.399081,153,63,2,13,16,30,2,1,1021,92,4,20141129170000
1108,"linjiang houjie, Dandong , Dandong",,40.152757,124.431745,132,59,2,16,12,29,2,1,1021,92,4,20141129170000
219,"BDA, Panjin",,41.157144,122.06645,188,95,17,17,11,20,5,2,0,77,4,20141129170000
220,"Xinglongtai, Panjin",,41.140948,122.111343,-,-,-,-,-,-,-,-,0,-,-,20141129170000
221,"Dingxiang, Panjin",,41.16139,121.928781,171,86,38,12,11,16,5,2,0,76,4,20141129170000
222,Panjin,,41.122089,122.076206,188,95,25,17,11,20,5,2,0,77,4,20141129170000
223,"No.3 water company, Yingkou",,40.682052,122.385352,155,83,38,33,22,21,7,4,1019,72,4,20141129170000
224,"Yingkou University, Yingkou",,40.683689,122.388285,154,89,40,33,24,21,7,4,1019,72,4,20141129170000
225,"Botanical garden, Yingkou",,40.711674,122.281568,157,69,34,36,23,21,7,4,1019,72,4,20141129170000
226,Yingkou,,40.668578,122.24059,156,87,32,31,24,21,7,4,1019,72,4,20141129170000
1109,"jinghu west street, Yingkou , Yingkou",,40.653831,122.221943,156,83,16,28,18,21,7,4,1019,72,4,20141129170000
1110,"Daqing Road , Yingkou , Yingkou",,40.709181,122.28243,159,70,10,33,23,21,7,4,1019,72,4,20141129170000
227,"Xishanpo, Huludao",,40.724078,120.921974,158,102,23,21,42,31,,,0,,,20141129170000
228,"Huagong hospital, Huludao",,40.755662,120.848435,153,96,40,28,52,38,,,0,,,20141129170000
229,"New district park, Huludao",,40.723415,120.853801,157,94,23,27,40,31,,,0,,,20141129170000
230,"Lianshan district governement, Huludao",,40.775488,120.872292,151,105,16,35,52,35,,,0,,,20141129170000
231,Huludao,,40.712501,120.842107,157,101,20,38,38,38,,,0,,,20141129170000
1111,"Dongcheng District , Huludao , Huludao",,40.775362,120.871706,151,101,3,38,37,35,,,0,,,20141129170000
1112,"huagong street, Huludao , Huludao",,40.758901,120.842935,147,92,20,31,38,38,,,0,,,20141129170000
232,Anshan,,41.110466,123.000147,159,87,22,20,44,34,-1,-5,1018,75,2,20141129170000
233,"Qianshan Park, Anshan",,41.033486,123.143897,102,54,32,6,6,6,-1,-5,1018,75,2,20141129170000
234,"Tiexi, Anshan",,41.121636,122.97506,170,107,15,30,39,24,-1,-5,1018,75,2,20141129170000
235,"Taiping Station, Anshan",,41.153322,123.052433,157,84,14,20,32,28,-1,-5,1018,75,2,20141129170000
236,"Central Station, Anshan",,41.106731,123.002736,152,77,20,20,55,36,-1,-5,1018,75,2,20141129170000
237,"Shengou Temple, Anshan",,41.137157,123.031901,151,69,22,13,15,18,-1,-5,1018,75,2,20141129170000
1113,"Qianshan , Anshan , Anshan",,41.014521,123.122538,99,53,13,6,6,6,-1,-5,1018,75,2,20141129170000
1114,"Tiexi Sandao jie, Anshan",,41.103264,122.978613,159,87,3,20,44,23,-1,-5,1018,75,2,20141129170000
1115,"Taiyang, Anshan",,41.094946,123.019037,153,77,9,13,37,34,-1,-5,1018,75,2,20141129170000
238,Fushun,,41.883028,123.962984,224,137,19,29,35,24,2,-4,1018,65,3,20141129170000
239,"Shenfu new town, Fushun",,41.804638,123.631684,224,137,17,29,35,24,2,-4,1018,65,3,20141129170000
240,"Reservoir, Fushun",,41.8464,123.802857,132,54,30,8,6,21,-1,-5,1018,75,2,20141129170000
241,"Train Station, Fushun",,41.89726,124.017604,168,72,21,28,17,18,-1,-5,1018,75,2,20141129170000
242,"Dongzhou, Fushun",,41.855578,124.044738,161,70,28,16,7,14,-1,-5,1018,75,2,20141129170000
243,"Xinhua, Fushun",,41.888598,123.932932,278,155,26,42,35,45,-1,-5,1018,75,2,20141129170000
244,"Wanghua, Fushun",,41.888825,123.093723,192,124,16,32,36,24,-1,-5,1018,75,2,20141129170000
1367,"Dongzhou district, Fushun , Fushun",,41.864885,124.044353,163,75,8,20,7,14,2,-4,1018,65,3,20141129170000
1368,"Wanghua district, Fushun , Fushun",,41.849112,123.815882,193,109,3,29,27,24,2,-4,1018,65,3,20141129170000
245,Benxi,,41.296267,123.772371,174,99,45,62,12,40,2,-4,1018,65,3,20141129170000
246,"Weining, Benxi",,41.349663,123.826071,174,99,45,94,3,38,2,-4,1018,65,3,20141129170000
247,"Occupational disease hospital, Benxi",,41.305432,123.74645,91,57,32,8,12,13,2,-4,1018,65,3,20141129170000
248,"Dongming, Benxi",,41.292369,123.765058,154,55,17,62,52,40,2,-4,1018,65,3,20141129170000
249,"Caitun, Benxi",,41.301591,123.746039,147,76,11,9,17,26,2,-4,1018,65,3,20141129170000
250,"Xihu, Benxi",,41.331332,123.773537,155,93,16,30,58,27,2,-4,1018,65,3,20141129170000
251,"Dayu, Benxi",,41.308091,123.818442,122,56,18,11,22,19,2,-4,1018,65,3,20141129170000
1116,"Xinlitun , Benxi , Benxi",,41.264104,123.811523,91,57,26,8,12,13,2,-4,1018,65,3,20141129170000
252,Jinzhou,,41.097169,121.132647,174,94,24,40,39,37,5,0,1018,62,5,20141129170000
253,"Beihu Park, Jinzhou",,41.141447,121.137339,171,106,14,40,50,34,5,0,1018,62,5,20141129170000
254,"Monitoring station, Jinzhou",,41.113441,121.140911,162,110,16,41,40,23,5,0,1018,62,5,20141129170000
1369,"Baigu Water Plant, Jinzhou",,41.123847,121.206296,165,90,21,40,39,37,5,0,1018,62,5,20141129170000
255,"Nanshan, Jinzhou",,41.570689,122.046753,174,94,24,40,38,32,5,0,1018,62,5,20141129170000
1118,"BDA, Jinzhou",,40.853915,121.061756,155,87,13,37,53,22,5,0,1018,62,5,20141129170000
1119,"tianan street, Jinzhou , Jinzhou",,41.124468,121.126119,162,110,8,41,40,23,5,0,1018,62,5,20141129170000
1120,"baigu street, Jinzhou, Jinzhou",,41.12214,121.21027,165,90,10,40,39,37,5,0,1018,62,5,20141129170000
1121,Chaoyang,,41.576022,120.456053,190,106,7,8,22,44,-,-,0,-,-,20141129170000
1122,"Agricultural Area, Chaoyang",,43.93968,125.247371,190,99,6,8,5,39,3,-6,1018,37,2,20141129170000
1123,Tieling,,42.225197,123.732174,171,108,20,29,30,16,-,-,0,-,-,20141129170000
260,"Waterpark, Tieling",,42.297031,123.880748,167,107,5,19,30,16,-1,-5,1018,75,2,20141129170000
1124,"Huigong Street West , Tieling , Tieling",,42.311115,123.845614,159,96,4,25,44,22,-1,-5,1018,75,2,20141129170000
1125,Liaoyang,,41.269312,123.24268,151,84,8,14,14,23,-,-,0,-,-,20141129170000
1126,"Riverside Road , Liaoyang , Liaoyang",,41.176884,123.419859,97,61,7,7,14,25,2,-4,1018,65,3,20141129170000
1127,Fuxin,,42.02373,121.675733,179,146,6,26,49,32,-,-,0,-,-,20141129170000
266,"Agricultural Area, Fuxin",,42.071291,121.696445,175,95,6,24,49,29,2,-2,0,66,2,20141129170000
267,"Industrial Area, Fuxin",,42.041052,121.715554,179,141,6,26,35,31,2,-2,0,66,2,20141129170000
1128,"Yulong Metro , Fuxin , Fuxin",,42.035091,121.666531,144,146,5,23,48,32,2,-2,0,66,2,20141129170000
1129,"Dongyuan , Fuxin , Fuxin",,42.029119,121.681553,156,116,13,33,58,20,2,-2,0,66,2,20141129170000
268,"City Monitoring Station, Jinan",,36.662614,117.054645,197,84,6,35,29,28,6,5,1019,97,1,20141129170000
269,"Shandong Institute of Economics, Jinan",,36.63819,117.074975,191,97,4,31,22,21,6,5,1019,97,1,20141129170000
270,"Quancheng Plaza, Jinan",,36.661711,117.027043,190,104,5,29,25,24,6,5,1019,97,1,20141129170000
271,"Kegansuo, Jinan",,36.611582,116.99384,163,75,21,34,20,31,6,5,1019,97,1,20141129170000
272,"Agriculture Science Institute, Jinan",,36.663115,116.95063,215,130,9,50,32,34,6,5,1019,97,1,20141129170000
273,"Lanxiang technical school, Jinan",,36.700421,116.95342,182,102,10,43,44,25,6,5,1019,97,1,20141129170000
274,"Chemical factory, Jinan",,36.687463,116.994406,222,124,2,48,36,26,6,5,1019,97,1,20141129170000
275,"Provincial Seed Warehouse, Jinan",,36.685706,117.066348,189,102,8,40,37,27,6,5,1019,97,1,20141129170000
276,"Shandong Architecture University, Jinan",,36.681732,117.191868,183,84,8,38,26,36,6,5,1019,97,1,20141129170000
277,"Baosheng cable company, Jinan",,36.724638,117.130855,193,99,3,37,22,25,6,5,1019,97,1,20141129180000
278,"Paomaling, Jinan",,36.47869,117.219027,76,30,19,30,20,22,6,5,1019,97,1,20141129180000
279,"Changqing District Communist Party School, Jinan",,36.548797,116.770859,190,101,5,44,29,27,6,5,1019,97,1,20141129180000
280,"BDA, Jinan",,36.685835,117.130851,180,90,22,34,30,25,6,5,1019,97,1,20141129180000
281,Jinan,,36.651426,117.126625,197,84,6,35,29,28,6,5,1019,97,1,20141129180000
282,"Shinan district No. 1, Qingdao",,36.065534,120.40839,104,39,23,22,7,6,8,7,1018,93,4,20141129180000
283,"Shibei district No. 1, Qingdao",,36.069919,120.341264,122,54,10,19,11,8,8,7,1018,93,4,20141129180000
284,"Shibei district No. 2, Qingdao",,36.104146,120.36637,99,30,13,34,6,13,8,7,1018,93,4,20141129180000
285,"Huangdao District No. 1, Qingdao",,35.958935,120.191041,109,60,20,21,9,3,8,7,1018,93,4,20141129180000
286,"Huangdao District No. 2, Qingdao",,35.970487,120.160339,153,53,17,33,8,6,8,7,1018,93,4,20141129180000
287,"Laoshan District No. 1, Qingdao",,36.085881,120.451839,-,-,-,-,-,-,-,-,0,-,-,20141129180000
288,"Laoshan District No. 2, Qingdao",,36.091075,120.490388,76,9,5,9,6,6,8,7,1018,93,4,20141129180000
289,"Licang District No. 1, Qingdao",,36.184872,120.38533,142,55,9,16,8,6,8,7,1018,93,4,20141129180000
290,"Licang District No. 2, Qingdao",,36.154369,120.432287,119,59,14,17,3,3,8,7,1018,93,4,20141129180000
291,"Chengyang District No. 1, Qingdao",,36.308502,120.40008,152,50,21,12,11,5,8,7,1018,93,4,20141129180000
292,"Chengyang District No. 2, Qingdao",,36.308429,120.465806,124,54,29,5,8,8,8,7,1018,93,4,20141129180000
293,Qingdao,,36.067358,120.387773,104,39,23,22,7,6,8,7,1018,93,4,20141129180000
294,"Zichuan Meteo. Stations, Zibo",,36.637916,117.960222,-,-,-,-,-,-,-,-,0,-,-,20141129180000
295,"Dongfeng Chemical factory, Zibo",,36.838576,118.050785,204,93,4,37,37,23,6,6,0,94,1,20141129180000
296,"Boshan shuangshan, Zibo",,36.497278,117.853581,177,110,6,38,58,33,6,6,0,94,1,20141129180000
297,"Linzi Putian Park, Zibo",,36.820171,118.315022,171,80,4,34,20,16,6,6,0,94,1,20141129180000
298,"Qilu Petrochemical, Zibo",,36.765907,118.254967,162,71,4,35,14,20,6,6,0,94,1,20141129180000
299,"Zhoucun sanjin Group, Zibo",,36.8044,117.85694,182,84,10,51,40,31,6,6,0,94,1,20141129180000
300,"Vocational College, Zibo",,36.825208,117.926305,182,80,3,36,35,25,6,6,0,94,1,20141129180000
301,"BDA, Zibo",,36.905214,118.021824,194,74,4,28,20,17,6,6,0,94,1,20141129180000
302,Zibo,,36.813618,118.060948,204,110,9,41,58,33,6,6,0,94,1,20141129180000
303,"Shizhong District Government, Zaozhuang",,34.850397,117.569545,65,25,20,8,29,8,10,9,1015,92,2,20141129180000
304,"Sewage treatment plant, Zaozhuang",,34.818951,117.595345,134,48,17,12,65,57,10,9,1015,92,2,20141129180000
305,"Xuecheng EPA, Zaozhuang",,34.790214,117.272455,61,20,12,15,29,9,10,9,1015,92,2,20141129180000
306,"Yicheng District government, Zaozhuang",,34.772806,117.57647,93,52,24,7,15,11,10,9,1015,92,2,20141129180000
307,"Taierzhuang EPA, Zaozhuang",,34.579462,117.741067,91,30,15,10,6,13,10,9,1015,92,2,20141129180000
308,"Shanting EPA, Zaozhuang",,35.070373,117.457691,68,22,20,6,12,4,10,9,1015,92,2,20141129180000
309,"City EPA, Zaozhuang",,34.809466,117.320608,87,23,11,6,37,6,10,9,1015,92,2,20141129180000
310,"High-tech zone, Zaozhuang",,34.821779,117.363495,68,20,17,10,25,10,10,9,1015,92,2,20141129180000
311,Zaozhuang,,34.809693,117.329634,65,25,20,8,29,8,10,9,1015,92,2,20141129180000
312,"City EPA, Dongying",,37.432052,118.672871,163,64,25,13,18,8,8,6,0,87,1,20141129180000
313,"Vocational College, Dongying",,37.438653,118.630567,162,74,14,15,25,9,8,6,0,87,1,20141129180000
314,"Xianhe Oil Production Plant, Dongying",,37.442419,118.510222,168,83,11,23,14,10,8,6,0,87,1,20141129180000
315,"Gengjin village, Dongying",,37.445072,118.55839,172,80,23,23,15,13,8,6,0,87,1,20141129180000
316,"City environmental company, Dongying",,37.466599,118.508012,168,71,21,28,15,10,8,6,0,87,1,20141129180000
317,"Hekou  district, Dongying",,37.883786,118.522171,171,80,25,13,16,10,8,6,0,87,1,20141129180000
318,"BDA, Dongying",,37.435162,118.701827,162,67,20,8,13,10,8,6,0,87,1,20141129180000
319,Dongying,,37.435429,118.680434,163,64,25,13,18,8,8,6,0,87,1,20141129180000
320,"Bearing Factory, Yantai",,37.544126,121.376956,171,84,20,28,23,9,,,0,,,20141129180000
321,"Xijiao Chemical Station, Yantai",,37.547148,121.323695,162,72,29,33,12,7,,,0,,,20141129180000
322,"Fushan Monitoring Stations, Yantai",,37.472245,121.260116,164,78,5,31,17,18,,,0,,,20141129180000
323,"Mouping EPA, Yantai",,37.376681,121.586509,169,87,14,18,8,13,,,0,,,20141129180000
324,"Laishan EPA, Yantai",,37.478422,121.44829,153,63,11,13,24,8,,,0,,,20141129180000
325,"Laishan Shengquan Industrial Park, Yantai",,37.4271,121.408386,168,102,6,36,10,15,,,0,,,20141129180000
326,"China Agricultural University, Yantai",,37.423568,121.511838,158,73,11,33,15,11,,,0,,,20141129180000
327,"BDA EPA, Yantai",,37.560827,121.257954,-,-,-,-,-,-,,,0,,,20141129180000
329,"Dajijia, Yantai",,37.673849,121.071465,166,72,2,25,7,8,,,0,,,20141129180000
330,Yantai,,37.464793,121.453142,171,84,20,28,23,9,,,0,,,20141129180000
331,"BDA, Weifang",,36.720022,119.054064,160,69,5,25,18,11,,,0,,,20141129180000
332,"Business School, Weifang",,36.682442,119.105909,158,68,4,22,20,10,,,0,,,20141129180000
333,"Hanting District, Weifang",,36.773484,119.199705,159,76,11,9,14,8,,,0,,,20141129180000
334,"Gongda Company, Weifang",,36.657635,119.167266,163,80,33,19,11,8,,,0,,,20141129180000
335,"City EPA, Weifang",,36.701272,119.16838,155,66,12,21,25,6,,,0,,,20141129180000
336,"City Arbitration Committee, Weifang",,36.702422,119.145927,153,65,19,22,30,10,,,0,,,20141129180000
337,"Xinhui Group, Weifang",,36.641581,119.11679,149,54,9,24,22,10,,,0,,,20141129180000
338,"Jincheng Middle School, Weifang",,36.773611,119.115539,164,68,22,13,10,9,,,0,,,20141129180000
339,Weifang,,36.707217,119.167638,157,72,28,20,16,11,,,0,,,20141129180000
340,"City Monitoring Station, Jining",,35.408443,116.623917,167,67,7,23,26,15,7,7,1018,96,2,20141129180000
1090,"Shengdi Hollidays Resort, Jining",,35.424746,116.699093,159,66,5,19,20,11,7,6,1018,89,2,20141129180000
341,"Sewage treatment plant, Jining",,35.364286,116.609177,165,75,4,21,19,13,7,7,1018,96,2,20141129180000
342,"Electrochemical Factory, Jining",,35.390473,116.552956,157,76,7,20,20,20,7,7,1018,96,2,20141129180000
343,"Rencheng BDA, Jining",,35.390484,116.662995,153,64,17,19,19,20,8,7,1018,92,1,20141129180000
344,"Agricultural School, Jining",,35.44235,116.601682,154,83,4,17,15,14,7,6,1018,89,2,20141129180000
345,"BDA Huojucheng, Jining",,35.436377,116.642953,165,80,4,24,35,15,7,6,1018,89,2,20141129180000
346,Jining,,35.414473,116.59239,167,67,7,23,26,15,7,7,1018,96,2,20141129180000
347,"Taishan monitoring station, Taian",,36.194362,117.159648,157,54,35,18,8,15,-1,-1,0,97,5,20141129180000
348,"Shandong Electric Power School, Taian",,36.176071,117.12413,149,55,27,19,23,24,-1,-1,0,97,5,20141129180000
349,"Population Education school, Taian",,36.194417,117.104131,153,60,18,8,6,20,-1,-1,0,97,5,20141129180000
350,"Houfeng company, Taian",,36.204863,117.19015,153,52,8,17,6,19,-1,-1,0,97,5,20141129180000
351,"Nongda new campus, Taian",,36.170179,117.165191,162,65,4,23,23,18,-1,-1,0,97,5,20141129180000
352,"Transportation technical school, Taian",,36.202126,117.047068,137,43,2,26,6,18,-1,-1,0,97,5,20141129180000
353,"ICT Technology, Taian",,36.116621,117.107458,159,62,2,19,16,23,-1,-1,0,97,5,20141129180000
354,Taian,,36.200502,117.093682,157,54,35,18,8,15,-1,-1,0,97,5,20141129180000
355,"City Environmental Monitoring Station, Weihai",,37.513939,122.067058,122,68,17,28,16,7,8,6,0,87,2,20141129180000
356,"Woodworking Factory, Weihai",,37.325455,122.160777,109,57,23,13,9,8,8,6,0,87,2,20141129180000
357,"Lantian Hotel, Weihai",,37.514641,122.146276,139,71,31,21,15,12,8,6,0,87,2,20141129180000
358,"Zhang village government, Weihai",,37.485561,122.049436,154,78,18,5,10,9,8,6,0,87,2,20141129180000
359,"Gao District Bank, Weihai",,37.534919,122.056294,159,80,17,20,10,8,8,6,0,87,2,20141129180000
360,"Huxia technical school, Weihai",,37.427951,122.130811,137,69,27,17,11,9,8,6,0,87,2,20141129180000
361,Weihai,,37.5141,122.125477,122,68,17,28,16,7,8,6,0,87,2,20141129180000
362,"City governement square, Rizhao",,35.4075,119.526008,61,19,36,4,8,5,10,10,1017,100,2,20141129180000
364,"City Monitoring Station, Rizhao",,35.388683,119.496405,82,31,32,10,5,6,10,10,1017,100,2,20141129180000
365,"Professor Garden, Rizhao",,35.462161,119.574193,80,41,39,9,6,5,10,10,1017,100,2,20141129180000
366,"Vocational and Technical College, Rizhao",,35.441939,119.538187,78,30,39,5,5,8,10,10,1017,100,2,20141129180000
367,"Lanshan EPA branch, Rizhao",,35.293405,119.345716,63,21,36,8,10,6,10,10,1017,100,2,20141129180000
368,"Jinma Industrial Park, Rizhao",,35.373339,119.514108,61,21,32,11,10,6,10,10,1017,100,2,20141129180000
369,Rizhao,,35.416089,119.532316,61,19,36,4,8,5,10,10,1017,100,2,20141129180000
370,"Vegetable oil factory, Laiwu",,36.205028,117.700917,-,-,-,-,-,-,-,-,0,-,-,20141129180000
371,"Nursing home, Laiwu",,36.266067,117.652769,168,61,3,47,25,24,6,6,1019,95,1,20141129180000
372,"Xinyi middle school, Laiwu",,36.245086,117.739025,152,65,7,37,29,20,6,6,1019,95,1,20141129180000
373,"Risheng International School, Laiwu",,36.208125,117.730959,170,77,1,42,42,23,6,6,1019,95,1,20141129180000
374,"Gangcheng EPA, Laiwu",,36.066836,117.871823,164,78,3,44,75,27,6,6,1019,95,1,20141129180000
375,"City EPA, Laiwu",,36.228913,117.694797,160,1,3,40,35,25,6,6,1019,95,1,20141129180000
376,Laiwu,,36.213688,117.682612,170,78,17,47,75,24,-,-,0,-,-,20141129180000
377,"Lunan Pharmaceutical Factory, Linyi",,35.061671,118.299527,129,42,26,26,9,12,9,8,0,94,4,20141129180000
378,"Yihe compound, Linyi",,35.056752,118.34739,114,51,30,19,12,13,9,8,0,94,4,20141129180000
379,"Linyi University, Linyi",,35.114777,118.293414,147,53,7,20,7,14,9,8,0,94,4,20141129180000
380,City EPA,Nanfang,35.104871,118.353518,147,40,13,20,11,15,9,8,0,94,4,20141129180000
381,"Xinguang woolen factory, Linyi",,34.981004,118.282,134,40,115,17,11,12,9,8,0,94,4,20141129180000
382,"Hongfu Baijiu Factory, Linyi",,34.998788,118.257275,134,63,8,20,8,15,9,8,0,94,4,20141129180000
384,"Hedong insurance company, Linyi",,35.089354,118.40812,124,42,10,20,9,15,9,8,0,94,4,20141129180000
385,"Jianghua vehicule center, Linyi",,35.010082,118.435749,124,52,6,12,10,15,9,8,0,94,4,20141129180000
386,Linyi,,35.10428,118.362202,129,42,26,26,65,12,9,8,0,94,4,20141129180000
387,"Heima group, Dezhou",,37.466063,116.314134,230,107,5,36,49,27,7,6,1020,93,2,20141129180000
388,"Monitoring station, Dezhou",,37.433107,116.377312,219,113,3,33,31,27,7,6,1020,93,2,20141129180000
389,"Supervision Station, Dezhou",,37.449689,116.324709,227,115,5,27,49,25,7,6,1020,93,2,20141129180000
390,"Huayu technical school, Dezhou",,37.462809,116.357559,197,98,3,22,52,22,7,6,1020,93,2,20141129180000
391,"Shuangyi group, Dezhou",,37.478848,116.316362,220,107,1,27,30,23,7,6,1020,93,2,20141129180000
392,Dezhou,,37.434959,116.363366,230,107,5,36,49,27,7,6,1020,93,2,20141129180000
393,"Dongchang District Government, Liaocheng",,36.444473,115.971733,186,86,4,21,29,31,6,6,1019,96,2,20141129180000
394,"Light Machinery Factory No. 2, Liaocheng",,36.456788,116.002383,187,93,5,39,29,32,6,6,1019,96,2,20141129180000
395,"City committee communist party school, Liaocheng",,36.479537,115.989288,178,94,3,36,26,27,6,6,1019,96,2,20141129180000
396,"Customs, Liaocheng",,36.431933,115.956974,180,86,6,3,25,24,6,6,1019,96,2,20141129180000
397,"Hongshun Garden, Liaocheng",,36.471124,115.960319,186,97,2,34,20,27,6,6,1019,96,2,20141129180000
398,"BDA, Liaocheng",,36.459407,116.043621,190,97,6,36,23,33,6,6,1019,96,2,20141129180000
399,Liaocheng,,36.456792,115.991051,186,86,4,21,29,31,6,6,1019,96,2,20141129180000
400,"City EPA, Binzhou",,37.38024,118.026895,164,78,23,12,8,21,7,6,1020,89,2,20141129180000
401,"Beizhong new school, Binzhou",,37.38374,117.988996,168,82,8,22,8,26,7,6,1020,89,2,20141129180000
402,"No.2 water factory, Binzhou",,37.36155,118.002648,181,100,11,19,13,22,7,6,1020,89,2,20141129180000
403,"Keling Chemical factory, Binzhou",,37.396138,117.943609,183,87,5,10,15,23,7,6,1020,89,2,20141129180000
404,"Yinhe logistics company, Binzhou",,37.356122,117.943326,171,83,5,10,12,14,7,6,1020,89,2,20141129180000
405,"Bilin compond, Binzhou",,37.36815,117.978964,175,96,7,12,5,17,7,6,1020,89,2,20141129180000
406,Binzhou,,37.382639,117.976606,164,78,23,12,23,21,7,6,1020,89,2,20141129180000
407,"Bureau of Meteorology, Heze",,35.248625,115.428775,213,106,11,25,16,19,5,5,0,95,3,20141129180000
408,"Sewage treatment plant, Heze",,35.222517,115.531511,198,122,5,32,19,22,5,5,0,95,3,20141129180000
409,"Municipal CPPCC, Heze",,35.237125,115.480591,198,101,12,28,15,19,5,5,0,95,3,20141129180000
410,"Huarun Pharmaceutical Company, Heze",,35.261463,115.524873,195,102,3,23,13,22,5,5,0,95,3,20141129180000
411,"Heze University, Heze",,35.269706,115.460934,191,106,19,28,11,21,5,5,0,95,3,20141129180000
412,Heze,,35.233354,115.486503,213,106,11,25,16,19,5,5,0,95,3,20141129180000
413,"Shiji Park, Shijiazhuang",,38.03155,114.547873,154,81,5,14,12,26,4,4,1020,100,1,20141129180000
414,"Xinan College, Shijiazhuang",,38.012764,114.473163,177,114,1,16,20,29,4,4,1020,100,1,20141129180000
415,"Chemical College, Shijiazhuang",,38.055503,114.569816,152,74,2,24,19,26,4,4,1020,100,1,20141129180000
416,"Worker hospital, Shijiazhuang",,38.051784,114.461209,189,169,2,23,13,32,4,4,1020,100,1,20141129180000
417,"Northwest Water Company, Shijiazhuang",,38.140638,114.508038,154,116,2,33,16,22,4,4,1020,100,1,20141129180000
418,"High-tech zone, Shijiazhuang",,38.040482,114.610775,144,72,3,14,6,21,4,4,1020,100,1,20141129180000
419,"Fenglong Montain, Shijiazhuang",,37.910829,114.360264,194,143,17,45,44,43,4,4,1020,100,1,20141129180000
1130,"Zhengding Unicom, Shijiazhuang",,38.159458,114.59879,167,124,2,25,17,17,4,4,1020,100,1,20141129180000
1131,"Luancheng Communications, Shijiazhuang",,37.906534,114.638785,175,106,-,5,5,19,4,4,1020,100,1,20141129180000
1132,"Gaocheng Experimental School, Shijiazhuang",,38.039518,114.867812,151,64,1,17,16,12,4,4,1020,100,1,20141129180000
1133,"Wuji EPA, Shijiazhuang",,38.17862,114.997012,161,87,1,20,10,18,4,4,1020,100,1,20141129180000
1134,"Shenze Power Supply Bureau, Shijiazhuang",,38.197674,115.219126,160,134,1,21,14,19,4,4,1020,100,1,20141129180000
1135,"Zhaoxian EPA, Shijiazhuang",,37.77171,114.775957,171,121,1,19,14,20,4,4,1020,100,1,20141129180000
1136,"Gaoyi County City Hall, Shijiazhuang",,37.623535,114.612729,197,218,1,31,45,39,4,4,1020,100,1,20141129180000
1137,"Zanhuang County City Hall, Shijiazhuang",,37.672898,114.398269,312,418,1,28,32,42,4,4,1020,100,1,20141129180000
1138,"Jingxing Bureau of Meteorology, Shijiazhuang",,38.038788,114.158406,431,496,1,52,60,45,4,4,1020,100,1,20141129180000
1139,"Pingshan Ye River, Shijiazhuang",,38.266657,114.210275,357,446,1,30,24,35,4,4,1020,100,1,20141129180000
420,Shijiazhuang,,38.042926,114.520834,165,75,1,19,20,14,4,4,1020,100,1,20141129180000
421,"No. 12 middle school, Tangshan",,39.659306,118.190271,,,,,,,-,-,0,-,-,20141129180000
422,"Ceramics Company, Tangshan",,39.669255,118.225185,321,223,12,41,36,34,5,4,1019,93,3,20141129180000
423,"Commodities Bureau, Tangshan",,39.642301,118.191265,247,180,12,51,39,24,5,4,1019,93,3,20141129180000
424,"Leidazhanzi Station, Tangshan",,39.644375,118.150383,279,183,10,43,28,29,5,4,1019,93,3,20141129180000
425,"Supply and marketing cooperatives, Tangshan",,39.632334,118.17232,268,168,16,41,37,30,5,4,1019,93,3,20141129180000
1140,"Guye District City Hall, Tangshan",,39.741379,118.460246,252,146,2,47,54,30,5,4,1019,93,3,20141129180000
1141,"Kaiping Stations, Tangshan",,39.675246,118.275149,232,141,3,46,54,29,6,4,1020,87,3,20141129180000
1142,"Fengnan District City Hall, Tangshan",,39.5834,118.097454,278,197,2,38,22,27,5,4,1019,93,3,20141129180000
1143,"Fengrun City Hall, Tangshan",,39.840355,118.175338,278,146,3,33,25,26,5,4,1019,93,3,20141129180000
1144,"Qianxi EPA, Tangshan",,40.153339,118.317265,224,138,4,36,29,31,6,4,1020,87,3,20141129180000
1145,"Caofeidian Xinli  Primary School, Tangshan",,39.291232,118.462182,261,170,4,42,25,8,5,4,1019,93,3,20141129180000
1146,"Zunhua EPA, Tangshan",,40.206249,117.997315,318,187,3,37,23,29,5,4,1019,93,3,20141129180000
1147,"Qianan No.1 middle school, Tangshan",,40.004248,118.717055,297,243,3,33,27,39,5,4,1019,93,3,20141129180000
1266,"Luannan County , Tangshan",,39.511132,118.686928,253,173,3,47,54,37,5,4,1019,93,3,20141129180000
1267,"Yutian County , Tangshan",,39.908249,117.751417,249,126,1,32,19,31,5,4,1019,93,3,20141129180000
426,Tangshan,,39.632175,118.186472,247,180,12,51,39,24,-,-,0,-,-,20141129180000
427,"City Monitoring Station, Qinhuangdao",,39.958109,119.607773,200,126,7,35,46,42,,,0,,,20141129180000
428,"Beidaihe, Qinhuangdao",,39.829209,119.53194,179,114,5,38,59,60,,,0,,,20141129180000
429,"Shanhai Pass, Qinhuangdao",,40.019298,119.767898,198,123,1,44,41,46,,,0,,,20141129180000
430,"Contruction Plazz, Qinhuangdao",,39.943187,119.542912,173,136,6,28,33,25,,,0,,,20141129180000
431,"City government, Qinhuangdao",,39.93711,119.612769,203,124,8,19,2,25,,,0,,,20141129180000
1148,"Qinglong EPA, Qinhuangdao",,40.419223,118.958002,187,109,15,14,16,20,,,0,,,20141129180000
1149,"Changli EPA, Qinhuangdao",,39.714369,119.173237,223,161,5,48,41,39,,,0,,,20141129180000
1268,"Lulong County Bureau of Meteorology , Qinhuangdao",,39.901091,118.904857,286,181,5,40,53,36,,,0,,,20141129180000
432,Qinhuangdao,,39.936485,119.606263,203,124,8,19,2,25,,,0,,,20141129180000
433,"CongTai Park, Handan",,36.620197,114.501891,169,77,9,9,18,7,,,0,,,20141129180000
434,"City EPA, Handan",,36.618145,114.518822,178,83,14,30,15,20,,,0,,,20141129180000
435,"East Sewage Factory, Handan",,36.616064,114.548714,158,84,10,6,13,9,,,0,,,20141129180000
436,"Mine Hospital, Handan",,36.578149,114.509854,173,83,12,11,12,5,,,0,,,20141129180000
1150,"Fengfeng mine Inland Revenue Department, Handan",,36.423085,114.245994,189,180,2,21,47,30,,,0,,,20141129180000
1151,"Shexian EPA, Handan",,36.589084,113.692341,252,154,6,34,20,61,,,0,,,20141129180000
1152,"Ci County Vocational Education Center, Handan",,36.380247,114.390119,179,144,5,27,6,15,,,0,,,20141129180000
1153,"Yongnian government guesthouse, Handan",,36.783297,114.502905,171,100,1,28,11,13,,,0,,,20141129180000
1154,"Wuan BDA, Handan",,36.686223,114.269009,173,103,1,18,21,25,,,0,,,20141129180000
1085,Handan,,36.625683,114.544812,158,84,10,6,13,9,,,0,,,20141129180000
437,"Road and Bridge Corporation, Xingtai",,37.096415,114.538799,188,116,3,31,19,17,5,5,1020,100,1,20141129180000
438,"Dahuo fontain, Xingtai",,37.097563,114.488001,188,120,3,33,24,29,5,5,1020,100,1,20141129180000
439,"Xingtai Normal College, Xingtai",,37.053404,114.531819,164,125,2,29,26,25,5,5,1020,100,1,20141129180000
440,"Environment protection office, Xingtai",,37.06253,114.490985,199,142,4,25,34,25,5,5,1020,100,1,20141129180000
1155,"Cultural centers within the mound, Xingtai",,37.293569,114.524873,238,219,1,30,40,22,5,5,1020,100,1,20141129180000
383,Xingtai,,37.071066,114.510749,199,142,4,25,34,25,5,5,1020,100,1,20141129180000
441,"City Monitoring Station, Baoding",,38.871737,115.527103,198,120,11,27,43,33,4,4,1020,96,1,20141129180000
442,"Surface water Company, Baoding",,38.842891,115.467326,225,137,3,54,39,35,4,4,1020,96,1,20141129180000
443,"Huadian II, Baoding",,38.896748,115.528102,191,150,5,22,36,56,4,4,1020,96,1,20141129180000
444,"Reception Center, Baoding",,38.911905,115.477301,212,153,6,32,23,28,4,4,1020,96,1,20141129180000
445,"Film Factory, Baoding",,38.876949,115.448383,209,156,2,32,34,39,4,4,1020,96,1,20141129180000
446,"Natatorium, Baoding",,38.863815,115.499212,207,176,4,33,50,33,4,4,1020,96,1,20141129180000
1156,"Qingyuan City Hall, Baoding",,38.771758,115.502189,256,223,-,32,41,28,4,4,1020,96,1,20141129180000
1157,"Xushui EPA, Baoding",,39.025781,115.668023,249,159,1,24,16,33,4,4,1020,96,1,20141129180000
1158,"Zhouzhou Monitoring Stations, Baoding",,39.493241,116.040187,252,243,2,35,50,30,4,4,1020,96,1,20141129180000
1159,"Gaobeidian EPA, Baoding",,39.3329,115.885891,197,148,2,26,35,25,4,4,1020,96,1,20141129180000
447,Baoding,,38.874791,115.471124,209,156,2,32,34,39,4,4,1020,96,1,20141129180000
448,"Century Compound, Zhangjiakou",,40.770279,114.909106,13,40,15,12,10,34,2,-11,1023,24,4,20141129180000
449,"North Pumping Station, Zhangjiakou",,40.874362,114.910119,30,6,16,2,15,29,2,-11,1023,24,4,20141129180000
450,"Hardware Warehouse, Zhangjiakou",,40.81232,114.887119,72,53,15,11,19,37,2,-11,1023,24,4,20141129180000
451,"Tanji Chang, Zhangjiakou",,40.796301,114.89811,17,26,17,5,18,28,2,-11,1023,24,4,20141129180000
1160,"Xiahuayuan EPA, Zhangjiakou",,40.509345,115.302442,198,159,1,37,72,17,2,-11,1023,24,4,20141129180000
1161,"Huaian EPA, Zhangjiakou",,40.68157,114.398646,82,40,10,2,1,17,2,-11,1023,24,4,20141129180000
1162,"Huailai Fuqian Primary School, Zhangjiakou",,40.422204,115.530285,200,148,1,41,29,23,2,-11,1023,24,4,20141129180000
1269,"Zhangbei EPA , Zhangjiakou",,41.166775,114.732369,72,51,19,3,6,6,2,-11,1023,24,4,20141129180000
1270,"Kangbao County Environmental Protection Agency , Zhangjiakou",,41.837866,114.591246,55,38,40,1,1,1,2,-11,1023,24,4,20141129180000
1271,"Guyuan County welfare , Zhangjiakou",,41.669984,115.687401,91,42,18,3,5,8,2,-11,1023,24,4,20141129180000
1272,"Shangyi County Environmental Protection Bureau , Zhangjiakou",,41.086638,113.984688,74,52,26,3,9,9,2,-11,1023,24,4,20141129180000
1273,"Yuxian Secondary School , Zhangjiakou",,39.84699,114.601986,173,101,5,24,4,15,2,-11,1023,24,4,20141129180000
1274,"Yang County Vocational Education Center , Zhangjiakou",,40.106343,114.134732,174,104,4,26,33,20,2,-11,1023,24,4,20141129180000
1275,"Wan county Environmental Protection Agency , Zhangjiakou",,40.770459,114.75033,80,51,9,7,9,17,2,-11,1023,24,4,20141129180000
472,"Fukang road, Tianjin",,39.098136,117.157621,279,168,2,37,57,19,5,4,1019,93,3,20141129180000
1276,"Zhuolu County Environmental Protection Agency , Zhangjiakou",,40.374273,115.221393,229,150,3,12,40,29,2,-11,1023,24,4,20141129180000
452,Zhangjiakou,,40.825744,114.893659,30,44,17,2,15,27,2,-11,1023,24,4,20141129180000
453,"Railway, Chengde",,40.917557,117.972331,176,123,7,34,55,22,2,-5,1021,51,1,20141129180000
454,"Cultural Center, Chengde",,40.974625,117.824437,192,173,3,36,52,40,2,-5,1021,51,1,20141129180000
455,"Bank of China, Chengde",,40.985582,117.958304,209,134,12,31,28,23,2,-5,1021,51,1,20141129180000
456,"BDA, Chengde",,40.937567,117.969325,191,183,2,37,39,24,2,-5,1021,51,1,20141129180000
457,"Ligong, Chengde",,41.012579,117.94428,175,121,14,32,37,19,2,-5,1021,51,1,20141129180000
1163,"Chengde County EPA, Chengde",,40.776643,118.17646,180,106,1,39,49,23,2,-5,1021,51,1,20141129180000
1164,"Xinglong County City Hall, Chengde",,40.424301,117.513488,178,97,15,24,8,18,2,-5,1021,51,1,20141129180000
1165,"Luanping EPA, Chengde",,40.950792,117.350715,176,89,12,25,13,16,2,-5,1021,51,1,20141129180000
1166,"Fengning County City Hall, Chengde",,41.216739,116.658037,188,115,3,20,21,29,2,-5,1021,51,1,20141129180000
1277,"Longhua EPA , Chengde",,41.311956,117.739605,205,112,5,31,16,27,2,-5,1021,51,1,20141129180000
458,Chengde,,40.955652,117.968737,191,183,2,37,39,24,2,-5,1021,51,1,20141129180000
459,"Municipal EPB, Cangzhou",,38.323507,116.876746,192,142,4,27,40,18,5,4,1019,93,3,20141129180000
460,"Cangxian Urban Construction Bureau, Cangzhou",,38.299495,116.890734,213,102,4,30,11,31,5,4,1019,93,3,20141129180000
461,"TV Broadcast Station, Cangzhou",,38.325525,116.863761,192,116,5,9,35,24,5,4,1019,93,3,20141129180000
1167,"Qing County City Hall, Cangzhou",,38.589643,116.815876,196,101,1,17,37,22,5,4,1019,93,3,20141129180000
1168,"Poyoushi City Hall, Cangzhou",,38.089516,116.590575,189,138,1,24,12,26,5,4,1019,93,3,20141129180000
1169,"Huanghua Finance Bureau Training Center, Cangzhou",,38.377793,117.343356,199,121,1,30,48,8,5,4,1019,93,3,20141129180000
462,Cangzhou,,38.305035,116.844625,192,116,5,9,35,24,5,4,1019,93,3,20141129180000
463,"Environmental Monitoring Supervision Center, Langfang",,39.558157,116.720995,199,184,7,33,21,24,5,4,1019,93,3,20141129180000
464,"TCM Medical Material Company, Langfang",,39.519096,116.689914,204,246,7,30,25,29,5,4,1019,93,3,20141129180000
465,"BDA, Langfang",,39.576175,116.779041,250,194,4,33,28,28,5,4,1019,93,3,20141129180000
466,"North China Institute of Aerospace, Langfang",,39.53517,116.743027,220,180,3,27,24,30,5,4,1019,93,3,20141129180000
1170,"Guan Party School, Langfang",,39.446185,116.311026,236,174,2,37,14,21,5,4,1019,93,3,20141129180000
1171,"Xianghe EPA, Langfang",,39.76725,117.015252,228,169,3,33,22,30,5,4,1019,93,3,20141129180000
1172,"Wenan County EPA, Langfang",,38.880927,116.47001,198,151,4,26,16,21,5,4,1019,93,3,20141129180000
1173,"Three Rivers Department of Transportation, Langfang",,39.989419,117.091528,206,161,2,28,30,24,5,4,1019,93,3,20141129180000
1278,"Yongqing EPA , Langfang",,39.329071,116.510917,184,200,3,24,10,17,5,4,1019,93,3,20141129180000
1279,"Dacheng EPA, Langfang",,38.712628,116.665751,244,162,3,38,34,25,5,4,1019,93,3,20141129180000
467,Langfang,,39.539148,116.689668,204,246,7,30,25,29,5,4,1019,93,3,20141129180000
468,"Hengshui City EPB, Hengshui",,37.739679,115.695929,224,139,14,28,9,25,4,3,0,94,3,20141129180000
469,"Environmental Monitoring Station, Hengshui",,37.738593,115.648837,239,183,8,33,21,21,4,3,0,94,3,20141129180000
470,"Electrical Machine North Factory, Hengshui",,37.758686,115.70094,196,148,19,10,17,20,4,3,0,94,3,20141129180000
1174,"Anping EPA, Hengshui",,38.238559,115.537988,191,143,1,26,30,17,4,3,0,94,3,20141129180000
1175,"Jizhou EPA, Hengshui",,37.548552,115.58679,222,152,2,24,15,20,4,3,0,94,3,20141129180000
1280,"Zaoqiang EPA, Hengshui",,37.520698,115.714936,257,245,20,22,12,22,4,3,0,94,3,20141129180000
1281,"Wuyi EPA, Hengshui",,37.801554,115.898697,234,184,1,25,24,23,4,3,0,94,3,20141129180000
1282,"Wuqiang EPA , Hengshui",,38.03557,115.959767,231,175,11,31,17,35,4,3,0,94,3,20141129180000
1283,"Raoyang EPA , Hengshui",,38.230652,115.741041,204,162,2,29,16,22,4,3,0,94,3,20141129180000
1284,"Gucheng County , Hengshui",,37.347569,115.966707,215,116,2,28,37,18,4,3,0,94,3,20141129180000
471,Hengshui,,37.739562,115.676066,196,148,19,10,17,20,4,3,0,94,3,20141129180000
1176,"Xinji City Hall, Xinji",,37.949711,115.230084,214,199,1,11,25,18,4,3,0,94,3,20141129180000
473,"Nankou road, Tianjin",,39.174022,117.199688,254,141,7,36,38,18,5,4,1019,93,3,20141129180000
474,"Qinjian street, Tianjin",,39.166588,117.15104,263,148,5,36,45,35,5,4,1019,93,3,20141129180000
475,"Nanjing Road, Tianjin",,39.120958,117.195112,295,172,2,38,55,29,5,4,1019,93,3,20141129180000
476,"Dazhigu No.8 road, Tianjin",,39.111811,117.25147,259,180,7,41,56,16,5,4,1019,93,3,20141129180000
477,"Qianjin street, Tianjin",,39.09371,117.207981,282,176,9,43,63,20,5,4,1019,93,3,20141129180000
478,"Huaihe street, Tianjin",,39.227167,117.191293,246,125,3,23,18,20,5,4,1019,93,3,20141129180000
479,"Xiangshan street, Tianjin",,39.134752,117.275125,256,129,11,21,19,28,5,4,1019,93,3,20141129180000
480,"Yuejin Road, Tianjin",,39.088177,117.320884,210,168,5,41,41,19,5,4,1019,93,3,20141129180000
481,"Zhujiang street, Tianjin",,39.064463,117.231268,-,-,-,-,-,-,-,-,0,-,-,20141129180000
482,"No.4 street, Tianjin",,39.035228,117.713424,202,108,15,37,39,20,5,4,1019,93,3,20141129180000
483,"Yongming road, Tianjin",,38.840392,117.463805,201,104,9,35,28,27,5,4,1019,93,3,20141129180000
484,"Xinhua street, Tianjin",,39.138671,117.010083,238,127,2,35,51,35,5,4,1019,93,3,20141129180000
485,"Jingu Road, Tianjin",,38.985659,117.381254,203,100,3,39,43,22,5,4,1019,93,3,20141129180000
486,"Tanggu Yingkou street, Tianjin",,39.021768,117.656454,179,87,3,40,29,18,5,4,1019,93,3,20141129180000
487,"Hexi Yijing road, Tianjin",,39.248392,117.798043,255,130,6,22,19,24,5,4,1019,93,3,20141129180000
488,"Jianshe Road, Tianjin",,39.720075,117.310588,238,146,-,41,17,48,5,4,1019,93,3,20141129180000
489,"Quanzhou South road, Tianjin",,39.373857,117.050329,197,98,3,34,36,25,5,4,1019,93,3,20141129180000
490,"Donghuan road, Tianjin",,40.043144,117.451062,187,97,2,24,16,36,5,4,1019,93,3,20141129180000
491,"Tuanpowa, Tianjin",,38.920418,117.16299,250,133,4,37,22,22,5,4,1019,93,3,20141129180000
493,"Beiwei No.2 road, Tianjin",,38.943857,116.920624,224,125,2,20,30,36,5,4,1019,93,3,20141129180000
494,"Haitai fazhan No.2 road, Tianjin",,39.079608,117.096583,227,126,3,32,27,21,5,4,1019,93,3,20141129180000
495,"Hangtian road, Tianjin",,39.152244,117.381309,232,144,6,39,27,15,5,4,1019,93,3,20141129180000
496,"Hanbei road, Tianjin",,39.159768,117.770477,226,149,4,29,13,37,5,4,1019,93,3,20141129180000
497,"Baobai highway, Tianjin",,39.51757,117.349635,267,218,4,40,14,34,5,4,1019,93,3,20141129180000
498,Tianjin,,39.085164,117.207281,282,176,9,43,63,20,5,4,1019,93,3,20141129180000
499,"Wolong bridge, Hangzhou",,30.24371,120.132762,117,57,4,20,4,14,15,12,1013,82,2,20141129180000
500,"Hemu primary school, Hangzhou",,30.309669,120.124507,154,59,15,22,3,18,15,12,1013,82,2,20141129180000
501,"Zhejiang Agricultural University, Hangzhou",,30.265601,120.197583,152,71,15,23,5,19,15,12,1013,82,2,20141129180000
502,"Xiasha, Hangzhou",,30.303516,120.352618,163,77,19,32,7,17,15,12,1013,82,2,20141129180000
503,"Yunqi, Hangzhou",,30.178555,120.093142,107,65,10,17,4,12,15,12,1013,82,2,20141129180000
504,"Xixi, Hangzhou",,30.272425,120.068144,129,61,6,22,5,15,15,12,1013,82,2,20141129180000
505,"Chengxiang town, Hangzhou",,30.179493,120.274184,158,66,13,28,17,16,15,12,1013,82,2,20141129180000
506,"Qiandao lake, Hangzhou",,29.638139,119.031092,95,33,16,6,3,10,15,12,1013,82,2,20141129180000
507,"Linping town, Hangzhou",,30.415948,120.305059,169,63,17,28,13,19,15,12,1013,82,2,20141129180000
508,"Fuyang monitoring station, Hangzhou",,30.048419,119.963469,160,82,29,25,10,18,14,12,1012,88,3,20141129180000
509,"No.2 Middle School, Hangzhou",,30.044303,119.956356,154,78,15,15,6,19,15,12,1013,82,2,20141129180000
510,"City Hall, Hangzhou",,30.234185,119.723503,122,64,39,14,11,17,14,12,1012,88,3,20141129180000
511,"No. 4 middle school, Hangzhou",,30.229428,119.699591,99,58,3,23,6,16,14,12,1012,88,3,20141129180000
512,Hangzhou,,30.271756,120.159765,161,76,5,25,5,21,15,12,1013,82,2,20141129180000
513,"City Station, Wenzhou",,28.009715,120.679129,97,39,17,20,5,15,18,17,0,94,2,20141129180000
514,"Ouhai, Wenzhou",,28.001846,120.641982,95,37,17,24,6,9,18,17,0,94,2,20141129180000
515,"Longwan, Wenzhou",,27.968122,120.768393,107,52,15,22,4,15,18,17,0,94,2,20141129180000
516,"Nanpu, Wenzhou",,27.981763,120.683685,109,51,14,23,6,21,18,17,0,94,2,20141129180000
517,Wenzhou,,27.990985,120.703425,109,51,14,23,6,21,18,17,0,94,2,20141129180000
518,"Monitoring station, Jiaxing",,30.75437,120.767373,156,71,26,23,18,10,18,17,1012,94,4,20141129180000
519,"Jiaxing University, Jiaxing",,30.745099,120.735004,172,95,18,32,12,9,18,17,1012,94,4,20141129180000
520,"Qinghe Primary School, Jiaxing",,30.775685,120.747969,155,85,19,34,11,9,18,17,1012,94,4,20141129180000
521,Jiaxing,,30.751627,120.762862,156,71,26,23,18,10,18,17,1012,94,4,20141129180000
522,"Chengbei water plant, Huzhou",,30.891155,120.096593,152,64,13,31,9,15,18,17,1011,94,5,20141129180000
523,"Jishan new village, Huzhou",,30.859939,120.120168,163,72,14,30,7,17,18,17,1011,94,5,20141129180000
524,"Town west water plant, Huzhou",,30.862371,120.084577,168,76,13,30,8,13,18,17,1011,94,5,20141129180000
526,"Donghu middle school, Shaoxing",,29.990447,120.647547,159,78,9,25,21,14,15,12,1013,82,2,20141129180000
527,"City EPA station, Shaoxing",,30.001695,120.584318,173,84,28,28,30,11,14,12,1012,88,3,20141129180000
528,"Chengdong BDA committee, Shaoxing",,29.986643,120.613578,167,81,28,24,17,15,14,12,1012,88,3,20141129180000
529,"Paojiang station, Shaoxing",,30.07574,120.62154,195,137,32,29,46,15,15,12,1013,82,2,20141129180000
530,"Shaoxing technical school, Shaoxing",,29.930983,120.577131,139,59,9,17,9,11,15,12,1013,82,2,20141129180000
531,"Library, Shaoxing",,29.706266,120.253183,169,81,16,14,1,24,14,12,1012,88,3,20141129180000
532,"Transporation management station, Shaoxing",,29.726405,120.221602,168,98,28,22,7,19,14,12,1012,88,3,20141129180000
533,"Dongpu Town Governement, Shaoxing",,30.049601,120.539893,192,126,5,22,30,14,15,12,1013,82,2,20141129180000
534,Shaoxing,,29.993122,120.590182,173,84,28,28,30,11,-,-,0,-,-,20141129180000
535,"City Monitoring Station, Jinhua",,29.100031,119.690373,153,68,38,32,15,13,16,15,0,96,1,20141129180000
536,"No.15 middle school, Jinhua",,29.074022,119.652121,154,83,25,27,8,15,16,15,0,96,1,20141129180000
537,"No.4 middle school, Jinhua",,29.110109,119.653654,152,75,37,25,20,15,16,15,0,96,1,20141129180000
538,"Beiyuan, Jinhua",,29.332898,120.083351,109,53,19,17,27,11,16,15,0,96,1,20141129180000
539,"Jiangdong, Jinhua",,29.302486,120.095291,144,54,23,15,16,21,16,15,0,96,1,20141129180000
540,Jinhua,,29.076083,119.65215,154,83,25,27,8,15,16,15,0,96,1,20141129180000
541,"EPA building, Quzhou",,28.937291,118.876081,152,78,17,16,7,18,15,15,1014,100,1,20141129180000
542,"Experimental school, Quzhou",,28.961502,118.880916,158,76,41,31,9,20,15,15,1014,100,1,20141129180000
543,"Quzhou University, Quzhou",,28.971452,118.860052,161,75,24,20,10,20,15,15,1014,100,1,20141129180000
544,Quzhou,,28.966994,118.864252,161,89,24,20,10,20,15,15,1014,100,1,20141129180000
545,"Putuo east port, Zhoushan",,29.951412,122.317679,42,26,37,8,2,5,19,18,1012,94,5,20141129180000
546,"Dinghai tanfeng, Zhoushan",,30.018014,122.126566,38,24,38,6,3,5,19,18,1012,94,5,20141129180000
547,Zhoushan,,29.983049,122.210763,46,28,32,8,2,5,18,17,1011,94,2,20141129180000
548,"Taizhou EPA building, Taizhou",,28.651216,121.42331,82,38,16,13,3,9,18,17,0,97,1,20141129180000
549,"Luqiao Tian Yang Wang, Taizhou",,28.574364,121.381194,99,54,17,10,2,11,18,17,0,97,1,20141129180000
550,"Huangyan EPA building, Taizhou",,28.656151,121.285064,89,37,8,12,3,10,18,17,0,97,1,20141129180000
551,"Yu Zhuang Qian, Lishui",,28.419638,119.883884,72,34,34,28,8,8,19,17,1015,83,1,20141129180000
552,"Monitoring station building, Lishui",,28.444379,119.923103,68,20,29,16,4,8,19,17,1015,83,1,20141129180000
553,"Liandu primary school, Lishui",,28.450912,119.939332,70,28,36,17,2,10,19,17,1015,83,1,20141129180000
554,Lishui,,28.464224,119.927201,68,20,29,16,4,8,19,17,1015,83,1,20141129180000
1248,Jingningxian,,27.977454,119.634837,57,22,2,15,2,8,,,,,,20141129180000
555,Taigu Primary School,,29.864178,121.60022,61,19,16,8,3,8,18,17,1011,94,2,20141129180000
556,Qianhu shuihan,,29.862459,121.5328,57,27,8,12,6,10,18,17,1011,94,2,20141129180000
557,Sanjiang secondary schools,,29.891563,121.568427,61,28,9,24,5,10,18,17,1011,94,2,20141129180000
558,Longsai Hospital,,29.957301,121.726734,65,23,21,23,8,10,18,17,1011,94,2,20141129180000
559,Beilun District EPB,,29.911633,121.850773,42,18,27,4,2,6,18,17,1011,94,2,20141129180000
560,Wanli University,,29.821314,121.574364,13,9,24,6,2,8,18,17,1011,94,2,20141129180000
561,Qianhu water plant,,29.774416,121.648136,53,25,28,7,4,6,18,17,1011,94,2,20141129180000
562,Municipal management station,,29.899182,121.626691,46,32,20,9,3,10,18,17,1011,94,2,20141129180000
1177,Daxie Literary Museum,,29.9027,121.986447,57,20,35,5,3,5,18,17,1011,94,2,20141129180000
1178,Cixi EPB,,30.165807,121.248991,89,50,22,11,6,8,18,17,1011,94,2,20141129180000
1179,Cixi Experimently Primary School,,30.179808,121.268672,109,57,21,15,7,9,18,17,1011,94,2,20141129180000
1180,"Yongsan Park, Yuyao",,30.050842,121.162477,91,44,17,23,5,9,18,17,1011,94,2,20141129180000
1181,"Qilupu Water Company, Yuyao",,30.039112,121.133416,91,65,15,17,9,9,18,17,1011,94,2,20141129180000
1182,Fenghua EPB,,29.666557,121.42069,25,12,27,8,4,8,18,17,1011,94,2,20141129180000
1183,"Yuelong station, Ninghai",,29.296505,121.445872,61,26,13,12,4,8,18,17,1011,94,2,20141129180000
1184,"Wenfeng Primary School, Xiangshan",,29.470908,121.889544,34,21,9,6,3,7,18,17,1011,94,2,20141129180000
1185,"Chengnan Primary School, Ninghai",,29.293812,121.43666,68,25,17,8,4,9,18,17,1011,94,2,20141129180000
1186,"Xingang Primary School, Xiangshan",,29.203878,121.952514,72,32,13,9,5,8,18,17,1011,94,2,20141129180000
1356,Haishu City Monitoring Center,,29.86835,121.539341,57,26,7,21,5,10,18,17,1011,94,2,20141129180000
1357,Fenghua Xikou government,,29.693164,121.29331,25,10,13,13,2,10,18,17,1011,94,2,20141129180000
1294,Ningbo,,29.865766,121.548164,46,32,20,9,3,10,18,17,1011,94,2,20141129180000
1187,Fuyang,,30.046157,119.96468,160,82,29,25,10,18,-,-,0,-,-,20141129180000
1188,Yiwu,,29.304353,120.079794,144,54,23,17,27,21,-,-,0,-,-,20141129180000
1189,Zhuji,,29.711185,120.240748,169,98,28,22,7,24,14,12,1012,88,3,20141129180000
563,"Shanxi Road , Nanjing",,32.06795,118.779216,55,45,15,28,2,0,13,12,1014,94,2,20141129180000
564,"Ruijin Road , Nanjing",,32.029321,118.80817,57,28,8,25,3,0,13,12,1014,94,2,20141129180000
565,"Xuanwu Lake, Nanjing",,32.075423,118.800188,53,31,15,28,3,0,13,12,1014,94,2,20141129180000
566,"Olympic Center, Nanjing",,32.007171,118.742217,59,49,9,15,2,0,13,12,1014,94,2,20141129180000
567,"Xianlin University Town , Nanjing",,32.106958,118.919882,38,53,14,29,3,0,13,12,1014,94,2,20141129180000
568,Nanjing,,32.058179,118.802061,65,61,14,27,4,0,13,12,1014,94,2,20141129180000
569,"Shangfang hill , Suzhou",,31.24502,120.565211,147,60,18,24,10,0,18,17,1012,94,4,20141129180000
570,"Wuzhong District , Suzhou",,31.268105,120.61717,117,45,26,25,9,0,18,17,1012,94,4,20141129180000
571,"Suzhou New District , Suzhou",,31.297277,120.547262,155,71,15,31,18,0,18,17,1012,94,4,20141129180000
572,"Suzhou Industrial Area, Suzhou",,31.307603,120.673257,119,50,24,24,9,0,18,17,1012,94,4,20141129180000
573,"Xiangcheng district, Suzhou",,31.368674,120.645209,99,53,21,23,11,0,18,17,1012,94,4,20141129180000
574,Suzhou,,31.296701,120.589493,155,71,26,31,18,0,18,17,1012,94,4,20141129180000
575,"South suburb , Nantong",,31.957836,120.917218,109,35,31,13,8,0,15,15,0,96,5,20141129180000
576,"Xinghu park, Nantong",,31.927873,120.944254,95,37,31,15,11,0,15,15,0,96,5,20141129180000
577,"Zilang school, Nantong",,32.039638,120.814358,78,32,28,26,12,0,15,15,0,96,5,20141129180000
578,Nantong,,31.978005,120.898555,109,40,31,26,16,0,15,15,0,96,5,20141129180000
579,Lianyungang,,34.595509,119.226814,152,84,21,27,10,7,8,8,1016,96,0,20141129180000
580,"Hongmen police substation, Lianyungang",,34.588692,119.146693,46,17,38,4,6,0,11,10,1015,94,6,20141129180000
581,"Xugou Nuclear Expert Village , Lianyungang",,34.749957,119.373707,34,18,39,2,3,0,11,10,1015,94,6,20141129180000
582,"Hengrui pharmaceutical company, BDA, Lianyungang",,34.697574,119.353668,25,16,43,6,4,0,11,10,1015,94,6,20141129180000
583,"City Monitoring Station, Lianyungang",,34.586791,119.186929,17,10,39,4,3,0,11,10,1015,94,6,20141129180000
584,"Yellow river new village , Xuzhou",,34.271542,117.177241,87,33,11,20,19,0,9,8,1016,95,2,20141129180000
585,"Tongshan Veterinary Hospital , Xuzhou",,34.307086,117.197766,87,35,11,20,11,0,9,8,1016,95,2,20141129180000
586,"New Town , Xuzhou",,34.213992,117.261718,59,53,19,16,9,0,9,8,1016,95,2,20141129190000
587,"Taoyuan road, Xuzhou",,34.289822,117.249721,89,40,16,19,13,0,9,8,1016,95,2,20141129190000
588,"Agricultural Science Academy , Xuzhou",,34.27655,117.299079,65,32,13,26,14,0,9,8,1016,95,2,20141129190000
589,"Tongshan EPA, Xuzhou",,34.179384,117.171798,74,40,14,16,18,0,9,8,1016,95,2,20141129190000
590,Xuzhou,,34.20346,117.289825,89,53,19,26,32,0,9,8,1016,95,2,20141129190000
591,Yangzhou,,32.39233,119.418446,159,69,10,19,10,5,11,9,0,90,6,20141129190000
592,"Hanjiang Monitoring Station, Yangzhou",,32.374218,119.394484,70,42,14,19,5,0,13,12,0,96,4,20141129190000
593,"No. 4 Hospital, Yangzhou",,32.401394,119.44444,65,48,21,24,12,0,13,12,0,96,4,20141129190000
594,"City Monitoring Station, Yangzhou",,32.406588,119.41591,63,40,17,17,17,0,13,12,0,96,4,20141129190000
595,"University Town , Wuxi",,31.484752,120.273571,165,84,18,22,4,0,18,17,1012,94,4,20141129190000
596,"Shibei High School , Wuxi",,31.619969,120.279584,156,70,12,25,12,0,18,17,1012,94,4,20141129190000
597,"Yuhong Elementary School , Wuxi",,31.561155,120.249588,152,70,14,22,9,0,18,17,1012,94,4,20141129190000
598,Wuxi,,31.488746,120.31575,173,85,18,27,12,0,-,-,0,-,-,20141129190000
599,Changzhou,,31.808037,119.979205,172,86,6,22,36,13,11,9,0,88,5,20141129190000
600,"Chengjian School, Changzhou",,31.776476,119.937681,129,52,13,29,7,0,14,13,0,94,5,20141129190000
601,"Changzhou Engineering Institute , Changzhou",,31.806828,119.966724,151,57,17,26,9,0,14,13,0,94,5,20141129190000
602,"Wujin Monitoring Station, Changzhou",,31.701788,119.939676,154,63,17,22,9,0,14,13,0,94,5,20141129190000
603,"City Monitoring Station, Changzhou",,31.777201,119.979426,142,52,13,29,11,0,14,13,0,94,5,20141129190000
604,Zhenjiang,,32.18597,119.431281,170,79,4,39,15,13,9,8,0,93,5,20141129190000
638,Ezhou,,30.389244,114.899884,63,31,2,20,3,23,10,,1027,100,5,20141129190000
638,Ezhou,,30.389244,114.899884,63,31,2,20,3,23,10,,1027,100,5,20141129190000
605,"New District Administrative office , Zhenjiang",,32.186174,119.685021,104,50,21,26,7,0,13,12,1014,94,2,20141129190000
606,"Vocational Education Center , Zhenjiang",,32.212973,119.496253,91,50,19,33,4,0,13,12,1014,94,2,20141129190000
607,"Dantu Monitoring Station , Zhenjiang",,32.130026,119.435432,112,63,18,25,9,0,13,12,1014,94,2,20141129190000
608,"City Monitoring Station, Zhenjiang",,32.202178,119.439766,117,56,25,28,11,0,13,12,1014,94,2,20141129190000
609,"Gaogang Adminstrative office , Taizhoushi",,32.300768,119.886757,-,-,-,-,-,-,-,-,0,-,-,20141129190000
610,"Students Innovation Park , Taizhoushi",,32.461672,119.892761,72,47,26,15,14,0,13,12,0,96,4,20141129190000
611,Taizhoushi,,32.453555,119.927852,114,48,28,29,14,0,13,12,0,96,4,20141129190000
612,"Yancheng power station , Yancheng",,33.400859,120.123067,68,25,37,4,3,0,,,0,,,20141129190000
613,Yancheng,,33.345939,120.168504,144,52,30,5,3,7,11,10,1016,95,4,20141129190000
614,"Wenfeng Middle School , Yancheng",,33.370531,120.134041,68,12,33,11,9,0,,,0,,,20141129190000
615,"BDA Management Committe, Yancheng",,33.393191,120.22978,53,14,35,4,7,0,,,0,,,20141129190000
616,"City Monitoring Station, Yancheng",,33.390623,120.164423,70,22,34,2,3,0,,,0,,,20141129190000
617,Suqian,,33.960666,118.281004,160,87,24,7,5,7,11,10,0,91,6,20141129190000
618,"Suqian College , Suqian",,33.951472,118.298523,25,15,23,1,2,0,10,10,0,96,4,20141129190000
619,"Suqian Middle School , Suqian",,33.95784,118.249505,30,18,4,5,2,0,10,10,0,96,4,20141129190000
620,"Suyu District Environmental Protection Agency , Suqian",,33.94932,118.326569,13,8,28,6,3,0,10,10,0,96,4,20141129190000
621,"City Monitoring Station, Suqian",,33.956982,118.277022,59,28,15,4,2,0,10,10,0,96,4,20141129190000
622,Taizhou,,28.653436,121.425185,82,37,16,11,2,9,18,17,0,97,1,20141129190000
623,Donghu Liyuan,,30.572324,114.377844,70,12,1,24,2,19,9,9,1017,100,2,20141129190000
624,Yuehu Lake,,30.554662,114.256937,74,18,2,23,0,17,9,9,1017,100,2,20141129190000
625,Hankou Huaqiao ,,30.61724,114.287652,74,6,3,22,6,21,9,9,1017,100,2,20141129190000
626,Wuchang Ziyang ,,30.530801,114.309438,76,11,1,20,5,19,9,9,1017,100,2,20141129190000
627,Qingshan Ganghua,,30.622435,114.375599,89,12,1,25,7,20,9,9,1017,100,2,20141129190000
628,Dunkou Xinou,,30.480091,114.162176,70,14,2,20,5,22,9,9,1017,100,2,20141129190000
629,Donghu Gaoxin,,30.48095,114.40724,61,20,5,18,0,21,9,9,1017,100,2,20141129190000
630,Wujianshan,,30.63114,114.135907,74,10,2,16,2,21,9,9,1017,100,2,20141129190000
631,Yuanshun Road,,30.297142,113.858587,61,18,4,17,8,15,9,9,1017,100,2,20141129190000
632,Wuhan,,30.590689,114.310838,53,6,3,23,3,24,9,9,1017,100,2,20141129190000
1190,"Silingsan Factory, Yichang",,30.713288,111.306585,161,66,7,18,17,15,8,8,1019,95,2,20141129190000
1190,"Silingsan Factory, Yichang",,30.713288,111.306585,161,66,7,18,17,15,8,8,1019,95,2,20141129190000
633,Yichang,,30.689528,111.292131,170,79,14,18,21,17,8,8,1019,95,2,20141129190000
633,Yichang,,30.689528,111.292131,170,79,14,18,21,17,8,8,1019,95,2,20141129190000
1191,"City Library , Jingzhou",,30.31494,112.260844,159,71,9,14,10,15,9,7,1017,82,3,20141129190000
1191,"City Library , Jingzhou",,30.31494,112.260844,159,71,9,14,10,15,9,7,1017,82,3,20141129190000
1192,"City committee communist party school, Jingzhou",,30.349004,112.212531,152,57,13,13,12,14,9,7,1017,82,3,20141129190000
1192,"City committee communist party school, Jingzhou",,30.35054,112.20743,152,57,13,13,12,14,9,7,1017,82,3,20141129190000
1193,"kerong EPA, Jingzhou",,30.302965,112.29443,158,58,13,13,5,20,9,7,1017,82,3,20141129190000
1193,"kerong EPA, Jingzhou",,30.302965,112.29443,158,58,13,13,5,20,9,7,1017,82,3,20141129190000
634,Jingzhou,,30.332608,112.245451,159,71,13,14,12,20,9,7,1017,82,3,20141129190000
634,Jingzhou,,30.332608,112.245451,159,71,13,14,12,20,9,7,1017,82,3,20141129190000
635,Huangshi,,30.19723,115.043908,78,44,2,22,9,23,12,,1019,100,3,20141129190000
635,Huangshi,,30.19723,115.043908,78,44,2,22,9,23,12,,1019,100,3,20141129190000
1194,"Chenjiaying, Huangshi",,30.232823,115.067923,74,44,1,18,17,21,12,,1019,100,3,20141129190000
1195,"Chenjiawan , Huangshi",,30.200422,115.082138,76,49,4,25,13,27,12,,1019,100,3,20141129190000
1196,"Xinxialu, Huangshi",,30.17332,114.954357,89,51,2,21,3,27,12,,1019,100,3,20141129190000
1197,"Tie montian, Huangshi",,30.203885,114.906439,80,44,3,26,2,19,12,,1019,100,3,20141129190000
1198,"BDA, Huangshi",,30.207491,115.031739,68,33,2,23,8,21,12,,1019,100,3,20141129190000
636,Shiyan,,32.627208,110.803311,158,66,11,13,8,8,4,,,100,1,20141129190000
636,Shiyan,,32.627208,110.803311,158,66,11,13,8,8,4,,,100,1,20141129190000
1199,"Wudang Mountain , Shiyan",,32.392921,111.047655,-,-,-,-,-,-,-,,,-,-,20141129190000
1200,"Riverside Village , Shiyan",,32.647286,110.785335,167,68,6,20,8,4,4,,,100,1,20141129190000
1201,"Liujiagou , Shiyan",,32.636732,110.731129,155,64,21,9,12,8,4,,,100,1,20141129190000
637,Xiangyang,,32.007029,112.128496,162,68,3,22,21,16,4,,1020,94,1,20141129190000
637,Xiangyang,,32.007029,112.128496,162,68,3,22,21,16,4,,1020,94,1,20141129190000
1203,"City government, Ezhou",,30.391836,114.892822,63,27,2,22,5,21,10,,1027,100,5,20141129190000
1204,"Zhaojiaba, Ezhou",,30.368966,114.90365,68,37,2,19,2,26,10,,1027,100,5,20141129190000
1205,"Fankou BDA, Ezhou",,30.410759,114.818225,59,30,2,18,2,21,11,,1026,100,5,20141129190000
639,Jingmen,,31.033208,112.205093,139,54,11,11,10,13,6,,1013,98,2,20141129190000
639,Jingmen,,31.033208,112.205093,139,54,11,11,10,13,6,,1013,98,2,20141129190000
1372,"Zhuyuan primary school, Jingmen",,31.046123,112.207214,-,-,-,-,-,-,-,,0,-,-,20141129190000
1373,"City government, Jingmen",,31.035297,112.198897,144,57,9,9,10,12,6,,1013,98,2,20141129190000
640,Xiaogan,,30.922089,113.922387,50,30,3,14,3,17,9,,1017,100,2,20141129190000
640,Xiaogan,,30.922089,113.922387,50,30,3,14,3,17,9,,1017,100,2,20141129190000
1206,"wenhua street, Shenyang , Xiaogan",,30.925856,113.92104,-,-,-,-,-,-,-,,0,-,-,20141129190000
1207,"Dongcheng District , Huludao , Xiaogan",,30.917963,113.943904,50,30,3,14,3,17,9,,1017,100,2,20141129190000
641,Huanggang,,30.45124,114.877378,55,24,2,18,2,24,11,,1026,100,5,20141129190000
641,Huanggang,,30.45124,114.877378,55,24,2,18,2,24,11,,1026,100,5,20141129190000
1208,"Dazhou Island, Huanggang",,30.446205,114.900323,50,31,2,20,1,25,11,,1026,100,5,20141129190000
1209,"Workers Center , Huanggang",,30.469244,114.912504,57,16,1,16,3,23,11,,1026,100,5,20141129190000
642,Xianning,,29.838978,114.327898,68,31,2,19,6,19,11,,990,99,1,20141129190000
642,Xianning,,29.838978,114.327898,68,31,2,19,6,19,11,,990,99,1,20141129190000
1210,"Municipal Development and Reform Commission , Xianning",,29.818645,114.328461,68,31,2,17,2,19,11,,990,99,1,20141129190000
1211,"Xianan District Governement, Xianning",,29.51107,114.181864,72,29,5,17,11,18,10,,1000,100,2,20141129190000
1212,"Yangtze River Industrial Park , Xianning",,29.883098,114.32909,65,35,3,21,5,19,11,,990,99,1,20141129190000
1213,"Qianshan Park, Xianning",,29.815351,114.328689,70,32,3,22,5,21,11,,990,99,1,20141129190000
643,Suizhou,,31.688342,113.388675,85,30,3,9,3,28,5,,1014,97,2,20141129190000
643,Suizhou,,31.688342,113.388675,85,30,3,9,3,28,5,,1014,97,2,20141129190000
1338,"City committee communist party school, Suizhou",,31.725316,113.3648,82,31,4,12,1,26,5,,1014,97,2,20141129190000
1339,"Forestry Bureau, Suizhou",,31.690065,113.383157,89,27,3,6,6,33,5,,1014,97,2,20141129190000
644,Enshi,,30.292138,109.484562,107,51,3,6,8,5,7,,,99,1,20141129190000
644,Enshi,,30.269587,109.493042,107,51,3,6,8,5,7,,,99,1,20141129190000
1374,"State Power Company, Enshi",,30.296275,109.508711,99,51,2,1,13,5,7,,,99,1,20141129190000
645,Xiantao,,30.360228,113.460616,107,46,5,8,5,20,7,,1027,97,4,20141129190000
645,Xiantao,,30.360228,113.460616,107,46,5,8,5,20,7,,1027,97,4,20141129190000
1088,Shennongjia,,31.741307,110.685554,104,37,7,12,1,14,3,,,99,1,20141129190000
1088,Shennongjia,,31.741307,110.685554,104,37,7,12,1,14,3,,,99,1,20141129190000
1214,"Xiangcheng Yundong Street, Xiangfan",,32.017716,112.16102,161,66,3,25,20,15,4,,1020,94,1,20141129190000
1359,"Fancheng Xinhua Road , Xiangfan",,32.0544,112.145224,164,70,3,19,21,17,4,,1020,94,1,20141129190000
655,"City Environmental Monitoring Station, Baotou",,40.657201,109.886738,61,101,26,4,10,9,,,0,,,20141129190000
656,"Donghe EPB, Baotou",,40.586213,110.002224,85,159,16,5,10,16,,,0,,,20141129190000
657,"Baotou shopping mall, Baotou",,40.508334,109.819085,68,87,21,7,6,4,,,0,,,20141129190000
658,"Huilong logistics, Baotou",,40.633436,109.879821,74,98,25,6,10,6,,,0,,,20141129190000
659,Baotou,,40.658597,109.846051,183,159,28,10,12,16,,,0,,,20141129190000
660,"Huatai Automobile Mall, Eerduosi",,39.837048,109.972209,72,82,34,2,3,4,-3,-11,1027,40,3,20141129190000
661,"Olympus Garden, Eerduosi",,39.789171,109.987742,76,133,25,2,2,7,-3,-11,1027,40,3,20141129190000
662,Eerduosi,,39.609284,109.78704,89,145,31,5,4,7,-3,-11,1027,40,3,20141129190000
663,"Tianyi Road, Chifeng",,42.275552,118.88507,153,70,21,8,27,8,2,-7,1020,38,1,20141129190000
664,"Songshan No.1 Middle School, Chifeng",,42.329307,118.793045,169,101,11,30,32,21,2,-7,1020,38,1,20141129190000
665,"Hada Street, Chifeng",,42.280714,118.988235,160,80,14,11,11,5,2,-7,1020,38,1,20141129190000
666,"Songshan Road, Chifeng",,42.171487,118.89501,185,148,14,16,33,16,2,-7,1020,38,1,20141129190000
667,Chifeng,,42.259752,118.893027,185,148,21,30,33,21,2,-7,1020,38,1,20141129190000
736,Xinzhou,,38.417244,112.740742,285,320,7,22,64,34,3,-2,1019,70,1,20141129190000
674,Fuzhou,,26.071406,119.301294,104,70,13,24,2,14,20,19,1013,94,1,20141129190000
675,"Xidong, Xiamen",,24.815345,118.161848,70,32,11,10,1,5,22,21,1014,94,1,20141129190000
676,"Hongwen, Xiamen",,24.473969,118.156281,89,35,25,14,11,11,22,21,1014,94,1,20141129190000
677,"Gulangyu, Xiamen",,24.443168,118.068571,93,39,25,13,8,10,22,21,1014,94,1,20141129190000
678,"Huli, Xiamen",,24.51235,118.099146,139,56,19,22,7,9,22,21,1014,94,1,20141129190000
679,Xiamen,,24.477187,118.094402,139,56,19,22,7,9,-,-,0,-,-,20141129190000
680,"Qingyuan Montain, Quanzhou",,24.939503,118.598337,61,25,21,4,2,7,22,21,1014,94,1,20141129190000
681,"Tushan Street, Quanzhou",,24.90867,118.586397,95,53,23,13,4,11,22,21,1014,94,1,20141129190000
682,"Wanan, Quanzhou",,24.304154,118.070903,99,45,14,17,6,1,22,21,1014,94,1,20141129190000
683,Quanzhou,,24.87179,118.68001,127,53,23,19,6,11,22,21,1014,94,1,20141129190000
687,"Jiancaoping, Taiyuan",,37.887889,112.528383,165,84,5,18,49,18,3,-2,1019,70,1,20141129190000
688,"Jianhe, Taiyuan",,37.910779,112.579258,174,114,7,5,42,24,3,-2,1019,70,1,20141129190000
689,"Shanglan, Taiyuan",,38.011589,112.440679,175,92,8,33,54,22,3,-2,1019,70,1,20141129190000
690,"Jinyuan, Taiyuan",,37.713164,112.475552,270,164,36,27,94,35,3,-2,1019,70,1,20141129190000
691,"Xiaodian, Taiyuan",,37.782137,112.483533,238,139,11,25,99,40,3,-2,1019,70,1,20141129190000
692,"Taoyuan, Taiyuan",,37.869752,112.543332,174,95,4,29,45,21,4,-1,1018,70,2,20141129190000
693,"Wucheng, Taiyuan",,37.819998,112.576252,304,216,4,21,90,27,3,-2,1019,70,1,20141129190000
694,"Nanzhai, Taiyuan",,37.985902,112.555312,172,82,10,17,39,11,3,-2,1019,70,1,20141129190000
695,"Jinsheng, Taiyuan",,37.781205,112.494494,254,161,7,10,79,32,3,-2,1019,70,1,20141129190000
696,Taiyuan,,37.871115,112.555178,174,95,4,29,45,21,-,-,0,-,-,20141129190000
697,"Monitoring station, Changzhi",,36.194062,113.10389,312,303,10,22,52,34,,,0,,,20141129190000
698,"Auditing bureau, Changzhi",,36.212787,113.095221,253,252,14,65,20,48,,,0,,,20141129190000
699,"Qinghua station, Changzhi",,36.154328,113.116385,244,339,13,38,44,52,,,0,,,20141129190000
700,"No.8 middle school, Changzhi",,36.185451,113.099481,347,349,11,31,53,45,,,0,,,20141129190000
701,Changzhi,,36.195553,113.12292,347,349,23,65,53,52,,,0,,,20141129190000
702,"Yungang Hotel, Datong",,40.076997,113.278079,34,121,25,2,8,32,-1,-12,1023,43,5,20141129190000
703,"college of education, Datong",,40.085608,113.27808,61,71,14,1,6,17,-1,-12,1023,43,5,20141129190000
704,Datong,,40.078016,113.307143,61,121,39,3,14,32,-1,-12,1023,43,5,20141129190000
705,"Technical Schools, Linfen",,36.07131,111.509046,112,51,5,16,50,28,-1,-12,0,45,8,20141129190000
706,"Municipal party committee, Linfen",,36.087425,111.508771,109,56,11,14,14,29,-1,-12,0,45,8,20141129190000
1073,"City Monitoring Station, Linfen",,36.097676,111.518739,124,48,4,17,39,24,-1,-12,0,43,7,20141129190000
707,"South Airport, Linfen",,36.041614,111.497968,99,39,10,17,35,24,-1,-12,0,45,8,20141129190000
708,Linfen,,36.087944,111.525098,122,56,16,17,53,29,-1,-12,0,45,8,20141129190000
709,"City center, Yangquan",,37.848012,113.578636,241,229,10,35,59,35,3,-2,1019,70,1,20141129190000
710,Yangquan,,37.857475,113.586921,363,315,12,93,121,26,3,-2,1019,70,1,20141129190000
711,"Water Company, Jincheng",,35.504787,112.857245,168,83,5,11,49,18,4,4,1022,97,1,20141129190000
712,"Baiyun shopping mall, Jincheng",,35.492858,112.841566,166,75,5,12,35,22,4,4,1022,97,1,20141129190000
713,"City EPA, Jincheng",,35.488422,112.858528,165,76,6,13,58,16,4,4,1022,97,1,20141129190000
714,"Institute of Technology, Jincheng",,35.484844,112.878073,175,103,3,17,59,11,4,4,1022,97,1,20141129190000
715,"No.1 middle school, Jincheng",,35.478725,112.838636,174,95,4,11,51,15,4,4,1022,97,1,20141129190000
716,Jincheng,,35.490287,112.85794,175,103,6,17,59,22,4,4,1022,97,1,20141129190000
718,"District Government, Shuozhou",,39.320857,112.430641,161,90,12,34,55,5,1,-3,1022,70,1,20141129190000
719,"City EPA, Shuozhou",,39.331495,112.407997,,-,,-,-,,-,-,0,-,-,20141129190000
720,"No.2 middle school, Shuozhou",,39.377963,112.432877,-,-,-,-,-,-,-,-,0,-,-,20141129190000
721,Shuozhou,,39.332756,112.439672,72,68,7,3,24,16,2,-4,1023,55,6,20141129190000
722,"Jinlun compound, Jinzhong",,37.697891,112.771017,258,182,8,27,92,39,3,-2,1019,70,1,20141129190000
723,"Hydraulic Component Factory, Jinzhong",,37.688355,112.725844,301,238,6,51,39,44,3,-2,1019,70,1,20141129190000
724,"Nandu compound, Jinzhong",,37.713148,112.732036,251,169,2,36,59,43,4,-1,1018,70,2,20141129190000
725,"Yuci district government, Jinzhong",,37.698228,112.714167,238,139,3,32,73,39,3,-2,1019,70,1,20141129190000
726,Jinzhong,,37.687705,112.759187,301,238,8,51,92,44,3,-2,1019,70,1,20141129190000
727,"Yuncheng Middle School, Yuncheng",,35.012345,111.003215,153,83,12,13,15,18,7,5,1024,78,2,20141129190000
728,"Yudou BDA, Yuncheng",,35.05065,111.029571,162,84,17,14,2,23,7,5,1024,78,2,20141129190000
729,"Yuncheng college, Yuncheng",,35.038753,111.051992,-,,-,,,-,-,-,0,-,-,20141129190000
730,"Regional Technical School, Yuncheng",,35.028727,110.974076,165,77,6,10,11,24,7,5,1024,78,2,20141129190000
731,"Airport new district, Yuncheng",,35.084515,111.05339,152,83,21,12,26,31,7,5,1024,78,2,20141129190000
732,Yuncheng,,35.025675,111.013344,165,84,21,14,26,31,7,5,1024,78,2,20141129190000
733,"Jiyin, Xinzhou",,38.413292,112.742432,240,320,9,17,63,32,3,-2,1019,70,1,20141129190000
734,"BDA, Xinzhou",,38.450069,112.736723,201,128,8,22,64,19,3,-2,1019,70,1,20141129190000
735,"Convention Center, Xinzhou",,38.492043,112.709772,285,161,7,22,53,34,3,-2,1019,70,1,20141129190000
737,"City EPA, Luliang",,37.522189,111.144365,164,69,9,2,7,30,3,-10,1027,26,3,20141129190000
738,"Soybean factory, Luliang",,37.51689,111.135101,93,90,10,1,70,29,3,-10,1027,26,3,20141129190000
739,"Water Company, Luliang",,37.53394,111.138834,179,105,13,6,12,25,3,-10,1027,26,3,20141129190000
740,Luliang,,37.519091,111.150681,179,105,13,6,70,30,3,-10,1027,26,3,20141129190000
741,"City government, Sanmenxia",,34.776251,111.198781,195,121,3,21,11,20,7,5,1024,78,2,20141129190000
743,"BDA, Sanmenxia",,34.800434,111.204332,206,135,7,30,27,19,7,5,1024,78,2,20141129190000
744,Sanmenxia,,34.771506,111.206129,216,135,9,33,27,20,7,5,1024,78,2,20141129190000
745,"Food Factory, Changchun",,43.919094,125.329521,183,116,27,23,36,14,0,-8,1017,55,3,20141129190000
746,"Bus Factory, Changchun",,43.912337,125.293431,183,101,24,28,49,14,0,-8,1017,55,3,20141129190000
747,"Institute of Posts and Telecommunications, Changchun",,43.842368,125.285005,176,109,29,23,19,12,0,-8,1017,55,3,20141129190000
748,"Laodong Park, Changchun",,43.877293,125.371519,182,92,19,19,17,13,0,-8,1017,55,3,20141129190000
749,"Forest area, Changchun",,43.871825,125.331519,186,107,21,26,23,16,0,-8,1017,55,3,20141129190000
750,"Jinyuetan, Changchun",,43.79031,125.460561,181,91,38,9,9,11,0,-8,1017,55,3,20141129190000
751,"Shuaiwanzi, Changchun",,43.552321,125.639086,156,76,37,6,5,12,0,-8,1017,55,3,20141129190000
752,"Economic Development Zone Sanitation Department, Changchun",,43.869221,125.42365,177,114,29,18,9,13,0,-8,1017,55,3,20141129190000
753,"High-tech Zone Administrative Committee, Changchun",,43.819064,125.256375,171,88,31,12,9,11,0,-8,1017,55,3,20141129190000
754,"Daishan Park, Changchun",,43.852365,125.223399,178,111,24,26,18,14,0,-8,1017,55,3,20141129190000
755,Changchun,,43.819415,125.329977,176,109,29,23,19,12,-,-,0,-,-,20141129190000
756,"Hadawan, Jilin",,43.888081,126.545727,182,115,19,35,53,19,0,-6,0,66,3,20141129190000
757,"Fengman, Jilin",,43.768169,126.678802,185,97,44,7,6,8,0,-6,0,66,3,20141129190000
758,"Electric Power College, Jilin",,43.827403,126.502281,197,122,31,27,22,31,0,-6,0,66,3,20141129190000
759,"Jiangnan Park, Jilin",,43.83531,126.556519,177,96,28,11,9,9,0,-6,0,66,3,20141129190000
760,"Dongjuzi, Jilin",,43.838597,126.590068,177,92,33,8,8,8,0,-6,0,66,3,20141129190000
763,Jilin,,43.840137,126.555262,197,122,44,35,53,31,0,-6,0,66,3,20141129190000
764,"Lingbei, Haerbin",,45.756979,126.548008,173,89,16,19,39,4,-2,-8,1015,64,3,20141129190000
765,"Songbei Commercial University, Haerbin",,45.818624,126.566963,169,87,12,19,43,11,-2,-8,1015,64,3,20141129190000
766,"Acheng huining, Haerbin",,45.544286,126.985183,155,65,33,15,5,6,-2,-8,1015,64,3,20141129190000
767,"Nangang College Street, Haerbin",,45.724121,126.604906,180,100,12,19,51,6,-2,-8,1015,64,3,20141129190000
768,"Taiping Hongwei Park, Haerbin",,45.775332,126.695101,315,87,15,27,52,7,-2,-8,1015,64,3,20141129190000
769,"Daowai Chengde Square, Haerbin",,45.768637,126.640955,178,101,8,-,65,8,-2,-8,1015,64,3,20141129190000
770,"Xiangfang Hongqi Street, Haerbin",,45.733936,126.691083,174,86,15,16,19,5,-2,-8,1015,64,3,20141129190000
771,"Dongli Heping Road, Haerbin",,45.727765,126.651974,176,100,15,28,50,3,-2,-8,1015,64,3,20141129190000
772,"Daoli Jianguo Road, Haerbin",,45.749715,126.59891,179,104,11,39,67,3,-2,-8,1015,64,3,20141129190000
773,"Pingfang Light Factory, Haerbin",,45.611951,126.620898,166,80,19,9,9,6,-2,-9,1016,59,1,20141129190000
774,"Hulan Normal College, Haerbin",,45.983745,126.616553,181,89,8,42,38,7,-2,-8,1015,64,3,20141129190000
775,"Provincial Academy of Agricultural Sciences, Haerbin",,45.686141,126.626517,169,90,11,32,54,3,-2,-8,1015,64,3,20141129190000
776,Haerbin,,45.805757,126.541007,169,87,12,19,43,11,-,-,0,-,-,20141129190000
777,"Anju Compound, Qiqihaer",,47.365672,123.937016,117,265,23,3,5,11,-11,-14,1019,62,4,20141129190000
778,"Farming Vehicule Factory, Qiqihaer",,47.326793,123.961427,119,-,20,9,44,17,-11,-14,1019,62,4,20141129190000
779,"Fuqu EPA, Qiqihaer",,47.1853,123.62322,137,65,30,10,2,9,-11,-14,1019,62,4,20141129190000
780,"City Center Square, Qiqihaer",,47.343096,123.96192,129,50,21,4,2,13,-11,-14,1019,62,4,20141129190000
1217,"City Environmental Monitoring Station, Qiqihaer",,47.303639,123.957551,165,67,20,4,37,14,-11,-14,1019,62,4,20141129190000
781,Qiqihaer,,47.356387,123.924736,165,67,30,10,44,17,-11,-14,1019,62,4,20141129190000
782,"Saertu District, Daqing",,46.582368,125.152904,239,137,25,4,14,14,-8,-12,1016,60,1,20141129190000
783,"Datong District, Daqing",,46.036786,124.842115,229,119,23,10,12,16,-8,-12,1016,60,1,20141129190000
784,"Honggang District, Daqing",,46.418381,124.88973,231,130,32,30,10,15,-8,-12,1016,60,1,20141129190000
785,"Longfeng District, Daqing",,46.535426,125.107043,195,123,19,27,19,16,-8,-12,1016,60,1,20141129190000
786,"Ranghulu District, Daqing",,46.635123,124.85648,241,156,27,26,14,18,-8,-12,1016,60,1,20141129190000
787,Daqing,,46.591414,125.110838,241,156,32,30,19,18,-8,-12,1016,60,1,20141129190000
788,"Locomotive Factory, Mudanjiang",,44.610589,129.652672,201,134,18,10,8,19,-8,-10,1022,77,1,20141129190000
789,"No. 1 hospital, Mudanjiang",,44.567775,129.617043,197,113,18,23,14,20,-8,-10,1022,77,1,20141129190000
1220,"EPA building, Mudanjiang",,44.567777,129.620658,426,278,7,11,11,22,-8,-10,1022,77,1,20141129190000
1221,"Cultural Square, Mudanjiang",,44.586388,129.623164,234,139,1,31,32,25,-8,-10,1022,77,1,20141129190000
790,Mudanjiang,,44.553619,129.640246,426,278,21,31,32,25,-8,-10,1022,77,1,20141129190000
791,"Mingzhu Plaza, Hefei",,31.782847,117.201512,87,86,4,8,11,18,10,9,1015,94,5,20141129190000
792,"Sanli Street, Hefei",,31.874637,117.312573,102,78,5,8,3,21,10,9,1015,94,5,20141129190000
793,"Hupo Compound, Hefei",,31.868583,117.264491,109,82,6,4,6,17,10,9,1015,94,5,20141129190000
794,"Dongpu Reservoir, Hefei",,31.90319,117.165584,82,64,9,4,7,6,10,9,1015,94,5,20141129190000
795,"Changjiang middle road, Hefei",,31.855185,117.255484,104,84,12,5,3,16,10,9,1015,94,5,20141129190000
796,"Luyang District, Hefei",,31.941771,117.271504,89,69,6,3,13,13,10,9,1015,94,5,20141129190000
797,"Yaohai District, Hefei",,31.856595,117.341644,95,73,13,12,4,18,10,9,1015,94,5,20141129190000
798,"Baohe District, Hefei",,31.793644,117.307554,97,77,7,3,12,11,10,9,1015,94,5,20141129190000
799,"Lake district, Hefei",,31.736619,117.283501,109,48,33,7,1,15,10,9,1015,94,5,20141129190000
800,"High-tech zone, Hefei",,31.849755,117.129624,102,75,16,4,5,10,10,9,1015,94,5,20141129190000
801,Hefei,,31.819449,117.232753,104,84,12,5,3,16,-,-,0,-,-,20141129190000
802,"Hudong Road No.4 Elementary School, Maanshan",,31.684121,118.511017,85,36,7,25,18,17,13,12,1014,94,2,20141129190000
803,"Tianping Garment Factory, Maanshan",,31.64197,118.488043,97,40,14,26,10,14,13,12,1014,94,2,20141129190000
804,"City education base, Maanshan",,31.711216,118.648913,68,25,13,26,18,11,13,12,1014,94,2,20141129190000
805,"Cihu No.2 elementary school, Maanshan",,31.748546,118.515729,97,41,10,24,10,20,13,12,1014,94,2,20141129190000
806,"Maanshan steel factory power plant, Maanshan",,31.690864,118.48528,89,45,17,17,9,14,13,12,1014,94,2,20141129190000
807,Maanshan,,31.668461,118.511939,97,41,17,26,18,20,13,12,1014,94,2,20141129190000
808,"Science Innovation Center, Wuhu",,31.417056,118.375406,95,33,15,16,2,22,13,12,1014,94,2,20141129190000
809,"No.4 Water Plant, Wuhu",,31.315914,118.376231,102,35,13,22,3,22,13,12,1014,94,2,20141129190000
810,"Monitoring station, Wuhu",,31.348955,118.358154,91,30,4,20,8,21,13,12,1014,94,2,20141129190000
811,"Wuqierling Factory, Wuhu",,31.382068,118.407639,104,39,32,13,8,21,13,12,1014,94,2,20141129190000
812,Wuhu,,31.351007,118.438322,104,39,32,22,8,22,13,12,1014,94,2,20141129190000
1331,Chuzhou,,32.299549,118.322508,-,-,-,-,-,-,-,,0,-,-,20141129190000
813,"Jiangxi Foreign Affairs Office, Nanchang",,28.678027,115.903436,117,59,5,6,10,12,15,13,1014,90,4,20141129190000
814,"Provincial forestry company, Nanchang",,28.69065,115.898546,89,48,5,1,1,18,15,13,1014,90,4,20141129190000
815,"Institute of Forestry, Nanchang",,28.731518,115.82478,34,19,10,9,5,14,15,13,1014,90,4,20141129190000
816,"Jingdong town government, Nanchang",,28.680659,115.972736,104,54,9,1,1,13,14,13,1014,92,3,20141129190000
817,"Contruction Industry College, Nanchang",,28.684018,115.865891,85,34,8,12,6,18,15,13,1014,90,4,20141129190000
818,"Xianghu, Nanchang",,28.637831,115.9033,93,30,9,15,6,22,14,13,1014,92,3,20141129190000
819,"Martial Arts School, Nanchang",,28.794538,115.752876,9,18,9,13,5,9,14,13,1014,92,3,20141129190000
820,"Petrifaction Company, Nanchang",,28.608634,115.912999,109,56,7,12,4,16,14,13,1014,92,3,20141129190000
821,"Provincial Station, Nanchang",,28.677155,115.941896,57,30,8,11,2,15,14,13,1014,92,3,20141129190000
822,Nanchang,,28.679883,115.863022,109,56,8,12,4,22,14,13,1014,92,3,20141129190000
823,"Lushan Mountain Observatory, Jiujiang",,29.5751,115.998926,25,4,47,8,1,6,10,10,1015,100,2,20141129190000
824,"Shili, Jiujiang",,29.668119,115.992381,87,20,11,27,14,17,10,10,1015,100,2,20141129190000
825,"Maoshantou, Jiujiang",,29.700819,115.967192,78,30,8,25,12,16,10,10,1015,100,2,20141129190000
826,"Xiyuan, Jiujiang",,29.723929,115.998206,74,15,12,26,20,14,10,10,1015,100,2,20141129190000
827,"Wuqierling Factory, Jiujiang",,29.640802,116.022713,74,29,13,25,19,11,10,10,1015,100,2,20141129190000
828,"Water Scientific Research Institute, Jiujiang",,29.679179,116.068081,76,29,11,32,15,12,10,10,1015,100,2,20141129190000
829,"Zonghe Industrial Park, Jiujiang",,29.592047,115.916335,76,31,11,8,13,14,10,10,1015,100,2,20141129190000
830,"Petrochemical General Plant, Jiujiang",,29.738832,116.09463,70,18,12,20,19,0,10,10,1015,100,2,20141129190000
831,Jiujiang,,29.70254,116.007025,87,31,44,32,20,17,10,10,1015,100,2,20141129190000
1332,"Feiyu, Xinyu",,27.844697,115.000136,102,54,5,3,6,,14,,1013,95,3,20141129190000
1333,"Beigang, Xinyu",,27.932491,115.103767,85,51,5,8,8,,14,,1013,95,3,20141129190000
1334,"No.2 water factory, Xinyu",,27.839577,114.933915,114,53,2,8,5,,14,,1013,95,3,20141129190000
1335,"Bureau of Meteorology, Xinyu",,27.81048,114.936507,147,61,3,8,6,,14,,1013,95,3,20141129190000
1336,Xinyu,,27.814351,114.922194,114,61,5,10,8,,14,,1013,95,3,20141129190000
832,"Tobacco Factory, Zhengzhou",,34.753419,113.687131,207,115,17,28,12,11,6,5,1020,93,2,20141129190000
833,"Textile Machinery Factory, Zhengzhou",,34.773366,113.647067,200,118,12,22,5,19,7,5,1019,87,3,20141129190000
834,"Banking College, Zhengzhou",,34.800856,113.681126,198,107,14,16,9,19,7,5,1019,87,3,20141129190000
835,"Water Supply Company, Zhengzhou",,34.807188,113.571089,204,100,19,24,22,25,7,5,1019,87,3,20141129190000
836,"Economic Development Zone Management Committee, Zhengzhou",,34.717652,113.733182,194,117,5,23,8,13,7,5,1019,87,3,20141129190000
837,"No. 47 middle school, Zhengzhou",,34.772211,113.74009,196,113,18,30,12,18,7,5,1019,87,3,20141129190000
838,"City Monitoring Station, Zhengzhou",,34.748404,113.60514,201,111,25,23,5,24,7,5,1019,87,3,20141129190000
839,"Henan Medical University, Zhengzhou",,34.752637,113.641658,227,118,20,25,10,12,7,5,1019,87,3,20141129190000
840,"Gangli Reservoir, Zhengzhou",,34.952652,113.64248,173,82,10,23,17,23,7,5,1019,87,3,20141129190000
841,Zhengzhou,,34.745417,113.631415,227,118,20,25,10,12,-,-,0,-,-,20141129190000
842,"Henan University No.1 Hospital, Kaifeng",,34.799302,114.352706,76,40,28,15,7,14,7,5,1019,87,3,20141129190000
843,"Maternity And Child Hospital, Kaifeng",,34.795803,114.386103,70,45,16,26,10,23,7,5,1019,87,3,20141129190000
844,"Cancer Hospital, Kaifeng",,34.775428,114.350292,102,40,29,1,42,16,7,5,1019,87,3,20141129190000
845,"Yellow River Conservancy Institute, Kaifeng",,34.826066,114.324772,82,52,3,15,5,13,7,5,1019,87,3,20141129190000
846,"Shijixing Kindergarden, Kaifeng",,34.793606,114.302744,65,42,14,16,12,7,7,5,1019,87,3,20141129190000
847,Kaifeng,,34.796346,114.313426,76,40,28,15,7,14,7,5,1019,87,3,20141129190000
852,Jiaozuo,,35.215381,113.248188,184,117,16,32,57,23,7,5,1019,87,3,20141129190000
853,"Cotton Research Institute, Anyang",,36.081435,114.486451,167,77,12,-,16,15,6,5,1020,96,1,20141129190000
854,"Hongmiao Street, Anyang",,36.086733,114.326,13,6,,,,,6,5,1020,96,1,20141129190000
855,"Yinxing Compound, Anyang",,36.056519,114.36495,195,105,6,25,27,23,6,5,1020,96,1,20141129190000
856,"Tiefo Temple, Anyang",,36.110041,114.309309,172,111,7,27,29,20,6,5,1020,96,1,20141129190000
1360,"Environment protection office, Anyang",,36.088472,114.399189,178,107,17,28,34,17,6,5,1020,96,1,20141129190000
