locationid,stationname,chinesename,latitude,longitude,pm25,pm10,o3,no2,so2,co,temperature,dewpoint,pressure,humidity,wind,est_time
102,"Gaoling, Maoming",,21.690558,110.871146,109,45,9,11,3,5,25,23,0,86,1,20140929170000
1,Dongcheng Dongsi,,39.9304,116.423239,61,56,14,18,5,5,12,3,1028,54,2,20140929170000
2,"Temple of Heaven, Dongcheng",,39.887403,116.41324,74,51,14,18,7,7,12,3,1028,54,2,20140929170000
3,West Park officials,,39.930333,116.345162,63,62,14,16,5,6,12,3,1028,54,2,20140929170000
4,West Wanshou Nishinomiya,,39.879354,116.358183,77,64,16,20,6,8,12,3,1028,54,2,20140929170000
5,Chaoyang Olympic Sports Center,,39.983406,116.403253,71,56,11,21,3,3,12,3,1028,54,2,20140929170000
6,Chaoyang Agricultural Exhibition Hall,,39.938331,116.46715,82,52,17,23,6,3,12,3,1028,54,2,20140929170000
7,Haidian Wanliu,,39.988245,116.293062,67,19,10,22,6,4,12,3,1028,54,2,20140929170000
8,The Haidian northern New Area,,40.091313,116.180194,72,22,12,28,3,3,12,3,1028,54,2,20140929170000
9,Haidian Beijing Botanical Garden,,40.003252,116.213097,97,79,18,25,5,5,12,3,1028,54,2,20140929170000
10,Fengtai garden,,39.86423,116.285037,84,47,17,22,7,8,12,3,1028,54,2,20140929170000
11,Fengtai Yungang,,39.82535,116.152237,84,55,15,19,7,8,12,3,1028,54,2,20140929170000
12,Shijingshan city,,39.915286,116.190144,95,70,14,27,7,8,12,3,1028,54,2,20140929170000
13,"Fangshan, Liangxiang",,39.743357,116.14225,79,62,12,17,8,21,12,3,1028,54,2,20140929170000
14,"Huangcunzhen, Daxing",,39.719389,116.410219,80,59,12,19,14,10,12,3,1028,54,2,20140929170000
15,BDA,,39.796197,116.51197,91,-,31,20,6,9,12,3,1028,54,2,20140929170000
16,Tongzhou New Town,,39.887113,116.6689,71,60,10,21,6,1,12,3,1028,54,2,20140929170000
17,Shunyi New Town ,,40.128111,116.660908,61,37,17,11,3,2,12,3,1028,54,2,20140929170000
18,Changping Town,,40.218245,116.236084,61,49,17,18,2,3,12,3,1028,54,2,20140929170000
19,"Mentougou, Longquan Town",,39.938397,116.112323,85,66,13,22,7,8,12,3,1028,54,2,20140929170000
20,Pinggu town,,40.144433,117.106563,49,-,18,9,2,4,12,3,1028,54,2,20140929170000
21,Huairou town,,40.329104,116.63387,45,30,18,12,2,2,12,3,1028,54,2,20140929170000
22,The town of Miyun,,40.371186,116.838053,13,20,24,7,3,2,12,3,1028,54,2,20140929170000
23,Yanqing town,,40.454217,115.978106,45,-,19,18,2,2,12,3,1028,54,2,20140929170000
24,Changping Dingling,,40.293269,116.226108,47,17,21,7,2,2,12,3,1028,54,2,20140929170000
25,Badaling Northwest,,40.36623,115.994146,56,-,16,23,2,2,12,3,1028,54,2,20140929170000
26,Miyun Reservoir,,40.500157,116.91701,33,20,26,2,6,2,12,3,1028,54,2,20140929170000
27,"Donggaocun Zhen, Pinggu",,40.10142,117.126556,35,43,19,3,2,2,12,3,1028,54,2,20140929170000
28,"Yongledianzhen, Tongzhou",,39.713192,116.78905,76,35,-,23,7,-,13,2,1027,47,5,20140929170000
29,"Yufazhen, Daxing",,39.521203,116.306026,73,171,13,9,7,9,12,3,1028,54,2,20140929170000
30,"Liulihezhen, Fangshan",,39.581169,116.006089,72,41,17,13,6,7,12,3,1028,54,2,20140929170000
31,"Qianmen E St, Dongcheng",,39.900402,116.401242,94,47,11,22,4,8,12,3,1028,54,2,20140929170000
32,Yongdingmen Inner St,,39.877401,116.400238,96,-,12,20,8,8,12,3,1028,54,2,20140929170000
33,Xizhimen N St,,39.955352,116.355187,64,78,14,15,3,5,12,3,1028,54,2,20140929170000
34,South Ring Road,,39.857377,116.37421,88,61,3,26,5,10,12,3,1028,54,2,20140929170000
35,East Fourth Ring Road,,39.940273,116.489075,82,66,7,28,5,7,12,3,1028,54,2,20140929170000
36,Beijing,,39.955906,116.474246,82,52,17,23,6,3,12,3,1028,54,2,20140929170000
37,Putuo,,31.232979,121.415378,69,21,23,11,6,7,23,21,1014,88,6,20140929170000
38,Yangpu Sipiao,,31.263795,121.540311,58,25,31,13,5,12,23,21,1014,88,6,20140929170000
39,Shanghai Normal College Primary Division,,31.199031,121.487719,83,28,29,11,4,10,23,21,1014,88,6,20140929170000
40,Dianshan Lake,,31.091338,120.982293,84,28,29,4,8,9,23,21,1014,88,6,20140929170000
41,Hongkou Liangcheng,,31.298906,121.47155,53,16,23,11,6,9,23,21,1014,88,6,20140929170000
42,Jingan,,31.224251,121.429637,63,28,32,11,6,13,23,21,1014,88,6,20140929170000
43,Shanghai Normal University,,31.163531,121.416643,72,23,29,11,6,9,23,21,1014,88,6,20140929170000
44,Chuansha,,31.188626,121.707342,20,19,26,9,5,9,23,21,1014,88,6,20140929170000
45,Zhangjiang,,31.204896,121.581215,60,22,33,11,3,8,23,21,1014,88,6,20140929170000
46,Lingshan Road,,31.226286,121.537317,68,23,32,11,4,9,23,21,1014,88,6,20140929170000
1080,City average,,31.228451,121.478227,62,23,27,11,5,9,23,21,1014,88,6,20140929170000
47,Shanghai,,31.202842,121.453493,83,28,32,11,6,13,23,21,1014,88,6,20140929170000
48,Guangzhou,,23.138517,113.263701,169,89,27,76,19,13,29,25,1011,79,0,20140929170000
49,"Huadu town, Guangzhou",,23.389121,113.220062,171,115,38,36,10,9,29,25,1011,79,0,20140929170000
1094,Maoming,,21.660223,110.929968,109,45,10,13,8,9,25,23,0,86,1,20140929170000
50,"Luogang Zhenlong, Guangzhou",,23.308027,113.567032,171,97,40,37,5,12,29,25,1011,79,0,20140929170000
51,"LuHu, Guangzhou",,23.151743,113.281842,169,82,20,76,6,13,29,25,1011,79,0,20140929170000
52,"Tianhu, Guangzhou",,23.647433,113.629715,137,61,152,7,9,7,29,25,1011,79,0,20140929170000
53,"Zhudong, Guangzhou",,23.418406,113.078552,155,76,41,24,10,8,29,25,1011,79,0,20140929170000
54,"Modiesha station, Guangzhou",,23.103814,113.338238,153,86,44,43,15,11,29,25,1011,79,0,20140929170000
55,Zhuhai,,22.2677,113.581765,78,51,59,27,7,11,29,25,1011,79,3,20140929170000
1075,"Huicai technical school, Foshan",,23.039667,113.105492,107,59,35,12,18,6,29,25,1011,79,1,20140929170000
56,"Sanshuiyun donghai, Foshan",,23.185788,112.865368,109,52,34,26,39,8,29,25,1011,79,1,20140929170000
57,"Nanhai Bureau of Meteorology, Foshan",,23.046836,113.145764,117,61,43,31,8,6,29,25,1011,79,1,20140929170000
58,"Sanshui Monitoring Station, Foshan",,23.163551,112.890843,139,82,24,53,53,5,29,25,1011,79,1,20140929170000
1087,Foshan,,23.018995,113.126899,117,61,43,31,18,6,29,25,1011,79,1,20140929170000
59,"Ronggui street committee, Shunde",,22.762729,113.258356,104,50,37,25,12,8,29,25,1011,79,0,20140929170000
60,Shunde,,22.80246,113.298701,104,50,37,25,13,8,-,-,0,-,-,20140929170000
61,"Donghu, Jiangmen",,22.590411,113.087351,82,38,27,24,6,8,29,25,1011,79,2,20140929170000
62,"Taoyuan Atmosphere Premier Station, Jiangmen",,22.72489,112.93404,95,51,32,10,8,4,29,25,1011,79,2,20140929170000
63,Jiangmen,,22.576047,113.087351,85,40,27,24,10,12,29,25,1011,79,2,20140929170000
64,"Kengkouzi station, Zhaoqing",,23.158865,112.570287,68,38,41,1,9,7,29,25,1011,79,1,20140929170000
65,"Mugangzi station, Zhaoqing",,23.067961,112.431934,97,67,24,19,6,11,29,25,1011,79,1,20140929170000
66,"Qixingyanzi station, Zhaoqing",,23.075974,112.477437,-,-,-,-,-,-,-,-,0,-,-,20140929170000
67,Zhaoqing,,23.044571,112.470346,97,67,24,19,10,11,29,25,1011,79,1,20140929170000
68,"Jinguo Bay, Huizhou",,22.937223,114.385567,137,59,95,8,5,5,29,26,1011,84,4,20140929170000
1091,"Xiabu, Huizhou",,23.077493,114.410275,164,95,48,28,6,6,29,26,1011,84,4,20140929170000
69,"Xijiao, Huizhou",,23.338178,114.112867,117,42,28,10,3,5,29,26,1011,84,4,20140929170000
70,"Jiangbei, Huizhou",,23.111706,114.415274,157,69,44,56,7,6,29,26,1011,84,4,20140929170000
71,"Huiyang chuanhu, Huizhou",,22.814485,114.329292,142,68,37,32,6,8,29,26,1011,84,4,20140929170000
72,"Daya bay management committee, Huizhou",,22.739283,114.53631,134,62,28,35,9,5,29,26,1011,84,4,20140929170000
73,Huizhou,,23.109349,114.421164,164,95,48,56,7,9,29,26,1011,84,4,20140929170000
74,"Guancheng No.2 water plant, Dongguan",,23.057294,113.753254,137,68,72,36,8,9,29,26,1011,84,4,20140929170000
75,"Dongcheng Shijing, Dongguan",,23.010039,113.799529,153,65,72,26,6,8,29,26,1011,84,4,20140929170000
76,"Nancheng Xiping, Dongguan",,22.963051,113.743494,109,37,141,18,7,7,29,26,1011,84,4,20140929170000
77,"Nancheng Yuanling, Dongguan",,23.025058,113.751308,109,39,135,19,10,9,29,26,1011,84,4,20140929170000
78,Dongguan,,23.017813,113.756958,153,68,141,36,10,9,29,26,1011,84,4,20140929170000
79,"Zimaling, Zhongshan",,22.505112,113.407183,68,34,35,10,8,7,29,25,1011,79,3,20140929170000
80,"Yangtze River tourist area, Zhongshan",,22.48589,113.439054,78,30,37,3,3,11,29,25,1011,79,3,20140929170000
81,"Huabai Park, Zhongshan",,22.51839,113.374362,87,37,31,12,5,13,29,25,1011,79,3,20140929170000
82,Zhongshan,,22.513997,113.398277,87,38,40,12,9,13,29,25,1011,79,3,20140929170000
83,"No.8 middle school, Shaoguan",,24.767777,113.583537,129,71,38,11,7,9,26,23,1012,76,2,20140929170000
83,"No.8 middle school, Shaoguan",,24.767777,113.583537,129,71,38,11,7,9,26,23,1012,76,2,20140929170000
84,"Forest area, Shaoguan",,24.796107,113.612131,154,68,40,14,16,10,26,23,1012,76,2,20140929170000
84,"Forest area, Shaoguan",,24.796106,113.612131,154,68,40,14,16,10,26,23,1012,76,2,20140929170000
86,"Shaoguan University, Shaoguan",,24.790864,113.646599,147,50,44,9,13,8,26,23,1012,76,2,20140929170000
86,"Shaoguan University, Shaoguan",,24.790864,113.646598,147,50,44,9,13,8,26,23,1012,76,2,20140929170000
88,"Qujiang Monitoring Station, Shaoguan",,24.683042,113.60157,159,74,34,30,12,8,26,23,1012,76,2,20140929170000
88,"Qujiang Monitoring Station, Shaoguan",,24.683042,113.60157,159,74,34,30,12,8,26,23,1012,76,2,20140929170000
89,Shaoguan,,24.807342,113.602712,159,74,48,30,16,14,26,23,1012,76,2,20140929170000
90,"Chaonanzi Station, Shantou",,23.251213,116.406762,144,53,38,8,11,11,28,26,1011,89,1,20140929170000
91,Shantou,,23.350642,116.686306,153,67,44,17,6,12,28,26,1011,89,1,20140929170000
92,"City Environmental Monitoring Station, Zhanjiang",,21.220431,110.397317,34,25,15,8,5,3,27,24,1012,84,2,20140929170000
93,"EPB Dormitory, Zhanjiang",,21.197376,110.406487,46,28,9,7,3,9,27,24,1012,84,2,20140929170000
94,"Xiashan Swimming Park, Zhanjiang",,21.200431,110.415655,30,12,16,7,5,8,27,24,1012,84,2,20140929170000
95,"Zhanjiang Theatre, Zhanjiang",,21.268177,110.366445,61,40,11,9,11,9,27,24,1012,84,2,20140929170000
96,"Mazhang EPA, Zhanjiang",,21.265486,110.335993,53,18,4,7,5,7,27,24,1012,84,2,20140929170000
97,"Potou District EPB, Zhanjiang",,21.247604,110.454508,-,-,-,-,-,-,-,-,0,-,-,20140929170000
98,Zhanjiang,,21.26832,110.363883,61,40,16,9,11,9,27,24,1012,84,2,20140929170000
99,"Maogang sub-office EPB, Maoming",,21.466435,111.033462,38,16,17,2,2,3,25,23,0,86,1,20140929170000
100,"Petrochemical No. 7 elementaty school, Maoming",,21.648905,110.937861,61,23,10,12,6,6,25,23,0,86,1,20140929170000
101,"Jiankang road, Maoming",,21.662211,110.909482,72,32,9,13,8,9,25,23,0,86,1,20140929170000
103,"Jiaying University, Meizhou",,24.325415,116.12816,147,69,32,19,7,12,28,26,1011,89,1,20140929170000
104,"Mexian new town, Meizhou",,24.269283,116.084546,142,71,22,24,10,17,28,26,1011,89,1,20140929170000
105,"Environmental Monitoring Center, Meizhou",,24.262778,116.129621,142,72,22,26,6,9,28,26,1011,89,1,20140929170000
1095,Meizhou,,24.285988,116.127065,147,72,32,26,10,17,28,26,1011,89,1,20140929170000
106,"City EPA, Shanwei",,22.772349,115.370227,68,26,38,5,6,7,29,26,1012,81,1,20140929170000
107,"City government, Shanwei",,22.787161,115.375536,74,32,42,3,7,6,29,26,1012,81,1,20140929170000
108,"Xincheng Middle School, Shanwei",,22.789851,115.367124,76,35,38,6,6,8,29,26,1012,81,1,20140929170000
1099,Shanwei,,22.783576,115.38022,76,35,42,6,7,8,29,26,1012,81,1,20140929170000
109,"No.3 elementary school, Heyuan",,23.75435,114.703514,134,64,40,24,6,11,27,24,1011,75,1,20140929170000
109,"No.3 elementary school, Heyuan",,23.755946,114.699091,134,64,40,24,6,11,27,24,1011,75,1,20140929170000
111,"City water company, Heyuan",,23.688709,114.954652,153,69,28,42,3,11,27,24,1011,75,1,20140929170000
111,"City water company, Heyuan",,23.754246,114.682459,153,69,28,42,3,11,27,24,1011,75,1,20140929170000
113,"Heyuan high school, Heyuan",,23.720037,114.699563,119,60,38,26,17,7,27,24,1011,75,1,20140929170000
113,"Heyuan high school, Heyuan",,23.720666,114.693879,119,60,38,26,17,7,27,24,1011,75,1,20140929170000
115,Heyuan,,23.740888,114.705147,153,69,40,42,17,11,27,24,1011,75,1,20140929170000
116,"Yuanyang Lake, Yangjiang",,21.855869,111.983676,57,20,21,1,2,5,28,24,1012,77,2,20140929170000
1100,Yangjiang,,21.855227,111.987308,61,30,21,6,2,7,28,24,1012,77,2,20140929170000
118,"Town governement, Qingyuan",,23.708005,113.026215,89,42,21,7,5,15,29,25,1011,79,1,20140929170000
119,"Fupin district, Qingyuan",,24.185415,113.419369,142,66,17,12,5,17,29,25,1011,79,1,20140929170000
119,"Fupin district, Qingyuan",,23.624781,113.067713,142,66,17,12,5,17,29,25,1011,79,1,20140929170000
121,"Environment protection office, Qingyuan",,23.685931,113.053239,109,48,19,7,4,10,29,25,1011,79,1,20140929170000
121,"Environment protection office, Qingyuan",,23.691109,113.047948,109,48,19,7,4,10,29,25,1011,79,1,20140929170000
123,"Fengcheng Subdistrict, Qingyuan",,23.695447,113.068189,89,42,21,7,5,15,29,25,1011,79,1,20140929170000
124,Qingyuan,,23.679304,113.061513,142,66,21,12,5,17,29,25,1011,79,1,20140929170000
125,"Xiyuan Road, Chaozhou",,23.668654,116.638272,187,126,50,6,10,14,28,26,1011,89,1,20140929170000
126,"Archives Bureau, Chaozhou",,23.667881,116.649104,200,147,60,10,22,13,28,26,1011,89,1,20140929170000
127,"Municipal Corporation, Chaozhou",,23.65035,116.621859,183,121,56,6,13,16,28,26,1011,89,1,20140929170000
1101,Chaozhou,,23.654204,116.626969,200,147,60,10,22,16,28,26,1011,89,1,20140929170000
128,"Donghu Park, Jieyang",,23.532877,116.374427,167,85,44,10,18,10,28,26,1011,89,1,20140929170000
129,"Yuhu Middle School, Jieyang",,23.52682,116.414123,189,98,38,15,20,11,28,26,1011,89,1,20140929170000
130,"Experimental Primary School, Jieyang",,23.571473,116.364137,178,84,33,17,26,11,28,26,1011,89,1,20140929170000
1102,Jieyang,,23.547596,116.37754,189,98,44,17,26,11,28,26,1011,89,1,20140929170000
131,"City Environmental Monitoring Station, Yunfu",,22.936779,112.042248,102,68,17,13,7,7,29,25,1011,79,1,20140929170000
132,"The new city government headquarters, Yunfu",,22.914275,112.044475,85,33,25,7,6,16,29,25,1011,79,1,20140929170000
133,"Muyang police sub-station, Yunfu",,22.951267,112.05923,89,36,22,18,15,15,29,25,1011,79,1,20140929170000
1103,Yunfu,,22.912436,112.049811,102,68,25,18,13,16,29,25,1011,79,1,20140929170000
134,Yantian,,22.587949,114.266899,80,33,28,40,8,10,29,26,1011,84,4,20140929170000
135,Kwai Chung,,22.627947,114.428875,63,39,27,27,5,12,29,26,1011,84,4,20140929170000
135,Kwai Chung,,22.354168,114.134558,63,39,27,27,5,12,29,26,1011,84,4,20140929170000
135,Kwai Chung,,22.572837,113.867166,63,39,27,27,5,12,29,26,1011,84,4,20140929170000
137,Nanyou,,22.513802,113.928051,78,48,40,7,6,7,29,26,1011,84,4,20140929170000
138,Meisha,,22.59611,114.318345,89,55,15,44,7,11,29,26,1011,84,4,20140929170000
139,Xi xiang,,22.717524,114.252304,134,55,32,63,7,14,29,26,1011,84,4,20140929170000
140,Liyuan,,22.54732,114.101205,97,56,12,49,5,10,29,26,1011,84,4,20140929170000
1072,Kwai Chung,,22.627947,114.428875,85,47,15,27,3,5,29,26,1011,84,4,20140929170000
1072,Kwai Chung,,22.354168,114.134558,85,47,15,27,3,5,29,26,1011,84,4,20140929170000
1072,Kwai Chung,,22.572837,113.867166,85,47,15,27,3,5,29,26,1011,84,4,20140929170000
141,OCT,,22.539549,113.992458,99,55,32,18,5,15,29,26,1011,84,4,20140929170000
142,Honghu,,22.559647,114.121976,104,52,20,53,4,12,29,26,1011,84,4,20140929170000
143,Mission Hills,,22.694131,114.050496,107,63,17,34,3,8,29,26,1011,84,3,20140929170000
144,Shenzhen,,22.540382,114.062982,134,63,40,63,8,15,-,-,0,-,-,20140929170000
145,Chengdu,,30.622581,104.069564,152,91,32,34,5,8,23,18,1016,73,1,20140929170000
146,"Jinquan lianghe, Chengdu",,30.710359,103.974209,161,74,21,44,7,10,22,19,1016,83,0,20140929170000
147,"Shilidian, Chengdu",,30.684718,104.17845,152,82,23,24,4,8,23,19,1016,78,1,20140929170000
148,"Sanwayao, Chengdu",,30.568159,104.081524,152,96,16,38,3,10,23,19,1016,78,1,20140929170000
149,"Shahepu, Chengdu",,30.633685,104.120536,162,83,16,38,3,11,23,19,1016,78,1,20140929170000
150,"Liang Lane, Chengdu",,30.682601,104.076522,166,91,32,25,4,7,23,19,1016,78,1,20140929170000
151,"Caotang Temple, Chengdu",,30.651891,104.0284,134,66,27,34,5,8,23,19,1016,78,1,20140929170000
152,"Lingyansi, Chengdu",,31.025729,103.615022,82,52,69,5,7,4,23,19,1016,78,1,20140929170000
153,"Fuleshan, Mianyang",,31.472493,104.7806,93,51,37,5,11,8,24,20,1013,70,2,20140929170000
154,"High-tech Zone Water Company, Mianyang",,31.463309,104.674293,139,53,33,12,7,8,24,20,1013,70,2,20140929170000
155,"No.3 water company, Mianyang",,31.505002,104.731054,99,41,32,24,6,9,24,20,1013,70,2,20140929170000
156,Mianyang,,31.465174,104.681731,139,57,37,24,11,9,24,20,1013,70,2,20140929170000
157,"Dongshan Park, Deyang",,31.118648,104.424587,74,38,36,5,3,6,23,19,1016,78,1,20140929170000
158,"Xixiaoqu, Deyang",,31.131159,104.390972,85,40,23,17,8,8,23,19,1016,78,1,20140929170000
159,"City Procuratorate, Deyang",,31.114554,104.407986,104,50,14,21,7,10,23,19,1016,78,1,20140929170000
160,"Refractory Factory, Deyang",,31.108606,104.356506,139,56,28,14,14,5,23,19,1016,78,1,20140929170000
161,Deyang,,31.124715,104.400703,139,56,36,21,14,10,23,19,1016,78,1,20140929170000
162,"Nongnongping, Panzhihua",,26.566698,101.695438,72,42,24,18,16,6,21,13,0,49,2,20140929170000
163,"Hemenkou, Panzhihua",,26.589072,101.578312,137,66,30,12,6,3,21,13,0,49,2,20140929170000
164,"Bingcaogang, Panzhihua",,26.58143,101.718473,68,63,17,25,5,11,21,13,0,49,2,20140929170000
165,"Renhe, Panzhihua",,26.498166,101.746887,70,37,14,17,6,10,21,13,0,49,2,20140929170000
166,"Jinjina, Panzhihua",,26.553226,101.84862,85,70,18,11,14,11,21,13,0,49,2,20140929170000
167,Panzhihua,,26.578779,101.720211,137,70,30,25,16,11,21,13,0,49,2,20140929170000
168,"Shima Middle School, Yibin",,28.815979,104.599199,163,102,28,17,17,10,23,20,1014,76,1,20140929170000
169,"Municipal party committee, Yibin",,28.762654,104.624834,163,85,23,22,12,9,23,20,1014,76,1,20140929170000
170,"No. 4 middle school, Yibin",,28.783257,104.608407,165,94,21,23,11,8,23,20,1014,76,1,20140929170000
171,"City government, Yibin",,28.760477,104.644079,170,95,22,31,11,10,23,20,1014,76,1,20140929170000
172,"Huangjinzui, Yibin",,28.712319,104.578389,149,90,17,20,11,11,23,20,1014,76,1,20140929170000
173,"Shaping Middle School, Yibin",,28.795569,104.681393,142,54,27,6,4,8,23,20,1014,76,1,20140929170000
174,Yibin,,28.748384,104.645766,170,102,28,31,17,11,23,20,1014,76,1,20140929170000
175,"Datang Hill, Zigong",,29.359969,104.757388,168,83,21,7,51,7,21,18,1001,83,2,20140929170000
176,"Yanma Road, Zigong",,29.355752,104.724036,169,96,9,4,5,12,21,18,1001,83,2,20140929170000
177,"Tanmulin Street, Zigong",,29.353555,104.777397,161,77,31,11,7,4,21,18,1001,83,2,20140929170000
178,"Chunhua Road, Zigong",,29.33825,104.771895,159,69,18,18,9,11,21,18,1001,83,2,20140929170000
179,Zigong,,29.33617,104.781138,169,96,31,18,51,12,21,18,1001,83,2,20140929170000
180,"Jiushi Hill, Luzhou",,28.955347,105.434207,152,70,106,5,6,2,22,19,1001,83,1,20140929170000
181,"Xiaoshishang Port, Luzhou",,28.899583,105.447192,139,65,70,6,9,6,22,19,1001,83,1,20140929170000
182,"Lantianxian Bridge, Luzhou",,28.852766,105.4358,122,82,86,30,2,5,22,19,1001,83,1,20140929170000
183,"City Environment Monitoring Station, Luzhou",,28.895898,105.435802,142,63,45,24,11,7,22,19,1001,83,1,20140929170000
184,Luzhou,,28.868782,105.445938,152,82,106,30,11,7,22,19,1001,83,1,20140929170000
185,"City Committee, Nanchong",,30.799993,106.082906,134,91,13,11,5,8,22,22,1015,98,1,20140929170000
186,"Refinery Factory, Nanchong",,30.819412,106.10712,164,92,16,28,10,5,22,22,1015,98,1,20140929170000
187,"Gaoping District Monitoring Station, Nanchong",,30.783291,106.110417,151,93,15,18,52,11,22,22,1015,98,1,20140929170000
188,"Jialing District EPB, Nanchong",,30.761255,106.06818,167,101,31,34,17,10,22,22,1015,98,1,20140929170000
189,"City Environmental Monitoring Station, Nanchong",,30.836519,106.11272,156,85,14,16,7,8,22,22,1015,98,1,20140929170000
190,Nanchong,,30.835511,106.114717,167,101,31,34,52,11,22,22,1015,98,1,20140929170000
1249,"City Monitoring Station, Neijiang",,29.592673,105.036234,152,50,27,10,4,5,21,18,1001,83,2,20140929170000
1250,"Dongxing District Government , Neijiang",,29.592148,105.074966,139,54,27,4,4,3,21,18,1001,83,2,20140929170000
1251,"No 2 middle school, Neijiang",,29.579135,105.068548,153,56,30,5,5,6,21,18,1001,83,2,20140929170000
1252,Neijiang,,29.577653,105.06166,153,56,30,11,12,7,21,18,1001,83,2,20140929170000
1253,"City Monitoring Station, Suining",,30.610641,105.683583,152,70,46,15,21,10,20,17,0,85,1,20140929170000
1254,"Administrative center , Suining",,30.63206,105.819747,122,60,50,21,5,6,20,17,0,85,1,20140929170000
1255,Suining,,30.530053,105.596307,154,100,50,28,21,17,20,17,0,85,1,20140929170000
1256,"City Monitoring Station, Leshan",,29.560651,103.759211,132,57,23,33,8,11,21,18,0,81,1,20140929170000
1257,"Leshan Giant Buddha Scenic Area , Leshan",,29.543938,103.772706,154,62,39,28,9,8,21,18,0,81,1,20140929170000
1258,Leshan,,29.54935,103.767777,158,69,39,33,10,12,21,18,0,81,1,20140929170000
1259,"Heilongtan , Meishan",,30.047726,103.900649,168,79,42,6,1,7,23,19,1016,78,1,20140929170000
1260,"Bureau of Meteorology, Meishan",,30.084591,103.843715,201,120,29,15,8,8,23,19,1016,78,1,20140929170000
1261,"Xuguang Community , Meishan",,30.066277,103.8516,233,122,30,12,5,6,23,19,1016,78,1,20140929170000
1262,"City Monitoring Station, Meishan",,30.059205,103.836229,186,96,26,10,6,6,23,19,1016,78,1,20140929170000
1263,Meishan,,30.072618,103.85064,233,122,42,12,6,7,23,19,1016,78,1,20140929170000
1264,"Ziyang middle school, Ziyang",,30.147763,104.638024,97,55,40,2,24,11,21,18,1001,83,2,20140929170000
1265,Ziyang,,30.126054,104.63004,97,68,41,7,24,13,21,18,1001,83,2,20140929170000
191,Shenyang US Consulate,,41.785668,123.432865,-,-,18,-,-,4,-,-,0,-,-,20140929170000
192,"Huishan, Shenyang",,41.835421,123.647773,55,19,15,5,1,4,1,0,1027,93,2,20140929170000
193,"Hunnan, Shenyang",,41.758263,123.540809,70,31,7,16,7,6,1,0,1027,93,2,20140929170000
194,"Zhangshi, Shenyang",,41.771679,123.289859,147,56,4,13,11,4,2,0,1027,87,1,20140929170000
195,"Artillery College, Shenyang",,41.835749,123.547799,25,13,9,10,3,3,1,0,1027,93,2,20140929170000
196,"Beiling, Shenyang",,41.849633,123.434146,149,78,3,12,4,5,2,0,1027,87,1,20140929170000
197,"Wenyi Road, Shenyang",,41.767444,123.416144,63,24,12,15,5,3,1,0,1027,93,2,20140929170000
198,"Xiaoheyan, Shenyang",,41.779828,123.484015,68,28,7,15,2,3,2,0,1027,87,1,20140929170000
199,"Taiyuan Street, Shenyang",,41.799646,123.406146,68,37,4,22,5,4,2,0,1027,87,1,20140929170000
200,"Ermao, Shenyang",,41.783011,123.366679,68,36,13,24,6,4,1,0,1027,93,2,20140929170000
201,"Liaoning University, Shenyang",,41.830704,123.361071,114,51,8,17,5,4,1,0,1027,93,2,20140929170000
202,Shenyang,,41.808126,123.437611,149,78,4,22,5,5,2,0,1027,87,1,20140929170000
1104,"wenhua street, Shenyang , Shenyang",,41.774139,123.441839,63,24,12,15,5,3,1,0,1027,93,2,20140929170000
1105,"Tanglin Road , Shenyang , Shenyang",,41.823665,123.562317,25,13,9,10,3,3,2,0,1027,87,1,20140929170000
203,"Ganjingzi, Dalian",,38.9747,121.616893,53,57,17,10,3,2,9,-3,1025,43,6,20140929170000
204,"Zhoushuizi, Dalian",,38.951928,121.569981,46,41,17,8,1,6,9,-3,1025,43,6,20140929170000
205,"Xinghai No 3 station, Dalian",,38.885779,121.568864,61,51,16,9,10,1,9,-2,1025,46,8,20140929170000
206,"Qingniwa Bridge, Dalian",,38.91274,121.638018,50,35,15,8,2,2,9,-2,1025,46,8,20140929170000
207,"Fujiazhuang, Dalian",,38.864647,121.629947,59,33,17,9,6,2,9,-3,1025,43,6,20140929170000
208,"Qixianling, Dalian",,38.856978,121.523169,46,40,10,12,2,2,9,-3,1025,43,6,20140929170000
209,"Lushun, Dalian",,38.808946,121.264063,46,17,7,5,2,2,9,-3,1025,43,6,20140929170000
210,"Jinzhou, Dalian",,39.132192,121.753259,53,36,8,15,2,1,9,-2,1025,46,10,20140929170000
211,"BDA, Dalian",,39.05213,121.782022,61,28,11,9,1,2,9,-3,1025,43,6,20140929170000
212,"D&D Port, Dalian",,39.064087,121.981874,59,13,7,5,1,8,9,-3,1025,43,6,20140929170000
213,Dalian,,38.91478,121.619625,59,33,17,9,6,2,-,-,0,-,-,20140929170000
214,"Bearing Factory, Dandong",,40.068929,124.345703,50,37,17,2,11,14,7,-2,1022,40,11,20140929170000
215,"Financial school, Dandong",,40.158723,124.432593,46,23,18,2,7,6,7,-2,1022,40,11,20140929170000
216,"Yuanbaoshan water, Dandong",,40.149431,124.391698,42,19,17,2,11,11,7,-2,1022,40,11,20140929170000
217,"Experimental Primary School, Dandong",,39.887343,124.158056,50,34,15,3,4,1,7,-2,1022,40,11,20140929170000
218,Dandong,,40.002046,124.360479,50,36,18,3,11,14,7,-2,1022,40,11,20140929170000
1106,"minzhu bridge, Dandong , Dandong",,40.112974,124.373604,50,34,17,3,4,3,7,-2,1022,40,11,20140929170000
1107,"yuanbaoshan, Dandong , Dandong",,40.146298,124.399081,42,19,17,2,11,11,7,-2,1022,40,11,20140929170000
1108,"linjiang houjie, Dandong , Dandong",,40.152757,124.431745,46,23,18,2,7,7,7,-2,1022,40,11,20140929170000
219,"BDA, Panjin",,41.157144,122.06645,53,20,18,7,4,4,4,-6,0,45,4,20140929170000
220,"Xinglongtai, Panjin",,41.140948,122.111343,46,33,11,10,10,4,4,-6,0,45,4,20140929170000
221,"Dingxiang, Panjin",,41.16139,121.928781,50,25,16,15,2,9,4,-6,0,45,4,20140929170000
222,Panjin,,41.122089,122.076206,50,33,13,16,2,9,4,-6,0,45,4,20140929170000
223,"No.3 water company, Yingkou",,40.682052,122.385352,57,32,19,11,11,4,5,1,1028,68,5,20140929170000
224,"Yingkou University, Yingkou",,40.683689,122.388285,50,23,15,10,6,4,5,1,1028,68,5,20140929170000
225,"Botanical garden, Yingkou",,40.711674,122.281568,59,23,15,10,5,3,5,1,1028,68,5,20140929170000
226,Yingkou,,40.668578,122.24059,38,20,13,8,6,4,5,1,1028,68,5,20140929170000
1109,"jinghu west street, Yingkou , Yingkou",,40.653831,122.221943,63,41,17,9,7,4,5,1,1028,68,5,20140929170000
1110,"Daqing Road , Yingkou , Yingkou",,40.709181,122.28243,59,23,15,10,5,3,5,1,1028,68,5,20140929170000
227,"Xishanpo, Huludao",,40.724078,120.921974,72,52,14,17,8,3,4,-6,0,45,4,20140929170000
228,"Huagong hospital, Huludao",,40.755662,120.848435,17,17,14,9,9,12,5,-5,0,44,4,20140929170000
229,"New district park, Huludao",,40.723415,120.853801,38,27,23,11,9,0,4,-6,0,45,4,20140929170000
230,"Lianshan district governement, Huludao",,40.775488,120.872292,30,14,22,9,8,1,4,-6,0,45,4,20140929170000
231,Huludao,,40.712501,120.842107,72,52,23,17,9,12,7,-6,0,26,6,20140929170000
1111,"Dongcheng District , Huludao , Huludao",,40.775362,120.871706,30,14,22,9,8,1,,,0,,,20140929170000
1112,"huagong street, Huludao , Huludao",,40.758901,120.842935,30,19,11,17,6,12,,,0,,,20140929170000
232,Anshan,,41.110466,123.000147,147,57,6,22,16,13,1,0,1027,93,3,20140929170000
233,"Qianshan Park, Anshan",,41.033486,123.143897,55,21,12,7,5,2,1,0,1027,93,2,20140929170000
234,"Tiexi, Anshan",,41.121636,122.97506,70,39,6,12,16,14,1,0,1027,93,2,20140929170000
235,"Taiping Station, Anshan",,41.153322,123.052433,134,63,6,11,17,11,1,0,1027,93,2,20140929170000
236,"Central Station, Anshan",,41.106731,123.002736,72,42,8,12,11,5,1,0,1027,93,2,20140929170000
237,"Shengou Temple, Anshan",,41.137157,123.031901,147,57,5,22,7,10,1,0,1027,93,3,20140929170000
1113,"Qianshan , Anshan , Anshan",,41.014521,123.122538,55,21,12,7,5,2,1,0,1027,93,2,20140929170000
1114,"Tiexi Sandao jie, Anshan",,41.103264,122.978613,76,44,6,13,16,13,1,0,1027,93,3,20140929170000
1115,"Taiyang, Anshan",,41.094946,123.019037,85,51,6,10,13,5,1,0,1027,93,3,20140929170000
238,Fushun,,41.883028,123.962984,76,62,8,14,27,7,1,0,1027,93,3,20140929170000
239,"Shenfu new town, Fushun",,41.804638,123.631684,57,15,8,8,2,7,1,0,1027,93,3,20140929170000
240,"Reservoir, Fushun",,41.8464,123.802857,63,18,9,9,21,6,1,0,1027,93,2,20140929170000
241,"Train Station, Fushun",,41.89726,124.017604,72,43,7,9,6,5,1,0,1027,93,2,20140929170000
242,"Dongzhou, Fushun",,41.855578,124.044738,63,69,9,10,6,4,1,0,1027,93,2,20140929170000
243,"Xinhua, Fushun",,41.888598,123.932932,85,48,6,10,2,5,1,0,1027,93,2,20140929170000
244,"Wanghua, Fushun",,41.888825,123.093723,95,36,7,16,5,7,1,0,1027,93,2,20140929170000
245,Benxi,,41.296267,123.772371,50,24,19,20,11,8,1,0,1027,93,3,20140929170000
246,"Weining, Benxi",,41.349663,123.826071,30,26,12,2,2,40,2,0,1027,87,1,20140929170000
247,"Occupational disease hospital, Benxi",,41.305432,123.74645,34,13,10,19,9,2,1,0,1027,93,2,20140929170000
248,"Dongming, Benxi",,41.292369,123.765058,76,22,10,15,14,16,1,0,1027,93,3,20140929170000
249,"Caitun, Benxi",,41.301591,123.746039,42,30,11,14,4,4,1,0,1027,93,3,20140929170000
250,"Xihu, Benxi",,41.331332,123.773537,30,12,19,3,2,8,1,0,1027,93,3,20140929170000
251,"Dayu, Benxi",,41.308091,123.818442,50,24,11,19,10,3,1,0,1027,93,3,20140929170000
1116,"Xinlitun , Benxi , Benxi",,41.264104,123.811523,38,19,8,20,11,2,1,0,1027,93,3,20140929170000
252,Jinzhou,,41.097169,121.132647,74,54,17,21,52,9,7,-6,1029,26,6,20140929170000
253,"Beihu Park, Jinzhou",,41.141447,121.137339,42,22,18,8,8,4,7,-6,1029,26,6,20140929170000
254,"Monitoring station, Jinzhou",,41.113441,121.140911,42,20,15,11,6,3,7,-6,1029,26,6,20140929170000
255,"Nanshan, Jinzhou",,41.570689,122.046753,57,37,17,13,8,4,7,-6,1029,26,6,20140929170000
1118,"BDA, Jinzhou",,40.853915,121.061756,61,50,8,21,52,4,7,-6,1029,26,6,20140929170000
1119,"tianan street, Jinzhou , Jinzhou",,41.124468,121.126119,38,30,14,17,7,3,7,-6,1029,26,6,20140929170000
1120,"baigu street, Jinzhou, Jinzhou",,41.12214,121.21027,74,54,10,16,7,9,7,-6,1029,26,6,20140929170000
1121,Chaoyang,,41.576022,120.456053,59,44,10,10,12,5,-,-,0,-,-,20140929170000
472,"Fukang road, Tianjin",,39.098136,117.157621,63,33,7,10,5,7,11,0,1028,47,6,20140929170000
1122,"Agricultural Area, Chaoyang",,43.93968,125.247371,46,22,6,5,4,4,7,-2,1029,38,2,20140929170000
1123,Tieling,,42.225197,123.732174,93,54,11,8,19,6,-,-,0,-,-,20140929170000
260,"Waterpark, Tieling",,42.297031,123.880748,46,30,5,6,8,6,1,0,1027,93,3,20140929170000
1124,"Huigong Street West , Tieling , Tieling",,42.311115,123.845614,93,54,15,6,19,4,1,0,1027,93,3,20140929170000
1125,Liaoyang,,41.269312,123.24268,72,53,8,14,32,12,-,-,0,-,-,20140929170000
1126,"Riverside Road , Liaoyang , Liaoyang",,41.176884,123.419859,63,36,6,11,12,5,1,0,1027,93,3,20140929170000
1127,Fuxin,,42.02373,121.675733,104,54,10,19,22,7,-,-,0,-,-,20140929170000
266,"Agricultural Area, Fuxin",,42.071291,121.696445,53,22,10,9,15,3,2,-7,0,45,2,20140929170000
267,"Industrial Area, Fuxin",,42.041052,121.715554,46,41,9,13,2,7,2,-7,0,45,2,20140929170000
1128,"Yulong Metro , Fuxin , Fuxin",,42.035091,121.666531,50,52,6,14,9,7,2,-7,0,45,2,20140929170000
1129,"Dongyuan , Fuxin , Fuxin",,42.029119,121.681553,104,54,10,18,22,3,2,-7,0,45,2,20140929170000
268,"City Monitoring Station, Jinan",,36.662614,117.054645,89,43,18,14,33,7,15,11,1024,71,5,20140929170000
269,"Shandong Institute of Economics, Jinan",,36.63819,117.074975,30,35,22,4,24,6,15,11,1024,71,5,20140929170000
270,"Quancheng Plaza, Jinan",,36.661711,117.027043,-,-,-,-,-,-,-,-,0,-,-,20140929170000
271,"Kegansuo, Jinan",,36.611582,116.99384,61,34,22,6,15,7,15,11,1024,71,5,20140929170000
272,"Agriculture Science Institute, Jinan",,36.663115,116.95063,70,59,19,32,50,13,15,11,1024,71,5,20140929170000
273,"Lanxiang technical school, Jinan",,36.700421,116.95342,57,34,18,14,23,7,15,11,1024,71,5,20140929170000
274,"Chemical factory, Jinan",,36.687463,116.994406,55,51,19,28,54,7,15,11,1024,71,5,20140929170000
275,"Provincial Seed Warehouse, Jinan",,36.685706,117.066348,74,54,18,18,26,11,15,11,1024,71,5,20140929170000
276,"Shandong Architecture University, Jinan",,36.681732,117.191868,65,37,20,7,21,9,15,11,1024,71,5,20140929170000
277,"Baosheng cable company, Jinan",,36.724638,117.130855,61,35,18,19,33,5,15,11,1024,71,5,20140929170000
278,"Paomaling, Jinan",,36.47869,117.219027,78,37,28,15,22,17,15,11,1024,71,5,20140929170000
279,"Changqing District Communist Party School, Jinan",,36.548797,116.770859,63,41,30,11,37,11,15,11,1024,71,5,20140929170000
280,"BDA, Jinan",,36.685835,117.130851,53,51,27,20,19,12,15,11,1024,71,5,20140929170000
281,Jinan,,36.651426,117.126625,89,62,27,32,50,20,15,11,1024,71,5,20140929170000
282,"Shinan district No. 1, Qingdao",,36.065534,120.40839,42,40,27,2,4,3,12,6,1022,67,10,20140929170000
283,"Shibei district No. 1, Qingdao",,36.069919,120.341264,55,29,23,9,8,7,12,6,1022,67,10,20140929170000
284,"Shibei district No. 2, Qingdao",,36.104146,120.36637,9,40,71,1,5,5,13,6,1022,63,10,20140929170000
285,"Huangdao District No. 1, Qingdao",,35.958935,120.191041,50,54,27,12,15,5,12,6,1022,67,10,20140929170000
286,"Huangdao District No. 2, Qingdao",,35.970487,120.160339,46,47,26,19,11,8,12,6,1022,67,10,20140929170000
287,"Laoshan District No. 1, Qingdao",,36.085881,120.451839,68,3,33,10,12,7,12,6,1022,67,10,20140929170000
288,"Laoshan District No. 2, Qingdao",,36.091075,120.490388,42,19,35,13,7,2,12,6,1022,67,10,20140929170000
289,"Licang District No. 1, Qingdao",,36.184872,120.38533,38,34,25,9,5,6,12,6,1022,67,10,20140929170000
290,"Licang District No. 2, Qingdao",,36.154369,120.432287,53,27,30,4,6,5,13,6,1022,63,10,20140929170000
291,"Chengyang District No. 1, Qingdao",,36.308502,120.40008,42,11,25,9,9,4,12,6,1022,67,10,20140929170000
292,"Chengyang District No. 2, Qingdao",,36.308429,120.465806,57,38,29,9,9,3,12,6,1022,67,10,20140929170000
293,Qingdao,,36.067358,120.387773,68,54,23,9,15,8,12,6,1022,67,10,20140929170000
294,"Zichuan Meteo. Stations, Zibo",,36.637916,117.960222,55,45,25,14,24,9,12,8,0,75,4,20140929170000
295,"Dongfeng Chemical factory, Zibo",,36.838576,118.050785,97,31,11,13,56,11,12,8,0,75,4,20140929170000
296,"Boshan shuangshan, Zibo",,36.497278,117.853581,78,37,23,9,10,8,12,8,0,75,4,20140929170000
297,"Linzi Putian Park, Zibo",,36.820171,118.315022,61,27,27,25,40,10,12,8,0,75,4,20140929170000
298,"Qilu Petrochemical, Zibo",,36.765907,118.254967,59,33,24,12,7,7,12,8,0,75,4,20140929170000
299,"Zhoucun sanjin Group, Zibo",,36.8044,117.85694,46,26,30,12,7,11,12,8,0,75,4,20140929170000
300,"Vocational College, Zibo",,36.825208,117.926305,34,27,21,13,10,8,12,8,0,75,4,20140929170000
301,"BDA, Zibo",,36.905214,118.021824,63,32,21,4,4,4,12,8,0,75,4,20140929170000
302,Zibo,,36.813618,118.060948,97,590,25,16,56,12,12,8,0,75,4,20140929170000
303,"Shizhong District Government, Zaozhuang",,34.850397,117.569545,99,56,43,4,14,5,19,14,1020,63,3,20140929170000
304,"Sewage treatment plant, Zaozhuang",,34.818951,117.595345,144,64,25,6,15,5,19,14,1020,63,3,20140929170000
305,"Xuecheng EPA, Zaozhuang",,34.790214,117.272455,72,52,38,7,10,4,19,14,1020,63,3,20140929170000
306,"Yicheng District government, Zaozhuang",,34.772806,117.57647,149,61,45,8,9,4,19,14,1020,63,3,20140929170000
307,"Taierzhuang EPA, Zaozhuang",,34.579462,117.741067,119,63,39,6,5,6,19,14,1020,63,3,20140929170000
308,"Shanting EPA, Zaozhuang",,35.070373,117.457691,68,35,47,6,9,8,19,14,1020,63,3,20140929170000
309,"City EPA, Zaozhuang",,34.809466,117.320608,95,29,45,5,12,3,19,14,1020,63,3,20140929170000
310,"High-tech zone, Zaozhuang",,34.821779,117.363495,74,48,40,6,21,4,19,14,1020,63,3,20140929170000
311,Zaozhuang,,34.809693,117.329634,149,63,47,8,21,8,19,14,1020,63,3,20140929170000
312,"City EPA, Dongying",,37.432052,118.672871,55,20,24,3,5,7,15,9,0,66,9,20140929170000
313,"Vocational College, Dongying",,37.438653,118.630567,21,22,26,4,8,4,15,9,0,66,9,20140929170000
314,"Xianhe Oil Production Plant, Dongying",,37.442419,118.510222,46,35,25,7,8,3,15,9,0,66,9,20140929170000
315,"Gengjin village, Dongying",,37.445072,118.55839,50,36,24,1,1,3,15,9,0,66,9,20140929170000
316,"City environmental company, Dongying",,37.466599,118.508012,34,56,24,4,2,3,15,9,0,66,9,20140929170000
317,"Hekou  district, Dongying",,37.883786,118.522171,53,22,26,4,7,2,15,9,0,66,9,20140929170000
318,"BDA, Dongying",,37.435162,118.701827,38,33,30,2,4,8,15,9,0,66,9,20140929170000
319,Dongying,,37.435429,118.680434,55,56,26,7,8,7,15,9,0,66,9,20140929170000
320,"Bearing Factory, Yantai",,37.544126,121.376956,68,31,15,23,7,3,,,0,,,20140929170000
321,"Xijiao Chemical Station, Yantai",,37.547148,121.323695,72,30,18,15,16,6,,,0,,,20140929170000
322,"Fushan Monitoring Stations, Yantai",,37.472245,121.260116,-,-,-,-,-,-,,,0,,,20140929170000
323,"Mouping EPA, Yantai",,37.376681,121.586509,68,40,20,1,5,4,,,0,,,20140929170000
324,"Laishan EPA, Yantai",,37.478422,121.44829,42,26,28,6,2,2,,,0,,,20140929170000
325,"Laishan Shengquan Industrial Park, Yantai",,37.4271,121.408386,78,34,25,3,5,3,,,0,,,20140929170000
326,"China Agricultural University, Yantai",,37.423568,121.511838,91,34,24,5,5,4,,,0,,,20140929170000
327,"BDA EPA, Yantai",,37.560827,121.257954,76,55,20,6,5,4,,,0,,,20140929170000
329,"Dajijia, Yantai",,37.673849,121.071465,65,31,20,6,10,3,,,0,,,20140929170000
330,Yantai,,37.464793,121.453142,72,40,18,15,16,6,14,10,0,74,11,20140929170000
331,"BDA, Weifang",,36.720022,119.054064,34,31,28,6,6,3,,,0,,,20140929170000
332,"Business School, Weifang",,36.682442,119.105909,34,16,29,6,9,2,,,0,,,20140929170000
333,"Hanting District, Weifang",,36.773484,119.199705,42,30,32,2,5,2,,,0,,,20140929170000
334,"Gongda Company, Weifang",,36.657635,119.167266,42,38,31,4,7,1,,,0,,,20140929170000
335,"City EPA, Weifang",,36.701272,119.16838,61,39,26,2,6,6,,,0,,,20140929170000
336,"City Arbitration Committee, Weifang",,36.702422,119.145927,30,33,38,6,9,4,,,0,,,20140929170000
337,"Xinhui Group, Weifang",,36.641581,119.11679,46,30,32,6,7,3,,,0,,,20140929170000
338,"Jincheng Middle School, Weifang",,36.773611,119.115539,46,19,38,3,5,2,,,0,,,20140929170000
339,Weifang,,36.707217,119.167638,46,38,38,6,9,4,15,9,0,66,9,20140929170000
340,"City Monitoring Station, Jining",,35.408443,116.623917,117,60,34,18,15,9,21,16,1019,65,2,20140929170000
1090,"Shengdi Hollidays Resort, Jining",,35.424746,116.699093,152,57,34,12,18,5,21,16,1019,65,2,20140929170000
341,"Sewage treatment plant, Jining",,35.364286,116.609177,152,58,42,11,23,8,21,16,1019,65,2,20140929170000
342,"Electrochemical Factory, Jining",,35.390473,116.552956,117,52,40,22,15,9,21,16,1019,65,2,20140929170000
343,"Rencheng BDA, Jining",,35.390484,116.662995,151,52,48,13,11,8,21,16,1019,65,2,20140929170000
344,"Agricultural School, Jining",,35.44235,116.601682,112,65,30,14,17,6,21,16,1019,65,2,20140929170000
345,"BDA Huojucheng, Jining",,35.436377,116.642953,129,55,41,16,10,11,21,16,1019,65,2,20140929170000
346,Jining,,35.414473,116.59239,152,65,34,12,18,5,21,16,1019,65,2,20140929170000
347,"Taishan monitoring station, Taian",,36.194362,117.159648,70,49,20,6,13,10,9,9,0,98,12,20140929170000
348,"Shandong Electric Power School, Taian",,36.176071,117.12413,61,22,23,8,17,10,9,9,0,98,12,20140929170000
349,"Population Education school, Taian",,36.194417,117.104131,74,56,26,6,14,9,9,9,0,98,12,20140929170000
350,"Houfeng company, Taian",,36.204863,117.19015,61,68,19,6,14,9,9,9,0,98,12,20140929170000
351,"Nongda new campus, Taian",,36.170179,117.165191,63,32,13,7,13,14,9,9,0,98,12,20140929170000
352,"Transportation technical school, Taian",,36.202126,117.047068,72,47,14,5,11,10,9,9,0,98,12,20140929170000
353,"ICT Technology, Taian",,36.116621,117.107458,63,23,16,6,8,11,9,9,0,98,12,20140929170000
354,Taian,,36.200502,117.093682,74,68,26,8,17,14,9,9,0,98,12,20140929170000
355,"City Environmental Monitoring Station, Weihai",,37.513939,122.067058,34,37,26,5,3,3,14,10,0,74,11,20140929170000
356,"Woodworking Factory, Weihai",,37.325455,122.160777,38,34,24,7,10,2,14,10,0,74,11,20140929170000
357,"Lantian Hotel, Weihai",,37.514641,122.146276,57,26,22,13,5,5,14,10,0,74,11,20140929170000
358,"Zhang village government, Weihai",,37.485561,122.049436,21,34,17,11,4,3,14,10,0,74,11,20140929170000
359,"Gao District Bank, Weihai",,37.534919,122.056294,57,40,24,3,3,3,14,10,0,74,11,20140929170000
360,"Huxia technical school, Weihai",,37.427951,122.130811,57,50,22,7,6,4,14,10,0,74,11,20140929170000
361,Weihai,,37.5141,122.125477,57,50,26,13,10,5,14,10,0,74,11,20140929170000
362,"City governement square, Rizhao",,35.4075,119.526008,70,49,30,10,6,3,15,12,1022,78,4,20140929170000
363,"Port Authority, Rizhao",,35.381297,119.55396,82,52,31,5,5,4,15,12,1022,78,4,20140929170000
364,"City Monitoring Station, Rizhao",,35.388683,119.496405,78,44,32,7,6,4,15,12,1022,78,4,20140929170000
365,"Professor Garden, Rizhao",,35.462161,119.574193,78,54,33,6,5,4,15,12,1022,78,4,20140929170000
366,"Vocational and Technical College, Rizhao",,35.441939,119.538187,72,36,37,6,7,3,15,12,1022,78,4,20140929170000
367,"Lanshan EPA branch, Rizhao",,35.293405,119.345716,63,46,12,7,13,4,15,12,1022,78,4,20140929170000
368,"Jinma Industrial Park, Rizhao",,35.373339,119.514108,70,47,29,12,10,4,15,12,1022,78,4,20140929180000
369,Rizhao,,35.416089,119.532316,82,54,37,12,13,4,15,12,1022,78,4,20140929180000
370,"Vegetable oil factory, Laiwu",,36.205028,117.700917,80,30,27,5,4,7,14,11,1024,75,4,20140929180000
371,"Nursing home, Laiwu",,36.266067,117.652769,97,28,22,6,3,11,14,11,1024,75,4,20140929180000
372,"Xinyi middle school, Laiwu",,36.245086,117.739025,91,27,15,3,3,13,14,11,1024,75,4,20140929180000
373,"Risheng International School, Laiwu",,36.208125,117.730959,87,12,30,1,5,6,14,11,1024,75,4,20140929180000
374,"Gangcheng EPA, Laiwu",,36.066836,117.871823,112,60,6,20,49,28,14,11,1024,75,4,20140929180000
375,"City EPA, Laiwu",,36.228913,117.694797,91,25,21,4,3,10,14,11,1024,75,4,20140929180000
376,Laiwu,,36.213688,117.682612,112,60,30,20,49,13,-,-,0,-,-,20140929180000
377,"Lunan Pharmaceutical Factory, Linyi",,35.061671,118.299527,76,45,25,6,6,6,13,10,0,83,5,20140929180000
378,"Yihe compound, Linyi",,35.056752,118.34739,85,50,25,8,11,8,13,10,0,83,5,20140929180000
379,"Linyi University, Linyi",,35.114777,118.293414,74,36,19,7,7,10,13,10,0,83,5,20140929180000
380,City EPA,Nanfang,35.104871,118.353518,91,50,33,5,11,7,13,10,0,83,5,20140929180000
381,"Xinguang woolen factory, Linyi",,34.981004,118.282,97,51,20,4,7,8,13,10,0,83,5,20140929180000
382,"Hongfu Baijiu Factory, Linyi",,34.998788,118.257275,70,52,24,6,7,9,13,10,0,83,5,20140929180000
384,"Hedong insurance company, Linyi",,35.089354,118.40812,85,37,30,7,7,6,13,10,0,83,5,20140929180000
385,"Jianghua vehicule center, Linyi",,35.010082,118.435749,97,55,24,9,11,9,13,10,0,83,5,20140929180000
386,Linyi,,35.10428,118.362202,97,55,33,4,11,10,13,10,0,83,5,20140929180000
387,"Heima group, Dezhou",,37.466063,116.314134,57,27,18,7,7,6,16,12,1023,70,4,20140929180000
388,"Monitoring station, Dezhou",,37.433107,116.377312,53,28,14,4,5,13,16,12,1023,70,4,20140929180000
389,"Supervision Station, Dezhou",,37.449689,116.324709,46,17,14,11,6,16,16,12,1023,70,4,20140929180000
390,"Huayu technical school, Dezhou",,37.462809,116.357559,17,37,21,12,7,11,16,12,1023,70,4,20140929180000
391,"Shuangyi group, Dezhou",,37.478848,116.316362,63,25,20,8,4,7,16,12,1023,70,4,20140929180000
392,Dezhou,,37.434959,116.363366,63,37,21,12,6,16,16,12,1023,70,4,20140929180000
393,"Dongchang District Government, Liaocheng",,36.444473,115.971733,70,32,18,16,23,16,21,16,1020,67,6,20140929180000
394,"Light Machinery Factory No. 2, Liaocheng",,36.456788,116.002383,70,47,22,17,23,12,21,16,1020,67,6,20140929180000
395,"City committee communist party school, Liaocheng",,36.479537,115.989288,82,36,14,24,59,15,21,16,1020,67,6,20140929180000
396,"Customs, Liaocheng",,36.431933,115.956974,78,53,18,17,25,14,21,16,1020,67,6,20140929180000
397,"Hongshun Garden, Liaocheng",,36.471124,115.960319,76,74,16,32,50,14,21,16,1020,67,6,20140929180000
398,"BDA, Liaocheng",,36.459407,116.043621,85,54,19,13,24,13,21,16,1020,67,6,20140929180000
399,Liaocheng,,36.456792,115.991051,82,74,22,32,59,16,21,16,1020,67,6,20140929180000
400,"City EPA, Binzhou",,37.38024,118.026895,50,20,12,7,9,10,15,11,1024,73,4,20140929180000
401,"Beizhong new school, Binzhou",,37.38374,117.988996,153,19,10,4,7,15,15,11,1024,73,4,20140929180000
402,"No.2 water factory, Binzhou",,37.36155,118.002648,57,26,8,8,28,10,15,11,1024,73,4,20140929180000
403,"Keling Chemical factory, Binzhou",,37.396138,117.943609,53,16,13,6,2,10,15,11,1024,73,4,20140929180000
404,"Yinhe logistics company, Binzhou",,37.356122,117.943326,30,26,4,4,5,8,15,11,1024,73,4,20140929180000
405,"Bilin compond, Binzhou",,37.36815,117.978964,46,18,11,8,4,8,15,11,1024,73,4,20140929180000
406,Binzhou,,37.382639,117.976606,153,26,12,8,28,15,15,11,1024,73,4,20140929180000
407,"Bureau of Meteorology, Heze",,35.248625,115.428775,152,77,32,12,12,10,15,13,0,87,4,20140929180000
408,"Sewage treatment plant, Heze",,35.222517,115.531511,155,69,32,12,11,10,15,13,0,87,4,20140929180000
409,"Municipal CPPCC, Heze",,35.237125,115.480591,151,69,37,10,26,7,15,13,0,87,4,20140929180000
410,"Huarun Pharmaceutical Company, Heze",,35.261463,115.524873,144,66,34,6,17,9,15,13,0,87,4,20140929180000
411,"Heze University, Heze",,35.269706,115.460934,149,76,39,17,12,10,15,13,0,87,4,20140929180000
412,Heze,,35.233354,115.486503,153,77,41,17,26,10,15,13,0,87,4,20140929180000
413,"Shiji Park, Shijiazhuang",,38.03155,114.547873,89,43,14,2,2,3,16,11,1027,72,3,20140929180000
414,"Xinan College, Shijiazhuang",,38.012764,114.473163,82,45,12,1,2,3,16,11,1027,72,3,20140929180000
415,"Chemical College, Shijiazhuang",,38.055503,114.569816,85,33,5,3,1,2,16,11,1027,72,3,20140929180000
416,"Worker hospital, Shijiazhuang",,38.051784,114.461209,80,29,19,2,2,3,16,11,1027,72,3,20140929180000
417,"Northwest Water Company, Shijiazhuang",,38.140638,114.508038,82,31,14,4,1,3,16,11,1027,72,3,20140929180000
418,"High-tech zone, Shijiazhuang",,38.040482,114.610775,74,47,11,2,2,2,16,11,1027,72,3,20140929180000
419,"Fenglong Montain, Shijiazhuang",,37.910829,114.360264,53,15,26,9,14,8,16,11,1027,72,3,20140929180000
1130,"Zhengding Unicom, Shijiazhuang",,38.159458,114.59879,95,52,22,8,6,10,16,11,1027,72,3,20140929180000
1131,"Luancheng Communications, Shijiazhuang",,37.906534,114.638785,76,38,22,1,11,7,16,11,1027,72,3,20140929180000
1132,"Gaocheng Experimental School, Shijiazhuang",,38.039518,114.867812,68,39,16,6,4,6,16,11,1027,72,3,20140929180000
1133,"Wuji EPA, Shijiazhuang",,38.17862,114.997012,78,40,22,7,6,6,16,11,1027,72,3,20140929180000
1134,"Shenze Power Supply Bureau, Shijiazhuang",,38.197674,115.219126,74,23,11,6,1,6,16,11,1027,72,3,20140929180000
1135,"Zhaoxian EPA, Shijiazhuang",,37.77171,114.775957,117,54,20,10,6,6,16,11,1027,72,3,20140929180000
1136,"Gaoyi County City Hall, Shijiazhuang",,37.623535,114.612729,124,55,23,7,5,5,16,11,1027,72,3,20140929180000
1137,"Zanhuang County City Hall, Shijiazhuang",,37.672898,114.398269,151,72,24,13,10,6,16,11,1027,72,3,20140929180000
1138,"Jingxing Bureau of Meteorology, Shijiazhuang",,38.038788,114.158406,156,69,29,8,4,11,16,11,1027,72,3,20140929180000
1139,"Pingshan Ye River, Shijiazhuang",,38.266657,114.210275,142,57,27,10,4,6,16,11,1027,72,3,20140929180000
420,Shijiazhuang,,38.042926,114.520834,99,48,24,3,2,3,16,11,1027,72,3,20140929180000
421,"No. 12 middle school, Tangshan",,39.659306,118.190271,175,85,5,20,4,10,-,-,0,-,-,20140929180000
422,"Ceramics Company, Tangshan",,39.669255,118.225185,53,44,10,14,12,5,10,-1,1029,47,4,20140929180000
423,"Commodities Bureau, Tangshan",,39.642301,118.191265,65,45,6,10,6,4,10,-1,1029,47,4,20140929180000
424,"Leidazhanzi Station, Tangshan",,39.644375,118.150383,55,39,10,6,4,4,10,-1,1029,47,4,20140929180000
425,"Supply and marketing cooperatives, Tangshan",,39.632334,118.17232,63,40,9,11,5,4,10,-1,1029,47,4,20140929180000
1140,"Guye District City Hall, Tangshan",,39.741379,118.460246,80,50,19,8,8,6,10,-1,1029,47,4,20140929180000
1141,"Kaiping Stations, Tangshan",,39.675246,118.275149,76,53,17,16,9,4,10,0,1028,50,5,20140929180000
1142,"Fengnan District City Hall, Tangshan",,39.5834,118.097454,53,32,13,17,10,15,10,-1,1029,47,4,20140929180000
1143,"Fengrun City Hall, Tangshan",,39.840355,118.175338,82,52,19,9,9,7,10,-1,1029,47,4,20140929180000
1144,"Qianxi EPA, Tangshan",,40.153339,118.317265,38,11,25,6,4,2,10,-1,1029,47,4,20140929180000
1145,"Caofeidian Xinli  Primary School, Tangshan",,39.291232,118.462182,95,48,14,14,1,8,10,-1,1029,47,4,20140929180000
1146,"Zunhua EPA, Tangshan",,40.206249,117.997315,76,49,14,23,2,2,10,-1,1029,47,4,20140929180000
1147,"Qianan No.1 middle school, Tangshan",,40.004248,118.717055,78,28,23,6,1,3,10,-1,1029,47,4,20140929180000
1266,"Luannan County , Tangshan",,39.511132,118.686928,34,24,18,10,9,8,10,-1,1029,47,4,20140929180000
1267,"Yutian County , Tangshan",,39.908249,117.751417,99,61,17,17,22,11,10,-1,1029,47,4,20140929180000
426,Tangshan,,39.632175,118.186472,65,45,13,17,12,15,-,-,0,-,-,20140929180000
427,"City Monitoring Station, Qinhuangdao",,39.958109,119.607773,50,12,17,2,2,2,,,0,,,20140929180000
428,"Beidaihe, Qinhuangdao",,39.829209,119.53194,25,11,17,12,10,2,,,0,,,20140929180000
429,"Shanhai Pass, Qinhuangdao",,40.019298,119.767898,50,15,13,15,23,2,,,0,,,20140929180000
430,"Contruction Plazz, Qinhuangdao",,39.943187,119.542912,34,36,9,11,4,1,,,0,,,20140929180000
431,"City government, Qinhuangdao",,39.93711,119.612769,59,8,4,4,4,2,,,0,,,20140929180000
1148,"Qinglong EPA, Qinhuangdao",,40.419223,118.958002,42,19,27,6,4,1,10,-1,0,47,4,20140929180000
1149,"Changli EPA, Qinhuangdao",,39.714369,119.173237,42,26,20,7,3,1,,,0,,,20140929180000
1268,"Lulong County Bureau of Meteorology , Qinhuangdao",,39.901091,118.904857,63,20,21,8,20,3,10,-1,0,47,4,20140929180000
432,Qinhuangdao,,39.936485,119.606263,59,36,17,11,4,2,-,-,0,-,-,20140929180000
433,"CongTai Park, Handan",,36.620197,114.501891,137,62,19,3,6,1,16,14,0,86,1,20140929180000
434,"City EPA, Handan",,36.618145,114.518822,144,62,19,1,2,7,16,14,0,86,1,20140929180000
435,"East Sewage Factory, Handan",,36.616064,114.548714,122,68,16,7,3,3,16,14,0,86,1,20140929180000
436,"Mine Hospital, Handan",,36.578149,114.509854,119,60,22,9,3,0,16,14,0,86,1,20140929180000
1150,"Fengfeng mine Inland Revenue Department, Handan",,36.423085,114.245994,158,77,26,7,23,0,22,15,0,55,2,20140929180000
1151,"Shexian EPA, Handan",,36.589084,113.692341,114,51,26,14,10,21,,,0,,,20140929180000
1152,"Ci County Vocational Education Center, Handan",,36.380247,114.390119,151,8,34,1,1,6,,,0,,,20140929180000
1153,"Yongnian government guesthouse, Handan",,36.783297,114.502905,132,64,23,9,11,1,16,14,0,86,1,20140929180000
1154,"Wuan BDA, Handan",,36.686223,114.269009,82,59,15,14,1,9,,,0,,,20140929180000
1085,Handan,,36.625683,114.544812,144,68,22,9,6,7,16,14,0,86,1,20140929180000
437,"Road and Bridge Corporation, Xingtai",,37.096415,114.538799,114,52,12,13,2,4,16,14,1025,86,1,20140929180000
438,"Dahuo fontain, Xingtai",,37.097563,114.488001,109,51,14,10,3,1,16,14,1025,86,1,20140929180000
439,"Xingtai Normal College, Xingtai",,37.053404,114.531819,99,55,17,11,3,3,16,14,1025,86,1,20140929180000
440,"Environment protection office, Xingtai",,37.06253,114.490985,97,49,22,19,5,3,16,14,1025,86,1,20140929180000
1155,"Cultural centers within the mound, Xingtai",,37.293569,114.524873,107,52,25,5,1,4,16,14,1025,86,1,20140929180000
383,Xingtai,,37.071066,114.510749,114,57,22,19,5,4,16,14,1025,86,1,20140929180000
441,"City Monitoring Station, Baoding",,38.871737,115.527103,9,49,13,12,14,5,18,13,1024,64,4,20140929180000
442,"Surface water Company, Baoding",,38.842891,115.467326,119,57,18,19,11,9,18,13,1024,64,4,20140929180000
443,"Huadian II, Baoding",,38.896748,115.528102,72,49,12,6,13,4,18,13,1024,64,4,20140929180000
444,"Reception Center, Baoding",,38.911905,115.477301,76,55,11,10,8,7,18,13,1024,64,4,20140929180000
445,"Film Factory, Baoding",,38.876949,115.448383,107,56,15,7,10,14,18,13,1024,64,4,20140929180000
446,"Natatorium, Baoding",,38.863815,115.499212,114,58,14,12,13,15,18,13,1024,64,4,20140929180000
1156,"Qingyuan City Hall, Baoding",,38.771758,115.502189,93,56,12,11,21,9,18,13,1024,64,4,20140929180000
1157,"Xushui EPA, Baoding",,39.025781,115.668023,82,55,17,13,57,7,18,13,1024,64,4,20140929180000
1158,"Zhouzhou Monitoring Stations, Baoding",,39.493241,116.040187,93,46,13,12,12,8,18,13,1024,64,4,20140929180000
1159,"Gaobeidian EPA, Baoding",,39.3329,115.885891,74,56,13,12,19,7,18,13,1024,64,4,20140929180000
447,Baoding,,38.874791,115.471124,119,58,18,19,16,15,18,13,1024,64,4,20140929180000
448,"Century Compound, Zhangjiakou",,40.770279,114.909106,17,6,19,5,18,2,6,-1,1027,48,1,20140929180000
449,"North Pumping Station, Zhangjiakou",,40.874362,114.910119,74,17,22,6,1,3,6,-1,1027,48,1,20140929180000
450,"Hardware Warehouse, Zhangjiakou",,40.81232,114.887119,9,7,38,24,11,13,6,-1,1027,48,1,20140929180000
451,"Tanji Chang, Zhangjiakou",,40.796301,114.89811,13,11,17,6,17,2,6,-1,1027,48,1,20140929180000
1160,"Xiahuayuan EPA, Zhangjiakou",,40.509345,115.302442,72,41,12,17,22,3,6,-1,1027,48,1,20140929180000
1161,"Huaian EPA, Zhangjiakou",,40.68157,114.398646,74,32,15,16,24,0,6,-1,1027,48,1,20140929180000
1162,"Huailai Fuqian Primary School, Zhangjiakou",,40.422204,115.530285,42,37,12,10,1,0,6,-1,1027,48,1,20140929180000
1269,"Zhangbei EPA , Zhangjiakou",,41.166775,114.732369,63,43,13,14,6,1,6,-1,1027,48,1,20140929180000
1270,"Kangbao County Environmental Protection Agency , Zhangjiakou",,41.837866,114.591246,63,35,23,2,6,2,6,-1,1027,48,1,20140929180000
1271,"Guyuan County welfare , Zhangjiakou",,41.669984,115.687401,72,26,15,3,3,3,6,-1,1027,48,1,20140929180000
1272,"Shangyi County Environmental Protection Bureau , Zhangjiakou",,41.086638,113.984688,65,44,12,9,4,3,6,-1,1027,48,1,20140929180000
1273,"Yuxian Secondary School , Zhangjiakou",,39.84699,114.601986,68,36,24,7,7,1,6,-1,1027,48,1,20140929180000
1274,"Yang County Vocational Education Center , Zhangjiakou",,40.106343,114.134732,72,50,19,13,3,8,6,-1,1027,48,1,20140929180000
1275,"Wan county Environmental Protection Agency , Zhangjiakou",,40.770459,114.75033,-,18,24,6,2,2,6,-1,1027,48,1,20140929180000
473,"Nankou road, Tianjin",,39.174022,117.199688,59,40,6,13,8,6,10,-1,1028,47,5,20140929180000
1276,"Zhuolu County Environmental Protection Agency , Zhangjiakou",,40.374273,115.221393,76,31,17,1,3,1,6,-1,1027,48,1,20140929180000
452,Zhangjiakou,,40.825744,114.893659,74,17,38,24,18,13,6,-1,1027,48,1,20140929180000
453,"Railway, Chengde",,40.917557,117.972331,61,50,19,15,4,1,6,-1,1030,49,2,20140929180000
454,"Cultural Center, Chengde",,40.974625,117.824437,55,14,15,10,2,1,6,-1,1030,49,2,20140929180000
455,"Bank of China, Chengde",,40.985582,117.958304,78,25,15,11,1,2,6,-1,1030,49,2,20140929180000
456,"BDA, Chengde",,40.937567,117.969325,55,38,4,15,11,4,6,-1,1030,49,2,20140929180000
457,"Ligong, Chengde",,41.012579,117.94428,117,25,15,5,1,2,6,-1,1030,49,2,20140929180000
1163,"Chengde County EPA, Chengde",,40.776643,118.17646,87,144,10,9,1,3,6,-1,1030,49,2,20140929180000
1164,"Xinglong County City Hall, Chengde",,40.424301,117.513488,61,22,21,9,7,2,6,-1,1030,49,2,20140929180000
1165,"Luanping EPA, Chengde",,40.950792,117.350715,59,23,23,1,1,2,6,-1,1030,49,2,20140929180000
1166,"Fengning County City Hall, Chengde",,41.216739,116.658037,55,30,18,1,1,3,6,-1,1030,49,2,20140929180000
1277,"Longhua EPA , Chengde",,41.311956,117.739605,97,27,18,2,5,2,6,-1,1030,49,2,20140929180000
458,Chengde,,40.955652,117.968737,117,50,19,15,11,4,6,-1,1030,49,2,20140929180000
459,"Municipal EPB, Cangzhou",,38.323507,116.876746,46,40,17,7,4,2,10,-1,1029,47,4,20140929180000
460,"Cangxian Urban Construction Bureau, Cangzhou",,38.299495,116.890734,57,54,10,6,6,4,10,-1,1029,47,4,20140929180000
461,"TV Broadcast Station, Cangzhou",,38.325525,116.863761,87,40,10,10,3,2,10,-1,1029,47,4,20140929180000
1167,"Qing County City Hall, Cangzhou",,38.589643,116.815876,80,21,1,11,5,0,10,-1,1029,47,4,20140929180000
1168,"Poyoushi City Hall, Cangzhou",,38.089516,116.590575,57,40,12,8,2,1,10,-1,1029,47,4,20140929180000
1169,"Huanghua Finance Bureau Training Center, Cangzhou",,38.377793,117.343356,85,64,20,6,18,5,10,-1,1029,47,4,20140929180000
462,Cangzhou,,38.305035,116.844625,87,40,17,10,5,4,10,-1,1029,47,4,20140929180000
463,"Environmental Monitoring Supervision Center, Langfang",,39.558157,116.720995,78,53,15,9,16,7,10,-1,1029,47,4,20140929180000
464,"TCM Medical Material Company, Langfang",,39.519096,116.689914,72,60,10,13,17,13,10,-1,1029,47,4,20140929180000
465,"BDA, Langfang",,39.576175,116.779041,85,60,6,16,23,12,10,-1,1029,47,4,20140929180000
466,"North China Institute of Aerospace, Langfang",,39.53517,116.743027,-,-,-,-,-,-,-,-,0,-,-,20140929180000
1170,"Guan Party School, Langfang",,39.446185,116.311026,89,53,13,16,10,9,10,-1,1029,47,4,20140929180000
1171,"Xianghe EPA, Langfang",,39.76725,117.015252,97,54,10,10,6,6,10,-1,1029,47,4,20140929180000
1172,"Wenan County EPA, Langfang",,38.880927,116.47001,80,51,13,17,6,3,10,-1,1029,47,4,20140929180000
1173,"Three Rivers Department of Transportation, Langfang",,39.989419,117.091528,74,69,11,11,6,4,10,-1,1029,47,4,20140929180000
1278,"Yongqing EPA , Langfang",,39.329071,116.510917,76,56,12,19,13,10,10,-1,1029,47,4,20140929180000
1279,"Dacheng EPA, Langfang",,38.712628,116.665751,91,44,16,15,13,7,10,-1,1029,47,4,20140929180000
467,Langfang,,39.539148,116.689668,85,60,15,16,23,13,10,-1,1029,47,4,20140929180000
468,"Hengshui City EPB, Hengshui",,37.739679,115.695929,34,35,19,8,1,3,13,9,0,74,3,20140929180000
568,Nanjing,,32.058179,118.802061,78,35,24,8,3,5,21,19,1017,88,4,20140929180000
469,"Environmental Monitoring Station, Hengshui",,37.738593,115.648837,72,43,20,5,1,4,13,9,0,74,3,20140929180000
470,"Electrical Machine North Factory, Hengshui",,37.758686,115.70094,76,33,19,8,3,6,13,9,0,74,3,20140929180000
1174,"Anping EPA, Hengshui",,38.238559,115.537988,74,42,17,13,3,6,13,9,0,74,3,20140929180000
1175,"Jizhou EPA, Hengshui",,37.548552,115.58679,87,36,24,6,3,4,13,9,0,74,3,20140929180000
1280,"Zaoqiang EPA, Hengshui",,37.520698,115.714936,72,48,42,9,3,3,13,9,0,74,3,20140929180000
1281,"Wuyi EPA, Hengshui",,37.801554,115.898697,74,47,18,7,6,2,13,9,0,74,3,20140929180000
1282,"Wuqiang EPA , Hengshui",,38.03557,115.959767,63,39,18,1,7,7,13,9,0,74,3,20140929180000
1283,"Raoyang EPA , Hengshui",,38.230652,115.741041,74,42,20,9,7,4,13,9,0,74,3,20140929180000
1284,"Gucheng County , Hengshui",,37.347569,115.966707,78,39,21,10,3,4,13,9,0,74,3,20140929180000
471,Hengshui,,37.739562,115.676066,76,53,20,9,16,6,13,9,0,74,3,20140929180000
1176,"Xinji City Hall, Xinji",,37.949711,115.230084,-,-,-,-,-,-,-,-,0,-,-,20140929180000
474,"Qinjian street, Tianjin",,39.166588,117.15104,61,35,9,11,7,5,10,-1,1028,47,5,20140929180000
475,"Nanjing Road, Tianjin",,39.120958,117.195112,53,40,9,9,8,5,10,-1,1028,47,5,20140929180000
476,"Dazhigu No.8 road, Tianjin",,39.111811,117.25147,57,43,9,9,8,4,10,-1,1028,47,5,20140929180000
477,"Qianjin street, Tianjin",,39.09371,117.207981,61,38,10,12,10,5,10,-1,1028,47,5,20140929180000
478,"Huaihe street, Tianjin",,39.227167,117.191293,72,34,6,18,13,7,10,-1,1028,47,5,20140929180000
479,"Xiangshan street, Tianjin",,39.134752,117.275125,59,38,11,9,8,5,10,-1,1028,47,5,20140929180000
480,"Yuejin Road, Tianjin",,39.088177,117.320884,34,31,7,13,6,2,10,-1,1028,47,5,20140929180000
482,"No.4 street, Tianjin",,39.035228,117.713424,50,22,14,17,5,6,10,-1,1028,47,5,20140929180000
483,"Yongming road, Tianjin",,38.840392,117.463805,42,49,10,12,11,5,10,-1,1028,47,5,20140929180000
484,"Xinhua street, Tianjin",,39.138671,117.010083,53,44,8,7,11,18,10,-1,1028,47,5,20140929180000
485,"Jingu Road, Tianjin",,38.985659,117.381254,59,53,8,7,15,12,10,-1,1028,47,5,20140929180000
486,"Tanggu Yingkou street, Tianjin",,39.021768,117.656454,42,30,14,14,14,9,10,-1,1029,47,6,20140929180000
487,"Hexi Yijing road, Tianjin",,39.248392,117.798043,57,44,11,12,16,10,10,-1,1028,47,5,20140929180000
488,"Jianshe Road, Tianjin",,39.720075,117.310588,76,49,8,22,6,7,10,-1,1028,47,5,20140929180000
489,"Quanzhou South road, Tianjin",,39.373857,117.050329,68,50,7,3,9,8,10,-1,1028,47,5,20140929180000
490,"Donghuan road, Tianjin",,40.043144,117.451062,25,15,19,7,4,5,10,-1,1028,47,5,20140929180000
491,"Tuanpowa, Tianjin",,38.920418,117.16299,42,43,15,11,9,15,10,-1,1028,47,5,20140929180000
493,"Beiwei No.2 road, Tianjin",,38.943857,116.920624,53,50,13,17,9,7,10,-1,1028,47,5,20140929180000
494,"Haitai fazhan No.2 road, Tianjin",,39.079608,117.096583,38,16,9,13,11,6,10,-1,1028,47,5,20140929180000
495,"Hangtian road, Tianjin",,39.152244,117.381309,-,-,-,-,-,-,-,-,0,-,-,20140929180000
496,"Hanbei road, Tianjin",,39.159768,117.770477,25,19,13,11,8,5,10,-1,1028,47,5,20140929180000
497,"Baobai highway, Tianjin",,39.51757,117.349635,-,-,-,-,-,-,-,-,0,-,-,20140929180000
498,Tianjin,,39.085164,117.207281,61,40,10,12,10,5,10,-1,1028,47,5,20140929180000
499,"Wolong bridge, Hangzhou",,30.24371,120.132762,76,20,15,11,3,7,22,19,1015,83,2,20140929180000
500,"Hemu primary school, Hangzhou",,30.309669,120.124507,85,32,18,11,3,11,22,19,1015,83,2,20140929180000
501,"Zhejiang Agricultural University, Hangzhou",,30.265601,120.197583,104,41,14,18,4,9,22,19,1015,83,2,20140929180000
502,"Xiasha, Hangzhou",,30.303516,120.352618,114,29,11,10,6,8,22,19,1015,83,2,20140929180000
503,"Yunqi, Hangzhou",,30.178555,120.093142,46,15,14,7,2,8,22,19,1015,83,2,20140929180000
504,"Xixi, Hangzhou",,30.272425,120.068144,70,6,14,8,2,8,22,19,1015,83,2,20140929180000
505,"Chengxiang town, Hangzhou",,30.179493,120.274184,82,38,12,13,5,11,22,19,1015,83,2,20140929180000
506,"Qiandao lake, Hangzhou",,29.638139,119.031092,68,15,31,3,4,6,22,19,1015,83,2,20140929180000
507,"Linping town, Hangzhou",,30.415948,120.305059,55,53,26,13,5,9,23,19,1014,78,4,20140929180000
509,"No.2 Middle School, Hangzhou",,30.044303,119.956356,38,13,15,3,3,9,22,19,1015,83,2,20140929180000
510,"City Hall, Hangzhou",,30.234185,119.723503,55,20,44,5,3,8,22,19,1015,83,2,20140929180000
511,"No. 4 middle school, Hangzhou",,30.229428,119.699591,61,0,-,1,2,9,22,19,1015,83,2,20140929180000
512,Hangzhou,,30.271756,120.159765,104,41,18,18,4,11,22,19,1015,83,2,20140929180000
513,"City Station, Wenzhou",,28.009715,120.679129,114,53,24,12,7,7,23,22,0,94,1,20140929180000
514,"Ouhai, Wenzhou",,28.001846,120.641982,122,62,18,12,6,11,23,22,0,94,1,20140929180000
515,"Longwan, Wenzhou",,27.968122,120.768393,95,55,29,8,3,7,23,22,0,94,1,20140929180000
516,"Nanpu, Wenzhou",,27.981763,120.683685,112,63,21,9,9,9,23,22,0,94,1,20140929180000
517,Wenzhou,,27.990985,120.703425,122,63,29,12,9,11,23,22,0,94,1,20140929180000
518,"Monitoring station, Jiaxing",,30.75437,120.767373,102,48,25,14,9,9,23,21,1014,88,6,20140929180000
519,"Jiaxing University, Jiaxing",,30.745099,120.735004,132,55,17,17,12,9,23,21,1014,88,6,20140929180000
520,"Qinghe Primary School, Jiaxing",,30.775685,120.747969,119,49,17,12,19,8,23,21,1014,88,6,20140929180000
521,Jiaxing,,30.751627,120.762862,132,55,25,17,19,9,23,21,1014,88,6,20140929180000
522,"Chengbei water plant, Huzhou",,30.891155,120.096593,59,21,20,4,2,10,23,21,1014,88,6,20140929180000
523,"Jishan new village, Huzhou",,30.859939,120.120168,89,32,19,5,3,10,23,21,1014,88,6,20140929180000
524,"Town west water plant, Huzhou",,30.862371,120.084577,82,38,13,4,4,10,23,21,1014,88,6,20140929180000
525,Huzhou,,30.892304,120.091694,89,38,20,5,4,10,23,21,1014,88,6,20140929180000
526,"Donghu middle school, Shaoxing",,29.990447,120.647547,104,49,18,17,18,16,22,19,1015,83,2,20140929180000
527,"City EPA station, Shaoxing",,30.001695,120.584318,87,47,15,20,17,15,22,19,1015,83,2,20140929180000
528,"Chengdong BDA committee, Shaoxing",,29.986643,120.613578,114,50,14,12,11,7,22,20,1015,88,3,20140929180000
529,"Paojiang station, Shaoxing",,30.07574,120.62154,107,54,15,16,14,9,22,20,1015,88,3,20140929180000
530,"Shaoxing technical school, Shaoxing",,29.930983,120.577131,189,0,7,19,5,11,22,19,1015,83,2,20140929180000
531,"Library, Shaoxing",,29.706266,120.253183,89,35,12,7,3,12,22,19,1015,83,2,20140929180000
532,"Transporation management station, Shaoxing",,29.726405,120.221602,82,37,14,15,2,15,22,19,1015,83,2,20140929180000
533,"Dongpu Town Governement, Shaoxing",,30.049601,120.539893,-,-,-,-,-,-,-,-,0,-,-,20140929180000
534,Shaoxing,,29.993122,120.590182,189,54,18,20,18,16,-,-,0,-,-,20140929180000
535,"City Monitoring Station, Jinhua",,29.100031,119.690373,147,0,42,17,5,8,22,22,0,98,2,20140929180000
536,"No.15 middle school, Jinhua",,29.074022,119.652121,144,50,27,6,2,8,22,22,0,98,2,20140929180000
537,"No.4 middle school, Jinhua",,29.110109,119.653654,142,0,25,7,6,8,22,22,0,98,2,20140929180000
538,"Beiyuan, Jinhua",,29.332898,120.083351,112,52,17,11,7,13,22,22,0,98,2,20140929180000
539,"Jiangdong, Jinhua",,29.302486,120.095291,99,50,19,12,11,13,22,22,0,98,2,20140929180000
540,Jinhua,,29.076083,119.65215,144,50,27,7,6,8,22,22,0,98,2,20140929180000
541,"EPA building, Quzhou",,28.937291,118.876081,107,33,28,9,8,7,26,24,1013,87,4,20140929180000
542,"Experimental school, Quzhou",,28.961502,118.880916,104,51,24,8,7,7,26,24,1013,87,4,20140929180000
543,"Quzhou University, Quzhou",,28.971452,118.860052,107,51,16,12,4,6,26,24,1013,87,4,20140929180000
544,Quzhou,,28.966994,118.864252,107,51,27,12,7,7,26,24,1013,87,4,20140929180000
545,"Putuo east port, Zhoushan",,29.951412,122.317679,139,55,42,7,4,9,23,22,1014,94,4,20140929180000
546,"Dinghai tanfeng, Zhoushan",,30.018014,122.126566,95,51,34,9,4,16,23,22,1014,94,4,20140929180000
547,Zhoushan,,29.983049,122.210763,139,55,42,11,4,16,23,22,1014,94,4,20140929180000
548,"Taizhou EPA building, Taizhou",,28.651216,121.42331,119,60,39,5,2,8,23,23,0,97,1,20140929180000
549,"Luqiao Tian Yang Wang, Taizhou",,28.574364,121.381194,127,56,35,6,3,7,23,23,0,97,1,20140929180000
550,"Huangyan EPA building, Taizhou",,28.656151,121.285064,119,49,22,7,2,13,23,23,0,97,1,20140929180000
551,"Yu Zhuang Qian, Lishui",,28.419638,119.883884,153,50,35,18,3,6,26,24,1013,87,1,20140929180000
552,"Monitoring station building, Lishui",,28.444379,119.923103,142,50,30,8,2,5,26,24,1013,87,1,20140929180000
553,"Liandu primary school, Lishui",,28.450912,119.939332,127,58,35,7,1,7,26,24,1013,87,1,20140929180000
554,Lishui,,28.464224,119.927201,154,51,35,13,3,7,25,22,1013,76,2,20140929180000
1248,Jingningxian,,27.977454,119.634837,97,52,13,7,2,7,25,22,1013,76,2,20140929180000
555,Taigu Primary School,,29.864178,121.60022,97,51,11,14,6,11,23,22,1014,94,3,20140929180000
556,Qianhu shuihan,,29.862459,121.5328,119,56,10,8,56,12,23,22,1014,94,3,20140929180000
557,Sanjiang secondary schools,,29.891563,121.568427,107,54,12,22,27,12,23,22,1014,94,3,20140929180000
558,Longsai Hospital,,29.957301,121.726734,132,51,9,25,17,12,23,22,1014,94,3,20140929180000
559,Beilun District EPB,,29.911633,121.850773,134,59,12,15,7,11,23,22,1014,94,3,20140929180000
560,Wanli University,,29.821314,121.574364,95,44,14,8,8,11,23,22,1014,94,3,20140929180000
561,Qianhu water plant,,29.774416,121.648136,99,45,12,24,132,11,23,22,1014,94,3,20140929180000
562,Municipal management station,,29.899182,121.626691,117,57,13,15,51,12,23,22,1014,94,3,20140929180000
1177,Daxie Literary Museum,,29.9027,121.986447,112,59,15,11,4,10,23,22,1014,94,3,20140929180000
1178,Cixi EPB,,30.165807,121.248991,99,50,16,8,5,12,23,22,1014,94,3,20140929180000
1179,Cixi Experimently Primary School,,30.179808,121.268672,-,-,-,-,-,-,-,-,0,-,-,20140929180000
1180,"Yongsan Park, Yuyao",,30.050842,121.162477,114,40,14,10,4,12,23,22,1014,94,3,20140929180000
1181,"Qilupu Water Company, Yuyao",,30.039112,121.133416,109,44,13,14,4,8,23,22,1014,94,3,20140929180000
1182,Fenghua EPB,,29.666557,121.42069,82,31,23,10,5,11,23,22,1014,94,3,20140929180000
1183,"Yuelong station, Ninghai",,29.296505,121.445872,102,33,27,15,4,10,23,22,1014,94,3,20140929180000
1184,"Wenfeng Primary School, Xiangshan",,29.470908,121.889544,82,42,22,12,4,11,23,22,1014,94,3,20140929180000
1185,"Chengnan Primary School, Ninghai",,29.293812,121.43666,93,27,31,12,5,10,23,22,1014,94,3,20140929180000
1186,"Xingang Primary School, Xiangshan",,29.203878,121.952514,87,29,33,10,3,10,23,22,1014,94,3,20140929180000
1356,Haishu City Monitoring Center,,29.86835,121.539341,119,56,11,7,54,12,23,22,1014,94,3,20140929180000
1357,Fenghua Xikou government,,29.693164,121.29331,78,31,23,14,2,15,23,22,1014,94,3,20140929180000
1294,Ningbo,,29.865766,121.548164,117,57,14,25,132,12,23,22,1014,94,3,20140929180000
1187,Fuyang,,30.046157,119.96468,38,13,15,3,3,9,-,-,0,-,-,20140929180000
1188,Yiwu,,29.304353,120.079794,112,52,19,12,11,13,-,-,0,-,-,20140929180000
1189,Zhuji,,29.711185,120.240748,89,37,14,15,3,15,22,19,1015,83,2,20140929180000
563,"Shanxi Road , Nanjing",,32.06795,118.779216,76,26,24,6,2,7,21,19,1017,88,5,20140929180000
564,"Ruijin Road , Nanjing",,32.029321,118.80817,63,26,11,6,2,3,21,19,1017,88,4,20140929180000
565,"Xuanwu Lake, Nanjing",,32.075423,118.800188,70,33,21,5,3,5,21,19,1017,88,4,20140929180000
566,"Olympic Center, Nanjing",,32.007171,118.742217,61,28,23,2,1,3,21,19,1017,88,5,20140929180000
567,"Xianlin University Town , Nanjing",,32.106958,118.919882,59,42,23,5,1,7,21,19,1017,88,5,20140929180000
569,"Shangfang hill , Suzhou",,31.24502,120.565211,99,63,18,10,5,5,23,21,1014,88,6,20140929180000
570,"Wuzhong District , Suzhou",,31.268105,120.61717,82,57,23,6,7,0,23,21,1014,88,6,20140929180000
571,"Suzhou New District , Suzhou",,31.297277,120.547262,80,27,17,14,19,0,23,21,1014,88,6,20140929180000
572,"Suzhou Industrial Area, Suzhou",,31.307603,120.673257,102,37,16,12,10,0,23,21,1014,88,6,20140929180000
573,"Xiangcheng district, Suzhou",,31.368674,120.645209,107,43,25,12,16,0,23,21,1014,88,6,20140929180000
574,Suzhou,,31.296701,120.589493,76,27,23,8,7,9,22,21,1014,94,6,20140929180000
575,"South suburb , Nantong",,31.957836,120.917218,50,21,43,4,5,0,21,19,1003,86,5,20140929180000
576,"Xinghu park, Nantong",,31.927873,120.944254,46,18,44,1,4,6,21,19,1003,86,5,20140929180000
577,"Zilang school, Nantong",,32.039638,120.814358,68,20,43,4,4,0,21,19,1003,86,5,20140929180000
578,Nantong,,31.978005,120.898555,53,21,44,1,1,6,21,19,1003,86,5,20140929180000
579,Lianyungang,,34.595509,119.226814,152,84,21,27,10,7,8,8,1016,96,0,20140929180000
580,"Hongmen police substation, Lianyungang",,34.588692,119.146693,68,52,24,5,10,8,13,12,1022,86,2,20140929180000
581,"Xugou Nuclear Expert Village , Lianyungang",,34.749957,119.373707,63,52,25,5,7,6,13,12,1022,86,2,20140929180000
582,"Hengrui pharmaceutical company, BDA, Lianyungang",,34.697574,119.353668,53,47,27,7,4,5,13,12,1022,86,2,20140929180000
583,"City Monitoring Station, Lianyungang",,34.586791,119.186929,68,52,24,10,10,8,13,12,1022,86,2,20140929180000
584,"Yellow river new village , Xuzhou",,34.271542,117.177241,85,69,12,8,11,8,17,12,1022,69,3,20140929180000
585,"Tongshan Veterinary Hospital , Xuzhou",,34.307086,117.197766,97,73,19,14,12,0,19,14,1020,63,3,20140929180000
586,"New Town , Xuzhou",,34.213992,117.261718,74,56,30,4,7,8,19,14,1020,63,3,20140929180000
587,"Taoyuan road, Xuzhou",,34.289822,117.249721,152,57,27,5,4,7,17,12,1022,69,3,20140929180000
588,"Agricultural Science Academy , Xuzhou",,34.27655,117.299079,59,47,22,3,5,3,19,14,1020,63,3,20140929180000
589,"Tongshan EPA, Xuzhou",,34.179384,117.171798,65,63,17,3,8,4,17,12,1022,69,3,20140929180000
590,Xuzhou,,34.20346,117.289825,152,63,27,12,8,9,17,12,1022,69,3,20140929180000
591,Yangzhou,,32.39233,119.418446,159,69,10,19,10,5,11,9,0,90,6,20140929180000
592,"Hanjiang Monitoring Station, Yangzhou",,32.374218,119.394484,76,32,10,9,4,3,19,16,0,86,5,20140929180000
593,"No. 4 Hospital, Yangzhou",,32.401394,119.44444,25,31,14,1,10,7,19,16,0,86,5,20140929180000
594,"City Monitoring Station, Yangzhou",,32.406588,119.41591,46,30,35,2,15,3,19,16,0,86,5,20140929180000
595,"University Town , Wuxi",,31.484752,120.273571,72,39,43,2,9,7,22,21,1014,94,5,20140929180000
596,"Shibei High School , Wuxi",,31.619969,120.279584,72,30,24,7,8,0,22,21,1014,94,5,20140929180000
597,"Yuhong Elementary School , Wuxi",,31.561155,120.249588,63,31,33,7,6,7,22,21,1014,94,5,20140929180000
598,Wuxi,,31.488746,120.31575,74,32,25,5,9,7,-,-,0,-,-,20140929180000
599,Changzhou,,31.808037,119.979205,172,86,6,22,36,13,11,9,0,88,5,20140929180000
600,"Chengjian School, Changzhou",,31.776476,119.937681,55,28,32,4,5,5,20,18,1003,89,5,20140929180000
601,"Changzhou Engineering Institute , Changzhou",,31.806828,119.966724,38,22,34,4,5,6,20,18,1003,89,5,20140929180000
602,"Wujin Monitoring Station, Changzhou",,31.701788,119.939676,55,22,29,8,4,3,20,18,1003,89,5,20140929180000
603,"City Monitoring Station, Changzhou",,31.777201,119.979426,53,19,33,6,2,5,20,18,1003,89,5,20140929180000
604,Zhenjiang,,32.18597,119.431281,170,79,4,39,15,13,9,8,0,93,5,20140929190000
605,"New District Administrative office , Zhenjiang",,32.186174,119.685021,55,57,29,5,6,0,21,19,1017,88,5,20140929190000
606,"Vocational Education Center , Zhenjiang",,32.212973,119.496253,46,21,28,1,2,9,21,19,1017,88,4,20140929190000
607,"Dantu Monitoring Station , Zhenjiang",,32.130026,119.435432,30,12,29,8,6,7,21,19,1017,88,4,20140929190000
608,"City Monitoring Station, Zhenjiang",,32.202178,119.439766,21,28,32,12,4,8,21,19,1017,88,4,20140929190000
609,"Gaogang Adminstrative office , Taizhoushi",,32.300768,119.886757,97,39,14,6,8,0,19,16,0,86,5,20140929190000
610,"Students Innovation Park , Taizhoushi",,32.461672,119.892761,137,37,29,5,10,2,19,16,0,86,5,20140929190000
611,Taizhoushi,,32.453555,119.927852,137,47,29,11,17,6,19,16,0,86,5,20140929190000
612,"Yancheng power station , Yancheng",,33.400859,120.123067,97,57,44,4,9,3,-,-,0,-,-,20140929190000
613,Yancheng,,33.345939,120.168504,144,52,30,5,3,7,11,10,1016,95,4,20140929190000
614,"Wenfeng Middle School , Yancheng",,33.370531,120.134041,82,54,25,6,5,0,-,-,0,-,-,20140929190000
615,"BDA Management Committe, Yancheng",,33.393191,120.22978,76,51,45,2,4,2,-,-,0,-,-,20140929190000
616,"City Monitoring Station, Yancheng",,33.390623,120.164423,97,52,43,2,2,3,19,16,0,86,5,20140929190000
617,Suqian,,33.960666,118.281004,160,87,24,7,5,7,11,10,0,91,6,20140929190000
618,"Suqian College , Suqian",,33.951472,118.298523,89,52,25,26,16,8,13,11,0,86,5,20140929190000
619,"Suqian Middle School , Suqian",,33.95784,118.249505,97,59,20,5,10,6,13,11,0,86,5,20140929190000
620,"Suyu District Environmental Protection Agency , Suqian",,33.94932,118.326569,132,53,26,4,4,0,13,11,0,86,5,20140929190000
621,"City Monitoring Station, Suqian",,33.956982,118.277022,129,51,20,4,6,5,13,11,0,86,5,20140929190000
622,Taizhou,,28.653436,121.425185,114,56,38,9,3,13,23,23,0,97,1,20140929190000
623,Donghu Liyuan,,30.572324,114.377844,104,47,18,2,2,3,21,19,1017,88,2,20140929190000
624,Yuehu Lake,,30.554662,114.256937,127,51,31,12,0,6,21,19,1017,88,2,20140929190000
625,Hankou Huaqiao ,,30.61724,114.287652,129,52,27,10,6,9,21,19,1017,88,2,20140929190000
626,Wuchang Ziyang ,,30.530801,114.309438,104,46,20,10,1,7,21,19,1017,88,2,20140929190000
627,Qingshan Ganghua,,30.622435,114.375599,142,51,27,12,6,7,21,19,1017,88,2,20140929190000
628,Dunkou Xinou,,30.480091,114.162176,13,57,24,12,4,8,21,19,1017,88,2,20140929190000
629,Donghu Gaoxin,,30.48095,114.40724,97,40,32,9,3,9,21,19,1017,88,2,20140929190000
630,Wujianshan,,30.63114,114.135907,129,51,30,7,0,10,21,19,1017,88,2,20140929190000
631,Yuanshun Road,,30.297142,113.858587,119,50,40,6,2,6,21,19,1017,88,2,20140929190000
632,Wuhan,,30.590689,114.310838,142,52,31,16,6,9,21,19,1017,88,2,20140929190000
1190,"Silingsan Factory, Yichang",,30.713288,111.306585,104,63,4,13,3,11,19,19,1019,94,2,20140929190000
633,Yichang,,30.689528,111.292131,147,84,8,14,9,15,19,19,1019,94,2,20140929190000
633,Yichang,,30.689528,111.292131,147,84,8,14,9,15,19,19,1019,94,2,20140929190000
1191,"City Library , Jingzhou",,30.31494,112.260844,124,55,8,19,11,17,21,18,1018,84,2,20140929190000
1192,"City committee communist party school, Jingzhou",,30.35054,112.20743,112,63,14,15,13,15,21,18,1018,84,2,20140929190000
1193,"kerong EPA, Jingzhou",,30.302965,112.29443,124,72,11,14,11,16,21,18,1018,84,2,20140929190000
634,Jingzhou,,30.332608,112.245451,124,72,12,19,11,17,21,18,1018,84,2,20140929190000
634,Jingzhou,,30.332608,112.245451,124,72,12,19,11,17,21,18,1018,84,2,20140929190000
635,Huangshi,,30.19723,115.043908,129,89,18,19,6,21,21,19,1019,100,1,20140929190000
635,Huangshi,,30.19723,115.043908,129,89,18,19,6,21,21,19,1019,100,1,20140929190000
1194,"Chenjiaying, Huangshi",,30.232823,115.067923,85,56,12,4,4,21,21,,1019,100,1,20140929190000
1195,"Chenjiawan , Huangshi",,30.200422,115.082138,109,59,13,19,6,20,21,,1019,100,1,20140929190000
1196,"Xinxialu, Huangshi",,30.17332,114.954357,95,53,16,14,3,18,21,,1019,100,1,20140929190000
1197,"Tie montian, Huangshi",,30.203885,114.906439,129,89,12,9,1,11,21,,1019,100,1,20140929190000
1198,"BDA, Huangshi",,30.207491,115.031739,107,57,18,7,4,21,21,,1019,100,1,20140929190000
636,Shiyan,,32.627208,110.803311,89,53,13,14,8,12,16,,1021,90,3,20140929190000
636,Shiyan,,32.627208,110.803311,89,53,13,14,8,12,16,,1021,90,3,20140929190000
1199,"Wudang Mountain , Shiyan",,32.392921,111.047655,70,22,23,2,4,7,16,,,96,2,20140929190000
1200,"Riverside Village , Shiyan",,32.647286,110.785335,89,53,13,14,1,12,16,,,90,3,20140929190000
1201,"Liujiagou , Shiyan",,32.636732,110.731129,82,44,7,6,6,9,16,,,90,3,20140929190000
637,Xiangyang,,32.007029,112.128496,142,66,7,15,9,17,19,,1021,87,4,20140929190000
637,Xiangyang,,32.007029,112.128496,142,66,7,15,9,17,19,,1021,87,4,20140929190000
638,Ezhou,,30.389244,114.899884,152,51,20,23,8,16,21,19,1026,95,5,20140929190000
638,Ezhou,,30.389244,114.899884,152,51,20,23,8,16,21,19,1026,95,5,20140929190000
1203,"City government, Ezhou",,30.391836,114.892822,152,49,17,23,8,16,21,,1026,95,5,20140929190000
1204,"Zhaojiaba, Ezhou",,30.368966,114.90365,112,52,18,5,4,13,21,,1026,95,5,20140929190000
1205,"Fankou BDA, Ezhou",,30.410759,114.818225,119,52,25,6,5,15,21,,1026,95,5,20140929190000
639,Jingmen,,31.033208,112.205093,161,66,21,15,14,9,19,19,1013,80,3,20140929190000
639,Jingmen,,31.033208,112.205093,161,66,21,15,14,9,19,19,1013,80,3,20140929190000
640,Xiaogan,,30.922089,113.922387,119,60,23,3,3,10,21,19,1017,88,2,20140929190000
640,Xiaogan,,30.922089,113.922387,119,60,23,3,3,10,21,19,1017,88,2,20140929190000
1206,"wenhua street, Shenyang , Xiaogan",,30.925856,113.92104,119,60,23,3,3,10,21,19,1017,88,2,20140929190000
1207,"Dongcheng District , Huludao , Xiaogan",,30.917963,113.943904,-,-,-,-,-,-,-,23,0,-,-,20140929190000
641,Huanggang,,30.45124,114.877378,109,56,26,14,6,9,21,19,1026,95,5,20140929190000
641,Huanggang,,30.45124,114.877378,109,56,26,14,6,9,21,19,1026,95,5,20140929190000
1208,"Dazhou Island, Huanggang",,30.446205,114.900323,109,56,24,14,6,8,21,,1026,95,5,20140929190000
1209,"Workers Center , Huanggang",,30.469244,114.912504,93,44,28,4,5,10,21,,1026,95,5,20140929190000
642,Xianning,,29.838978,114.327898,129,63,13,10,9,18,20,19,990,98,1,20140929190000
642,Xianning,,29.838978,114.327898,129,63,13,10,9,18,20,19,990,98,1,20140929190000
1210,"Municipal Development and Reform Commission , Xianning",,29.818645,114.328461,102,54,11,7,1,18,20,,990,98,1,20140929190000
1211,"Xianan District Governement, Xianning",,29.51107,114.181864,114,58,3,7,5,17,20,,999,92,2,20140929190000
1212,"Yangtze River Industrial Park , Xianning",,29.883098,114.32909,129,63,13,10,9,13,20,,990,98,1,20140929190000
1213,"Qianshan Park, Xianning",,29.815351,114.328689,127,55,2,6,1,8,20,,990,98,1,20140929190000
643,Suizhou,,31.688342,113.388675,151,69,26,6,7,12,19,,1014,97,3,20140929190000
643,Suizhou,,31.688342,113.388675,151,69,26,6,7,12,19,,1014,97,3,20140929190000
1338,"City committee communist party school, Suizhou",,31.725316,113.3648,153,74,31,3,4,10,19,,1014,97,3,20140929190000
1339,"Forestry Bureau, Suizhou",,31.690065,113.383157,153,67,32,9,7,11,19,,1014,97,3,20140929190000
645,Xiantao,,30.360228,113.460616,149,68,21,5,8,10,21,19,1027,87,4,20140929190000
645,Xiantao,,30.360228,113.460616,149,68,21,5,8,10,21,19,1027,87,4,20140929190000
1214,"Xiangcheng Yundong Street, Xiangfan",,32.017716,112.16102,117,51,7,10,10,15,18,,1021,86,4,20140929190000
1359,"Fancheng Xinhua Road , Xiangfan",,32.0544,112.145224,153,81,8,20,8,19,18,,1021,86,4,20140929190000
655,"City Environmental Monitoring Station, Baotou",,40.657201,109.886738,89,70,10,23,19,8,,,0,,,20140929190000
656,"Donghe EPB, Baotou",,40.586213,110.002224,61,89,11,24,23,8,,,0,,,20140929190000
657,"Baotou shopping mall, Baotou",,40.508334,109.819085,112,77,9,17,21,12,,,0,,,20140929190000
658,"Huilong logistics, Baotou",,40.633436,109.879821,99,74,13,20,28,5,,,0,,,20140929190000
659,Baotou,,40.658597,109.846051,112,89,19,24,54,12,11,4,0,52,1,20140929190000
660,"Huatai Automobile Mall, Eerduosi",,39.837048,109.972209,72,50,36,22,3,5,11,4,1021,52,1,20140929190000
661,"Olympus Garden, Eerduosi",,39.789171,109.987742,78,44,29,12,8,6,11,4,1021,52,1,20140929190000
662,Eerduosi,,39.609284,109.78704,78,50,36,22,9,7,11,4,1021,52,1,20140929190000
663,"Tianyi Road, Chifeng",,42.275552,118.88507,34,21,23,4,6,8,1,-2,1033,69,2,20140929190000
664,"Songshan No.1 Middle School, Chifeng",,42.329307,118.793045,57,59,24,10,4,8,1,-2,1033,69,2,20140929190000
665,"Hada Street, Chifeng",,42.280714,118.988235,72,43,12,8,6,4,1,-2,1033,69,2,20140929190000
666,"Songshan Road, Chifeng",,42.171487,118.89501,38,40,19,6,12,2,1,-2,1033,69,2,20140929190000
667,Chifeng,,42.259752,118.893027,72,59,24,10,12,8,1,-2,1033,69,2,20140929190000
674,Fuzhou,,26.071406,119.301294,114,62,120,17,12,8,27,24,1011,84,1,20140929190000
675,"Xidong, Xiamen",,24.815345,118.161848,161,68,107,9,3,6,28,26,1010,89,1,20140929190000
676,"Hongwen, Xiamen",,24.473969,118.156281,99,56,122,21,7,6,28,26,1010,89,1,20140929190000
677,"Gulangyu, Xiamen",,24.443168,118.068571,122,52,64,7,9,5,28,26,1010,89,1,20140929190000
678,"Huli, Xiamen",,24.51235,118.099146,153,61,54,4,3,6,28,26,1010,89,1,20140929190000
679,Xiamen,,24.477187,118.094402,153,61,64,7,9,6,-,-,0,-,-,20140929190000
680,"Qingyuan Montain, Quanzhou",,24.939503,118.598337,155,75,48,6,9,6,28,26,1010,89,1,20140929190000
681,"Tushan Street, Quanzhou",,24.90867,118.586397,168,172,54,16,21,7,28,26,1010,89,1,20140929190000
682,"Wanan, Quanzhou",,24.304154,118.070903,147,55,117,12,3,7,28,26,1010,89,1,20140929190000
683,Quanzhou,,24.87179,118.68001,168,172,117,18,25,8,28,26,1010,89,1,20140929190000
687,"Jiancaoping, Taiyuan",,37.887889,112.528383,91,55,23,9,3,9,15,13,1023,88,5,20140929190000
688,"Jianhe, Taiyuan",,37.910779,112.579258,85,50,21,11,5,8,15,13,1023,88,5,20140929190000
689,"Shanglan, Taiyuan",,38.011589,112.440679,127,66,21,14,7,9,15,13,1023,88,5,20140929190000
690,"Jinyuan, Taiyuan",,37.713164,112.475552,85,40,24,8,7,8,15,13,1023,88,5,20140929190000
691,"Xiaodian, Taiyuan",,37.782137,112.483533,61,33,16,6,6,9,15,13,1023,88,5,20140929190000
692,"Taoyuan, Taiyuan",,37.869752,112.543332,74,38,21,7,4,11,14,12,1023,88,8,20140929190000
693,"Wucheng, Taiyuan",,37.819998,112.576252,97,52,24,8,2,12,15,13,1023,88,5,20140929190000
694,"Nanzhai, Taiyuan",,37.985902,112.555312,109,60,24,8,7,13,15,13,1023,88,5,20140929190000
695,"Jinsheng, Taiyuan",,37.781205,112.494494,82,61,31,6,7,10,15,13,1023,88,5,20140929190000
696,Taiyuan,,37.871115,112.555178,91,55,23,9,4,9,-,-,0,-,-,20140929190000
697,"Monitoring station, Changzhi",,36.194062,113.10389,139,65,22,6,9,12,19,16,0,83,3,20140929190000
698,"Auditing bureau, Changzhi",,36.212787,113.095221,155,62,27,9,5,12,19,16,0,83,3,20140929190000
699,"Qinghua station, Changzhi",,36.154328,113.116385,149,62,23,25,12,12,19,16,0,83,3,20140929190000
700,"No.8 middle school, Changzhi",,36.185451,113.099481,155,67,24,13,23,22,,,0,,,20140929190000
701,Changzhi,,36.195553,113.12292,155,67,27,25,23,22,13,11,0,87,2,20140929190000
702,"Yungang Hotel, Datong",,40.076997,113.278079,42,56,10,13,4,8,10,0,1025,37,4,20140929190000
703,"college of education, Datong",,40.085608,113.27808,82,56,12,5,5,5,10,0,1025,37,4,20140929190000
704,Datong,,40.078016,113.307143,87,56,16,14,11,9,10,0,1025,49,4,20140929190000
705,"Technical Schools, Linfen",,36.07131,111.509046,173,96,19,18,6,52,13,10,0,81,4,20140929190000
706,"Municipal party committee, Linfen",,36.087425,111.508771,151,65,10,2,19,26,12,10,0,84,4,20140929190000
1073,"City Monitoring Station, Linfen",,36.097676,111.518739,164,90,16,28,7,29,12,10,0,84,4,20140929190000
707,"South Airport, Linfen",,36.041614,111.497968,165,75,6,18,6,13,12,10,0,84,4,20140929190000
708,Linfen,,36.087944,111.525098,165,102,16,28,19,53,12,10,0,84,4,20140929190000
709,"City center, Yangquan",,37.848012,113.578636,158,57,28,6,4,7,14,12,1023,88,8,20140929190000
710,Yangquan,,37.857475,113.586921,158,57,34,42,69,15,14,12,1023,88,8,20140929190000
711,"Water Company, Jincheng",,35.504787,112.857245,119,57,23,19,6,10,13,11,1019,87,2,20140929190000
712,"Baiyun shopping mall, Jincheng",,35.492858,112.841566,72,57,12,28,8,10,13,11,1019,87,2,20140929190000
713,"City EPA, Jincheng",,35.488422,112.858528,61,47,12,15,18,13,13,11,1019,87,2,20140929190000
714,"Institute of Technology, Jincheng",,35.484844,112.878073,91,61,34,10,21,10,13,11,1019,87,2,20140929190000
715,"No.1 middle school, Jincheng",,35.478725,112.838636,95,56,14,15,9,5,13,11,1019,87,2,20140929190000
716,Jincheng,,35.490287,112.85794,119,61,34,28,21,13,13,11,1019,87,2,20140929190000
718,"District Government, Shuozhou",,39.320857,112.430641,65,49,13,16,18,9,15,10,1021,66,2,20140929190000
719,"City EPA, Shuozhou",,39.331495,112.407997,65,30,13,17,7,9,17,8,1021,44,1,20140929190000
720,"No.2 middle school, Shuozhou",,39.377963,112.432877,65,0,15,17,15,8,17,8,1021,44,1,20140929190000
721,Shuozhou,,39.332756,112.439672,65,58,15,17,19,9,17,8,1021,44,1,20140929190000
722,"Jinlun compound, Jinzhong",,37.697891,112.771017,72,20,22,6,6,8,15,13,1023,88,5,20140929190000
723,"Hydraulic Component Factory, Jinzhong",,37.688355,112.725844,129,65,21,13,8,9,15,13,1023,88,5,20140929190000
724,"Nandu compound, Jinzhong",,37.713148,112.732036,127,65,11,8,3,8,15,13,1023,88,5,20140929190000
725,"Yuci district government, Jinzhong",,37.698228,112.714167,127,65,9,5,3,7,15,13,1023,88,5,20140929190000
726,Jinzhong,,37.687705,112.759187,129,65,22,13,8,9,15,13,1023,88,5,20140929190000
727,"Yuncheng Middle School, Yuncheng",,35.012345,111.003215,122,68,36,8,53,12,17,15,1019,85,1,20140929190000
728,"Yudou BDA, Yuncheng",,35.05065,111.029571,144,85,21,9,31,9,17,15,1019,85,1,20140929190000
730,"Regional Technical School, Yuncheng",,35.028727,110.974076,154,70,28,8,29,11,17,15,1019,85,1,20140929190000
731,"Airport new district, Yuncheng",,35.084515,111.05339,154,86,19,14,23,18,17,15,1019,85,1,20140929190000
732,Yuncheng,,35.025675,111.013344,154,86,36,14,53,18,-,-,0,-,-,20140929190000
733,"Jiyin, Xinzhou",,38.413292,112.742432,161,66,12,7,2,10,15,13,1023,88,5,20140929190000
734,"BDA, Xinzhou",,38.450069,112.736723,124,52,14,1,2,10,15,13,1023,88,5,20140929190000
735,"Convention Center, Xinzhou",,38.492043,112.709772,157,66,13,7,9,10,15,13,1023,88,5,20140929190000
736,Xinzhou,,38.417244,112.740742,161,66,14,7,9,10,15,13,1023,88,5,20140929190000
737,"City EPA, Luliang",,37.522189,111.144365,93,49,5,14,14,15,18,16,0,83,3,20140929190000
738,"Soybean factory, Luliang",,37.51689,111.135101,107,56,6,25,16,23,18,16,0,83,3,20140929190000
739,"Water Company, Luliang",,37.53394,111.138834,87,65,7,16,9,24,18,16,0,83,3,20140929190000
740,Luliang,,25.027007,103.668566,107,65,7,25,16,24,18,16,0,83,3,20140929190000
741,"City government, Sanmenxia",,34.776251,111.198781,151,64,10,12,9,12,17,15,1019,85,1,20140929190000
743,"BDA, Sanmenxia",,34.800434,111.204332,137,61,13,14,9,6,17,15,1019,85,1,20140929190000
744,Sanmenxia,,34.771506,111.206129,152,64,16,14,16,16,17,15,1019,85,1,20140929190000
745,"Food Factory, Changchun",,43.919094,125.329521,68,72,4,21,5,6,-2,-5,1027,80,2,20140929190000
746,"Bus Factory, Changchun",,43.912337,125.293431,76,61,2,18,4,5,-2,-5,1027,80,2,20140929190000
747,"Institute of Posts and Telecommunications, Changchun",,43.842368,125.285005,63,51,2,22,3,7,-2,-5,1027,80,2,20140929190000
748,"Laodong Park, Changchun",,43.877293,125.371519,53,44,2,6,19,8,-2,-5,1027,80,2,20140929190000
749,"Forest area, Changchun",,43.871825,125.331519,72,45,2,19,3,7,-2,-5,1027,80,2,20140929190000
750,"Jinyuetan, Changchun",,43.79031,125.460561,70,46,7,17,1,3,-2,-5,1027,80,2,20140929190000
751,"Shuaiwanzi, Changchun",,43.552321,125.639086,42,20,3,4,1,5,-2,-5,1027,80,2,20140929190000
752,"Economic Development Zone Sanitation Department, Changchun",,43.869221,125.42365,95,52,4,15,3,6,-2,-5,1027,80,2,20140929190000
753,"High-tech Zone Administrative Committee, Changchun",,43.819064,125.256375,68,67,3,14,3,5,-2,-5,1027,80,2,20140929190000
754,"Daishan Park, Changchun",,43.852365,125.223399,68,44,4,16,3,4,-2,-5,1027,80,2,20140929190000
755,Changchun,,43.819415,125.329977,63,51,2,22,19,8,-,-,0,-,-,20140929190000
756,"Hadawan, Jilin",,43.888081,126.545727,109,73,16,13,3,8,-4,-8,0,76,1,20140929190000
757,"Fengman, Jilin",,43.768169,126.678802,55,21,11,4,2,3,-4,-8,0,76,1,20140929190000
758,"Electric Power College, Jilin",,43.827403,126.502281,57,23,6,10,2,6,-4,-8,0,76,1,20140929190000
759,"Jiangnan Park, Jilin",,43.83531,126.556519,65,28,6,11,5,5,-4,-8,0,76,1,20140929190000
760,"Dongjuzi, Jilin",,43.838597,126.590068,46,27,4,8,2,8,-4,-8,0,76,1,20140929190000
763,Jilin,,43.840137,126.555262,109,73,23,13,5,8,-4,-8,0,76,1,20140929190000
764,"Lingbei, Haerbin",,45.756979,126.548008,53,33,21,19,2,5,-2,-4,1026,86,2,20140929190000
765,"Songbei Commercial University, Haerbin",,45.818624,126.566963,53,34,3,13,7,5,-2,-4,1026,86,2,20140929190000
766,"Acheng huining, Haerbin",,45.544286,126.985183,80,70,18,6,4,5,-2,-4,1026,86,2,20140929190000
767,"Nangang College Street, Haerbin",,45.724121,126.604906,127,56,20,17,3,7,-2,-4,1026,86,2,20140929190000
768,"Taiping Hongwei Park, Haerbin",,45.775332,126.695101,137,28,20,16,4,5,-2,-4,1026,86,2,20140929190000
769,"Daowai Chengde Square, Haerbin",,45.768637,126.640955,42,18,20,15,5,4,-2,-4,1026,86,2,20140929190000
770,"Xiangfang Hongqi Street, Haerbin",,45.733936,126.691083,46,259,20,8,3,7,-2,-4,1026,86,2,20140929190000
771,"Dongli Heping Road, Haerbin",,45.727765,126.651974,61,42,20,25,7,4,-2,-4,1026,86,2,20140929190000
772,"Daoli Jianguo Road, Haerbin",,45.749715,126.59891,53,31,23,19,2,2,-2,-4,1026,86,2,20140929190000
773,"Pingfang Light Factory, Haerbin",,45.611951,126.620898,68,20,3,16,4,4,-2,-4,1026,86,2,20140929190000
774,"Hulan Normal College, Haerbin",,45.983745,126.616553,76,23,24,17,3,8,-2,-4,1026,86,2,20140929190000
775,"Provincial Academy of Agricultural Sciences, Haerbin",,45.686141,126.626517,55,37,19,17,6,4,-2,-4,1026,86,2,20140929190000
776,Haerbin,,45.805757,126.541007,53,34,21,19,7,5,-,-,0,-,-,20140929190000
777,"Anju Compound, Qiqihaer",,47.365672,123.937016,38,22,25,2,4,6,0,-4,1026,68,1,20140929190000
778,"Farming Vehicule Factory, Qiqihaer",,47.326793,123.961427,55,18,24,9,3,9,0,-4,1026,68,1,20140929190000
779,"Fuqu EPA, Qiqihaer",,47.1853,123.62322,165,56,27,2,2,9,0,-4,1026,68,1,20140929190000
780,"City Center Square, Qiqihaer",,47.343096,123.96192,50,15,18,1,9,7,0,-4,1026,68,1,20140929190000
1217,"City Environmental Monitoring Station, Qiqihaer",,47.303639,123.957551,114,54,20,9,1,12,0,-4,1026,68,1,20140929190000
781,Qiqihaer,,47.356387,123.924736,183,57,25,14,9,12,0,-4,1026,68,1,20140929190000
782,"Saertu District, Daqing",,46.582368,125.152904,-,-,-,-,-,-,-,-,0,-,-,20140929190000
783,"Datong District, Daqing",,46.036786,124.842115,55,17,26,2,5,3,0,-3,1027,70,2,20140929190000
784,"Honggang District, Daqing",,46.418381,124.88973,72,19,21,5,4,3,0,-3,1027,70,2,20140929190000
785,"Longfeng District, Daqing",,46.535426,125.107043,53,35,23,10,11,5,0,-3,1027,70,2,20140929190000
786,"Ranghulu District, Daqing",,46.635123,124.85648,65,35,27,6,5,2,0,-3,1027,70,2,20140929190000
787,Daqing,,46.591414,125.110838,72,35,27,10,11,5,0,-3,1027,70,2,20140929190000
788,"Locomotive Factory, Mudanjiang",,44.610589,129.652672,68,25,18,12,3,3,-2,-3,1026,90,1,20140929190000
789,"No. 1 hospital, Mudanjiang",,44.567775,129.617043,68,22,16,12,2,2,-2,-3,1026,90,1,20140929190000
1220,"EPA building, Mudanjiang",,44.567777,129.620658,72,21,9,3,2,3,-2,-3,1026,90,1,20140929190000
1221,"Cultural Square, Mudanjiang",,44.586388,129.623164,68,21,5,8,3,3,-2,-3,1026,90,1,20140929190000
790,Mudanjiang,,44.553619,129.640246,70,26,18,12,11,3,-2,-3,1026,90,1,20140929190000
791,"Mingzhu Plaza, Hefei",,31.782847,117.201512,53,30,28,6,2,6,20,19,1018,94,2,20140929190000
792,"Sanli Street, Hefei",,31.874637,117.312573,63,22,24,5,4,4,20,19,1018,94,2,20140929190000
793,"Hupo Compound, Hefei",,31.868583,117.264491,63,35,19,2,7,5,20,19,1018,94,2,20140929190000
794,"Dongpu Reservoir, Hefei",,31.90319,117.165584,70,26,25,1,1,4,20,19,1018,94,2,20140929190000
795,"Changjiang middle road, Hefei",,31.855185,117.255484,68,36,4,5,3,6,20,19,1018,94,2,20140929190000
796,"Luyang District, Hefei",,31.941771,117.271504,70,39,8,1,15,6,20,19,1018,94,2,20140929190000
797,"Yaohai District, Hefei",,31.856595,117.341644,78,48,30,4,6,11,20,19,1018,94,2,20140929190000
798,"Baohe District, Hefei",,31.793644,117.307554,46,33,5,1,3,6,20,19,1018,94,2,20140929190000
799,"Lake district, Hefei",,31.736619,117.283501,65,50,14,21,4,8,20,19,1018,94,2,20140929190000
800,"High-tech zone, Hefei",,31.849755,117.129624,68,26,13,4,9,5,20,19,1018,94,2,20140929190000
801,Hefei,,31.819449,117.232753,68,30,28,6,3,6,-,-,0,-,-,20140929190000
802,"Hudong Road No.4 Elementary School, Maanshan",,31.684121,118.511017,65,33,27,6,7,7,20,20,1017,100,4,20140929190000
803,"Tianping Garment Factory, Maanshan",,31.64197,118.488043,78,31,41,3,7,11,21,19,1017,88,4,20140929190000
804,"City education base, Maanshan",,31.711216,118.648913,57,40,31,4,2,2,21,19,1017,88,4,20140929190000
805,"Cihu No.2 elementary school, Maanshan",,31.748546,118.515729,61,45,24,6,4,6,21,19,1017,88,4,20140929190000
806,"Maanshan steel factory power plant, Maanshan",,31.690864,118.48528,109,51,19,6,28,12,21,19,1017,88,4,20140929190000
807,Maanshan,,31.668461,118.511939,65,33,27,6,7,7,20,20,1017,100,4,20140929190000
808,"Science Innovation Center, Wuhu",,31.417056,118.375406,87,37,14,3,3,9,21,19,1017,88,4,20140929190000
809,"No.4 Water Plant, Wuhu",,31.315914,118.376231,93,34,11,11,6,14,21,19,1017,88,4,20140929190000
810,"Monitoring station, Wuhu",,31.348955,118.358154,76,42,8,11,5,12,21,19,1017,88,4,20140929190000
811,"Wuqierling Factory, Wuhu",,31.382068,118.407639,91,44,32,15,7,7,21,19,1017,88,4,20140929190000
812,Wuhu,,31.351007,118.438322,93,44,32,15,7,14,21,19,1017,88,4,20140929190000
813,"Jiangxi Foreign Affairs Office, Nanchang",,28.678027,115.903436,99,58,18,3,2,4,23,19,1015,74,2,20140929190000
814,"Provincial forestry company, Nanchang",,28.69065,115.898546,147,52,16,1,2,8,23,19,1015,74,2,20140929190000
815,"Institute of Forestry, Nanchang",,28.731518,115.82478,65,37,22,1,4,9,23,19,1015,74,2,20140929190000
816,"Jingdong town government, Nanchang",,28.680659,115.972736,70,39,19,1,2,11,23,19,1015,74,2,20140929190000
817,"Contruction Industry College, Nanchang",,28.684018,115.865891,57,20,21,11,10,11,23,19,1015,74,2,20140929190000
818,"Xianghu, Nanchang",,28.637831,115.9033,93,50,23,11,10,14,23,19,1015,74,2,20140929190000
819,"Martial Arts School, Nanchang",,28.794538,115.752876,13,25,16,6,6,7,23,19,1015,74,2,20140929190000
820,"Petrifaction Company, Nanchang",,28.608634,115.912999,59,47,19,1,2,9,23,19,1015,74,2,20140929190000
821,"Provincial Station, Nanchang",,28.677155,115.941896,63,32,20,2,2,8,23,19,1015,74,2,20140929190000
822,Nanchang,,28.679883,115.863022,147,57,22,11,10,14,23,19,1015,74,2,20140929190000
939,Sanya,,18.251142,109.515993,42,17,8,6,1,5,26,24,1012,89,2,20140929190000
823,"Lushan Mountain Observatory, Jiujiang",,29.5751,115.998926,25,3,29,1,21,4,20,19,1016,91,3,20140929190000
824,"Shili, Jiujiang",,29.668119,115.992381,76,16,18,6,3,5,20,19,1016,91,3,20140929190000
825,"Maoshantou, Jiujiang",,29.700819,115.967192,68,17,16,5,2,2,20,19,1016,91,3,20140929190000
826,"Xiyuan, Jiujiang",,29.723929,115.998206,63,20,12,7,4,5,20,19,1016,91,3,20140929190000
827,"Wuqierling Factory, Jiujiang",,29.640802,116.022713,63,18,17,7,5,8,20,19,1016,91,3,20140929190000
828,"Water Scientific Research Institute, Jiujiang",,29.679179,116.068081,63,13,16,6,16,4,20,19,1016,91,3,20140929190000
829,"Zonghe Industrial Park, Jiujiang",,29.592047,115.916335,70,22,17,10,5,2,20,19,1016,91,3,20140929190000
830,"Petrochemical General Plant, Jiujiang",,29.738832,116.09463,59,9,14,4,1,4,20,19,1016,91,3,20140929190000
831,Jiujiang,,29.70254,116.007025,76,22,29,10,21,8,20,19,1016,91,3,20140929190000
1332,"Feiyu, Xinyu",,27.844697,115.000136,99,52,25,3,8,,28,,1012,72,9,20140929190000
1333,"Beigang, Xinyu",,27.932491,115.103767,87,45,28,8,15,,28,,1012,72,9,20140929190000
1334,"No.2 water factory, Xinyu",,27.839577,114.933915,119,57,8,1,5,,28,,1012,72,9,20140929190000
1335,"Bureau of Meteorology, Xinyu",,27.81048,114.936507,104,62,23,5,9,,28,,1012,72,9,20140929190000
1336,Xinyu,,27.814351,114.922194,119,62,28,8,15,14,28,19,1012,72,9,20140929190000
832,"Tobacco Factory, Zhengzhou",,34.753419,113.687131,132,93,22,15,10,17,19,16,1021,83,3,20140929190000
833,"Textile Machinery Factory, Zhengzhou",,34.773366,113.647067,152,99,18,14,10,15,19,16,1021,83,3,20140929190000
834,"Banking College, Zhengzhou",,34.800856,113.681126,149,100,15,19,15,12,19,16,1021,83,3,20140929190000
835,"Water Supply Company, Zhengzhou",,34.807188,113.571089,156,100,31,25,16,20,19,16,1021,83,3,20140929190000
836,"Economic Development Zone Management Committee, Zhengzhou",,34.717652,113.733182,147,79,13,3,10,9,19,16,1021,83,3,20140929190000
837,"No. 47 middle school, Zhengzhou",,34.772211,113.74009,153,86,24,18,9,6,19,16,1021,83,3,20140929190000
838,"City Monitoring Station, Zhengzhou",,34.748404,113.60514,132,81,7,20,7,13,19,16,1021,83,3,20140929190000
839,"Henan Medical University, Zhengzhou",,34.752637,113.641658,151,100,14,20,16,8,19,16,1021,83,3,20140929190000
840,"Gangli Reservoir, Zhengzhou",,34.952652,113.64248,151,76,8,17,10,10,19,16,1021,83,3,20140929190000
841,Zhengzhou,,34.745417,113.631415,151,100,14,20,16,13,-,-,0,-,-,20140929190000
842,"Henan University No.1 Hospital, Kaifeng",,34.799302,114.352706,134,63,15,12,13,8,19,16,1022,83,4,20140929190000
843,"Maternity And Child Hospital, Kaifeng",,34.795803,114.386103,122,61,21,7,6,8,19,16,1022,83,4,20140929190000
844,"Cancer Hospital, Kaifeng",,34.775428,114.350292,134,70,19,12,11,10,19,16,1022,83,4,20140929190000
845,"Yellow River Conservancy Institute, Kaifeng",,34.826066,114.324772,162,80,91,9,38,20,19,16,1022,83,4,20140929190000
846,"Shijixing Kindergarden, Kaifeng",,34.793606,114.302744,137,58,15,10,18,9,19,16,1022,83,4,20140929190000
847,Kaifeng,,34.796346,114.313426,137,70,19,12,18,10,19,16,1022,83,4,20140929190000
852,Jiaozuo,,35.215381,113.248188,119,69,34,21,24,9,19,16,1021,83,3,20140929190000
853,"Cotton Research Institute, Anyang",,36.081435,114.486451,50,26,15,9,13,1,16,13,1025,77,4,20140929190000
854,"Hongmiao Street, Anyang",,36.086733,114.326,63,37,18,4,6,2,16,13,1025,77,4,20140929190000
855,"Yinxing Compound, Anyang",,36.056519,114.36495,59,34,20,7,4,1,16,13,1025,77,4,20140929190000
856,"Tiefo Temple, Anyang",,36.110041,114.309309,80,42,14,16,21,2,16,13,1025,77,4,20140929190000
857,Anyang,,36.097767,114.398846,80,42,25,16,21,2,16,13,1025,77,4,20140929190000
858,"City Monitoring Station, Luoyang",,34.669055,112.439633,85,63,6,12,21,9,19,,1021,90,5,20140929190000
859,"BDA Management Committee, Luoyang",,34.622084,112.390759,107,63,10,14,35,10,19,,1021,90,5,20140929190000
860,"New municipal office, Luoyang",,34.623745,112.432973,139,60,19,19,18,8,19,,1021,90,5,20140929190000
861,"City committee communist party school, Luoyang",,34.650169,112.400212,139,71,14,27,25,7,19,,1021,90,5,20140929190000
862,"Henan Forestry College, Luoyang",,34.685566,112.509429,97,54,7,17,14,6,19,,1021,90,5,20140929190000
863,"CITIC No.2 Elementary School, Luoyang",,34.668212,112.36907,89,78,4,24,6,11,19,,1021,90,5,20140929190000
864,"Yuxi Hotel, Luoyang",,34.685949,112.472611,93,70,6,12,18,12,19,,1021,90,5,20140929190000
865,Luoyang,,34.617424,112.46054,139,78,19,27,35,12,19,11,1021,90,5,20140929190000
866,"City Planning Design Institute, Pingdingshan",,33.7352,113.297916,132,76,18,17,29,11,19,16,1022,83,4,20140929190000
867,"Xinhua Hotel, Pingdingshan",,33.737754,113.328814,139,87,23,19,38,11,19,16,1022,83,4,20140929190000
868,"Engineering College, Pingdingshan",,33.772474,113.188235,124,67,34,15,28,9,19,16,1022,83,4,20140929190000
869,"High Voltage Switchgear Factory, Pingdingshan",,33.719941,113.312665,152,80,16,23,46,13,19,16,1022,83,4,20140929190000
870,Pingdingshan,,33.764754,113.199082,152,87,34,23,46,13,19,16,1022,83,4,20140929190000
1303,"City Monitoring Station, Hebi",,35.748411,114.313927,91,51,11,4,9,3,17,,1030,95,6,20140929190000
1304,"BDA, Xinxiang",,35.281373,113.908605,142,66,8,9,10,4,16,,980,93,4,20140929190000
1305,"Environment protection office, Puyang",,35.851321,115.512901,85,54,10,16,27,11,16,,1033,86,6,20140929190000
