locationid,stationname,chinesename,latitude,longitude,pm25,pm10,o3,no2,so2,co,temperature,dewpoint,pressure,humidity,wind,est_time
1,Dongcheng Dongsi,,39.9304,116.423239,83,68,11,35,2,7,13,4,1027,54,1,20141005170000
2,"Temple of Heaven, Dongcheng",,39.887403,116.41324,96,32,10,25,2,5,13,4,1027,54,1,20141005170000
3,West Park officials,,39.930333,116.345162,75,53,11,34,2,7,13,4,1027,54,1,20141005170000
4,West Wanshou Nishinomiya,,39.879354,116.358183,91,52,12,33,2,7,13,4,1027,54,1,20141005170000
5,Chaoyang Olympic Sports Center,,39.983406,116.403253,84,63,9,33,2,4,13,4,1027,54,1,20141005170000
6,Chaoyang Agricultural Exhibition Hall,,39.938331,116.46715,80,51,12,38,2,6,13,4,1027,54,1,20141005170000
7,Haidian Wanliu,,39.988245,116.293062,81,66,7,43,4,5,13,4,1027,54,1,20141005170000
8,The Haidian northern New Area,,40.091313,116.180194,64,-,10,16,2,3,13,4,1027,54,1,20141005170000
9,Haidian Beijing Botanical Garden,,40.003252,116.213097,62,-,27,4,2,3,13,4,1027,54,1,20141005170000
10,Fengtai garden,,39.86423,116.285037,58,-,9,35,2,5,13,4,1027,54,1,20141005170000
11,Fengtai Yungang,,39.82535,116.152237,13,23,20,7,2,3,13,4,1027,54,1,20141005170000
12,Shijingshan city,,39.915286,116.190144,82,116,16,29,2,6,13,4,1027,54,1,20141005170000
13,"Fangshan, Liangxiang",,39.743357,116.14225,113,24,8,27,2,7,13,4,1027,54,1,20141005170000
14,"Huangcunzhen, Daxing",,39.719389,116.410219,140,-,9,38,2,8,13,4,1027,54,1,20141005170000
15,BDA,,39.796197,116.51197,114,-,12,31,2,7,13,4,1027,54,1,20141005170000
16,Tongzhou New Town,,39.887113,116.6689,-,-,-,-,-,-,-,-,0,-,-,20141005170000
17,Shunyi New Town ,,40.128111,116.660908,85,41,14,26,2,5,13,4,1027,54,1,20141005170000
18,Changping Town,,40.218245,116.236084,45,21,24,5,2,3,13,4,1027,54,1,20141005170000
19,"Mentougou, Longquan Town",,39.938397,116.112323,57,-,10,20,2,4,13,4,1027,54,1,20141005170000
20,Pinggu town,,40.144433,117.106563,85,-,15,11,2,6,13,4,1027,54,1,20141005170000
21,Huairou town,,40.329104,116.63387,40,20,20,6,2,4,13,4,1027,54,1,20141005170000
22,The town of Miyun,,40.371186,116.838053,89,-,9,20,5,7,13,4,1027,54,1,20141005170000
23,Yanqing town,,40.454217,115.978106,91,-,17,28,2,8,13,4,1027,54,1,20141005170000
24,Changping Dingling,,40.293269,116.226108,52,10,25,3,2,2,13,4,1027,54,1,20141005170000
25,Badaling Northwest,,40.36623,115.994146,46,-,17,4,2,3,13,4,1027,54,1,20141005170000
26,Miyun Reservoir,,40.500157,116.91701,51,-,26,3,2,3,13,4,1027,54,1,20141005170000
27,"Donggaocun Zhen, Pinggu",,40.10142,117.126556,30,-,22,4,2,2,13,4,1027,54,1,20141005170000
28,"Yongledianzhen, Tongzhou",,39.713192,116.78905,166,-,7,22,6,5,13,4,1027,54,1,20141005170000
29,"Yufazhen, Daxing",,39.521203,116.306026,122,-,9,8,2,6,13,4,1027,54,1,20141005170000
30,"Liulihezhen, Fangshan",,39.581169,116.006089,153,-,12,23,4,3,13,4,1027,54,1,20141005170000
31,"Qianmen E St, Dongcheng",,39.900402,116.401242,81,-,11,34,2,7,13,4,1027,54,1,20141005170000
32,Yongdingmen Inner St,,39.877401,116.400238,154,-,8,53,9,12,13,4,1027,54,1,20141005170000
33,Xizhimen N St,,39.955352,116.355187,101,-,9,37,2,11,13,4,1027,54,1,20141005170000
34,South Ring Road,,39.857377,116.37421,94,-,4,45,3,7,13,4,1027,54,1,20141005170000
35,East Fourth Ring Road,,39.940273,116.489075,153,-,6,13,2,8,13,4,1027,54,1,20141005170000
36,Beijing,,39.955906,116.474246,109,51,12,38,2,7,13,4,1027,54,1,20141005170000
37,Putuo,,31.232979,121.415378,107,59,40,10,6,5,19,16,1020,83,4,20141005170000
38,Yangpu Sipiao,,31.263795,121.540311,145,58,48,7,6,7,19,16,1020,83,4,20141005170000
39,Shanghai Normal College Primary Division,,31.199031,121.487719,128,60,43,10,4,8,19,16,1020,83,4,20141005170000
40,Dianshan Lake,,31.091338,120.982293,154,64,49,7,9,6,19,16,1020,83,4,20141005170000
41,Hongkou Liangcheng,,31.298906,121.47155,122,54,45,6,7,8,19,16,1020,83,4,20141005170000
42,Jingan,,31.224251,121.429637,112,62,34,17,9,13,19,16,1020,83,4,20141005170000
43,Shanghai Normal University,,31.163531,121.416643,124,59,42,15,9,10,19,16,1020,83,4,20141005170000
44,Chuansha,,31.188626,121.707342,101,54,42,8,8,5,19,16,1020,83,4,20141005170000
45,Zhangjiang,,31.204896,121.581215,84,56,47,8,10,5,19,16,1020,83,4,20141005170000
46,Lingshan Road,,31.226286,121.537317,95,59,48,8,6,5,19,16,1020,83,4,20141005170000
1080,City average,,31.228451,121.478227,113,58,43,10,7,7,19,16,1020,83,4,20141005170000
47,Shanghai,,31.202842,121.453493,128,62,43,17,9,13,19,16,1020,83,4,20141005170000
48,Guangzhou,,23.138517,113.263701,112,53,45,23,10,11,25,11,1015,41,2,20141005170000
49,"Huadu town, Guangzhou",,23.389121,113.220062,102,56,59,12,6,4,25,11,1015,41,2,20141005170000
50,"Luogang Zhenlong, Guangzhou",,23.308027,113.567032,152,82,35,39,12,8,25,11,1015,41,2,20141005170000
51,"LuHu, Guangzhou",,23.151743,113.281842,112,40,45,13,8,11,25,11,1015,41,2,20141005170000
52,"Tianhu, Guangzhou",,23.647433,113.629715,114,56,107,5,17,7,25,11,1015,41,2,20141005170000
53,"Zhudong, Guangzhou",,23.418406,113.078552,124,61,55,24,18,7,25,11,1015,41,2,20141005170000
54,"Modiesha station, Guangzhou",,23.103814,113.338238,78,58,61,27,23,9,25,11,1015,41,2,20141005170000
55,Zhuhai,,22.2677,113.581765,152,111,123,18,11,12,27,22,1014,74,6,20141005170000
1075,"Huicai technical school, Foshan",,23.039667,113.105492,93,48,42,7,11,7,25,11,1015,41,2,20141005170000
56,"Sanshuiyun donghai, Foshan",,23.185788,112.865368,129,66,37,22,26,9,25,11,1015,41,2,20141005170000
57,"Nanhai Bureau of Meteorology, Foshan",,23.046836,113.145764,78,48,48,12,7,6,25,11,1015,41,2,20141005170000
58,"Sanshui Monitoring Station, Foshan",,23.163551,112.890843,129,57,32,24,24,4,25,11,1015,41,2,20141005170000
1087,Foshan,,23.018995,113.126899,93,48,48,12,11,7,25,11,1015,41,2,20141005170000
59,"Ronggui street committee, Shunde",,22.762729,113.258356,127,55,41,29,8,8,25,11,1015,41,2,20141005170000
60,Shunde,,22.80246,113.298701,127,60,41,33,12,8,-,-,0,-,-,20141005170000
61,"Donghu, Jiangmen",,22.590411,113.087351,99,52,49,19,9,3,27,21,1014,70,5,20141005170000
62,"Taoyuan Atmosphere Premier Station, Jiangmen",,22.72489,112.93404,158,90,38,34,17,7,27,21,1014,70,5,20141005170000
63,Jiangmen,,22.576047,113.087351,119,59,64,19,14,12,27,21,1014,70,5,20141005170000
64,"Kengkouzi station, Zhaoqing",,23.158865,112.570287,127,61,42,5,8,7,25,11,1015,41,2,20141005170000
65,"Mugangzi station, Zhaoqing",,23.067961,112.431934,142,65,32,37,5,8,25,11,1015,41,2,20141005170000
67,Zhaoqing,,23.044571,112.470346,142,65,48,37,7,8,25,11,1015,41,2,20141005170000
68,"Jinguo Bay, Huizhou",,22.937223,114.385567,87,54,47,6,5,5,26,19,1015,65,2,20141005170000
1091,"Xiabu, Huizhou",,23.077493,114.410275,114,66,56,10,10,5,26,19,1015,65,2,20141005170000
69,"Xijiao, Huizhou",,23.338178,114.112867,89,36,32,11,5,7,26,19,1015,65,2,20141005170000
70,"Jiangbei, Huizhou",,23.111706,114.415274,107,68,60,15,11,8,26,19,1015,65,2,20141005170000
71,"Huiyang chuanhu, Huizhou",,22.814485,114.329292,156,60,44,27,6,10,26,19,1015,65,2,20141005170000
72,"Daya bay management committee, Huizhou",,22.739283,114.53631,99,55,47,21,15,5,26,19,1015,65,2,20141005170000
73,Huizhou,,23.109349,114.421164,114,68,60,15,11,8,26,19,1015,65,2,20141005170000
74,"Guancheng No.2 water plant, Dongguan",,23.057294,113.753254,112,57,45,32,13,7,26,19,1015,65,2,20141005170000
75,"Dongcheng Shijing, Dongguan",,23.010039,113.799529,104,49,43,12,8,6,26,19,1015,65,2,20141005170000
76,"Nancheng Xiping, Dongguan",,22.963051,113.743494,114,51,48,11,9,7,26,19,1015,65,2,20141005170000
77,"Nancheng Yuanling, Dongguan",,23.025058,113.751308,114,50,60,10,10,9,26,19,1015,65,2,20141005170000
78,Dongguan,,23.017813,113.756958,114,57,60,32,13,9,26,19,1015,65,2,20141005170000
79,"Zimaling, Zhongshan",,22.505112,113.407183,142,63,38,31,15,9,27,22,1014,74,5,20141005170000
80,"Yangtze River tourist area, Zhongshan",,22.48589,113.439054,134,53,44,10,5,12,27,22,1014,74,5,20141005170000
81,"Huabai Park, Zhongshan",,22.51839,113.374362,151,66,24,42,14,14,27,22,1014,74,5,20141005170000
82,Zhongshan,,22.513997,113.398277,151,83,44,42,24,14,27,22,1014,74,5,20141005170000
83,"No.8 middle school, Shaoguan",,24.767777,113.583537,97,60,32,18,51,8,22,13,1018,46,1,20141005170000
83,"No.8 middle school, Shaoguan",,24.767777,113.583537,97,60,32,18,51,8,22,13,1018,46,1,20141005170000
84,"Forest area, Shaoguan",,24.796107,113.612131,95,46,40,9,27,8,22,13,1018,46,1,20141005170000
84,"Forest area, Shaoguan",,24.796106,113.612131,95,46,40,9,27,8,22,13,1018,46,1,20141005170000
86,"Shaoguan University, Shaoguan",,24.790864,113.646598,85,33,40,12,10,6,22,13,1018,46,1,20141005170000
86,"Shaoguan University, Shaoguan",,24.790864,113.646599,85,33,40,12,10,6,22,13,1018,46,1,20141005170000
88,"Qujiang Monitoring Station, Shaoguan",,24.683042,113.60157,97,56,45,14,49,6,22,13,1018,46,1,20141005170000
88,"Qujiang Monitoring Station, Shaoguan",,24.683042,113.60157,97,56,45,14,49,6,22,13,1018,46,1,20141005170000
89,Shaoguan,,24.807342,113.602712,132,60,61,18,53,10,22,13,1018,46,1,20141005170000
90,"Chaonanzi Station, Shantou",,23.251213,116.406762,117,77,46,11,12,12,22,20,1015,88,1,20141005170000
91,Shantou,,23.350642,116.686306,87,54,73,8,7,10,22,20,1015,88,1,20141005170000
92,"City Environmental Monitoring Station, Zhanjiang",,21.220431,110.397317,139,66,42,11,14,8,25,18,1014,58,3,20141005170000
93,"EPB Dormitory, Zhanjiang",,21.197376,110.406487,127,65,39,12,11,12,25,18,1014,58,3,20141005170000
94,"Xiashan Swimming Park, Zhanjiang",,21.200431,110.415655,119,47,39,12,19,12,25,18,1014,58,3,20141005170000
95,"Zhanjiang Theatre, Zhanjiang",,21.268177,110.366445,149,65,42,9,11,14,25,18,1014,58,3,20141005170000
96,"Mazhang EPA, Zhanjiang",,21.265486,110.335993,152,66,16,13,17,10,25,18,1014,58,3,20141005170000
97,"Potou District EPB, Zhanjiang",,21.247604,110.454508,149,78,42,13,12,11,25,18,1014,58,3,20141005170000
98,Zhanjiang,,21.26832,110.363883,152,78,42,13,19,14,25,18,1014,58,3,20141005170000
99,"Maogang sub-office EPB, Maoming",,21.466435,111.033462,152,68,43,6,6,5,24,17,0,64,5,20141005170000
100,"Petrochemical No. 7 elementaty school, Maoming",,21.648905,110.937861,147,61,46,15,11,8,24,17,0,64,5,20141005170000
101,"Jiankang road, Maoming",,21.662211,110.909482,151,67,26,22,11,18,24,17,0,64,5,20141005170000
102,"Gaoling, Maoming",,21.690558,110.871146,173,88,28,15,60,10,24,17,0,64,5,20141005170000
1094,Maoming,,21.660223,110.929968,173,88,46,22,59,18,24,17,0,64,5,20141005170000
103,"Jiaying University, Meizhou",,24.325415,116.12816,102,53,33,10,5,9,22,20,1015,88,1,20141005170000
104,"Mexian new town, Meizhou",,24.269283,116.084546,129,70,26,27,12,10,22,20,1015,88,1,20141005170000
105,"Environmental Monitoring Center, Meizhou",,24.262778,116.129621,151,113,23,33,16,10,22,20,1015,88,1,20141005170000
1095,Meizhou,,24.285988,116.127065,151,113,33,33,16,10,22,20,1015,88,1,20141005170000
106,"City EPA, Shanwei",,22.772349,115.370227,102,49,91,7,6,6,24,19,1016,65,2,20141005170000
107,"City government, Shanwei",,22.787161,115.375536,122,54,87,5,7,7,24,19,1016,65,2,20141005170000
108,"Xincheng Middle School, Shanwei",,22.789851,115.367124,104,54,71,6,6,9,24,19,1016,65,2,20141005170000
1099,Shanwei,,22.783576,115.38022,122,54,91,7,7,9,24,19,1016,65,2,20141005170000
109,"No.3 elementary school, Heyuan",,23.755946,114.699091,78,43,66,12,9,7,25,12,1016,35,2,20141005170000
109,"No.3 elementary school, Heyuan",,23.75435,114.703514,78,43,66,12,9,7,25,12,1016,35,2,20141005170000
111,"City water company, Heyuan",,23.754246,114.682459,142,65,52,30,8,8,25,12,1016,35,2,20141005170000
111,"City water company, Heyuan",,23.688709,114.954652,142,65,52,30,8,8,25,12,1016,35,2,20141005170000
113,"Heyuan high school, Heyuan",,23.720037,114.699563,119,61,62,13,9,8,25,12,1016,35,2,20141005170000
113,"Heyuan high school, Heyuan",,23.720666,114.693879,119,61,62,13,9,8,25,12,1016,35,2,20141005170000
115,Heyuan,,23.740888,114.705147,142,65,66,30,9,8,25,12,1016,35,2,20141005170000
116,"Yuanyang Lake, Yangjiang",,21.855869,111.983676,160,66,76,9,4,10,26,16,1015,47,2,20141005170000
1100,Yangjiang,,21.855227,111.987308,160,83,78,19,4,11,26,16,1015,47,2,20141005170000
118,"Town governement, Qingyuan",,23.708005,113.026215,34,23,30,6,9,14,25,12,1015,44,2,20141005170000
119,"Fupin district, Qingyuan",,24.185415,113.419369,50,21,28,10,5,16,25,12,1015,44,2,20141005170000
119,"Fupin district, Qingyuan",,23.624781,113.067713,50,21,28,10,5,16,25,12,1015,44,2,20141005170000
121,"Environment protection office, Qingyuan",,23.685931,113.053239,82,27,31,10,12,8,25,12,1015,44,2,20141005170000
121,"Environment protection office, Qingyuan",,23.691109,113.047948,82,27,31,10,12,8,25,12,1015,44,2,20141005170000
123,"Fengcheng Subdistrict, Qingyuan",,23.695447,113.068189,34,23,30,6,9,14,25,12,1015,44,3,20141005170000
124,Qingyuan,,23.679304,113.061513,82,27,31,10,12,16,25,12,1015,44,2,20141005170000
125,"Xiyuan Road, Chaozhou",,23.668654,116.638272,152,56,61,4,5,12,22,20,1015,88,1,20141005170000
126,"Archives Bureau, Chaozhou",,23.667881,116.649104,151,59,77,10,5,12,22,20,1015,88,1,20141005170000
127,"Municipal Corporation, Chaozhou",,23.65035,116.621859,167,89,64,25,22,13,22,20,1015,88,1,20141005170000
1101,Chaozhou,,23.654204,116.626969,167,89,77,25,22,13,22,20,1015,88,1,20141005170000
128,"Donghu Park, Jieyang",,23.532877,116.374427,99,40,91,7,11,12,22,20,1015,88,1,20141005170000
129,"Yuhu Middle School, Jieyang",,23.52682,116.414123,153,60,66,8,13,9,22,20,1015,88,1,20141005170000
130,"Experimental Primary School, Jieyang",,23.571473,116.364137,124,60,64,11,11,9,22,20,1015,88,1,20141005170000
1102,Jieyang,,23.547596,116.37754,153,60,91,11,13,12,22,20,1015,88,1,20141005170000
131,"City Environmental Monitoring Station, Yunfu",,22.936779,112.042248,152,80,24,15,14,9,25,11,1015,41,2,20141005170000
132,"The new city government headquarters, Yunfu",,22.914275,112.044475,158,80,33,12,7,17,25,11,1015,41,2,20141005170000
133,"Muyang police sub-station, Yunfu",,22.951267,112.05923,89,50,22,41,17,16,25,11,1015,41,2,20141005170000
1103,Yunfu,,22.912436,112.049811,158,80,33,41,14,17,25,11,1015,41,2,20141005170000
134,Yantian,,22.587949,114.266899,93,33,46,8,7,4,26,19,1015,65,2,20141005170000
135,Kwai Chung,,22.572837,113.867166,152,72,24,29,8,10,26,19,1015,65,2,20141005170000
135,Kwai Chung,,22.627947,114.428875,152,72,24,29,8,10,26,19,1015,65,2,20141005170000
135,Kwai Chung,,22.354168,114.134558,152,72,24,29,8,10,26,19,1015,65,2,20141005170000
137,Nanyou,,22.513802,113.928051,124,62,56,2,3,8,26,19,1015,65,2,20141005170000
138,Meisha,,22.59611,114.318345,107,40,45,5,4,12,26,19,1015,65,2,20141005170000
139,Xi xiang,,22.717524,114.252304,132,73,32,22,5,16,29,15,1012,42,2,20141005170000
140,Liyuan,,22.54732,114.101205,109,57,36,20,4,11,26,19,1015,65,2,20141005170000
1072,Kwai Chung,,22.572837,113.867166,117,40,34,7,3,8,26,19,1015,65,2,20141005170000
1072,Kwai Chung,,22.627947,114.428875,117,40,34,7,3,8,26,19,1015,65,2,20141005170000
1072,Kwai Chung,,22.354168,114.134558,117,40,34,7,3,8,26,19,1015,65,2,20141005170000
141,OCT,,22.539549,113.992458,124,60,47,20,3,19,26,19,1015,65,2,20141005170000
142,Honghu,,22.559647,114.121976,147,74,49,58,3,12,26,19,1015,65,2,20141005170000
143,Mission Hills,,22.694131,114.050496,134,66,45,18,4,8,26,19,1015,65,2,20141005170000
144,Shenzhen,,22.540382,114.062982,152,74,56,58,8,19,-,-,0,-,-,20141005170000
145,Chengdu,,30.622581,104.069564,151,91,22,59,7,11,19,16,1022,83,1,20141005170000
146,"Jinquan lianghe, Chengdu",,30.710359,103.974209,173,82,20,36,5,8,20,16,1023,78,0,20141005170000
147,"Shilidian, Chengdu",,30.684718,104.17845,154,95,21,49,4,8,20,16,1023,78,0,20141005170000
148,"Sanwayao, Chengdu",,30.568159,104.081524,-,-,2,28,6,-,-,-,0,-,-,20141005170000
149,"Shahepu, Chengdu",,30.633685,104.120536,144,67,16,35,2,10,20,16,1023,78,0,20141005170000
150,"Liang Lane, Chengdu",,30.682601,104.076522,109,65,35,33,2,5,22,16,1022,69,1,20141005170000
151,"Caotang Temple, Chengdu",,30.651891,104.0284,154,91,22,59,7,11,20,16,1023,78,0,20141005170000
152,"Lingyansi, Chengdu",,31.025729,103.615022,99,54,51,5,14,2,20,16,1023,78,0,20141005170000
153,"Fuleshan, Mianyang",,31.472493,104.7806,107,56,38,5,5,6,24,14,1020,43,2,20141005170000
154,"High-tech Zone Water Company, Mianyang",,31.463309,104.674293,142,66,23,27,9,8,24,14,1020,43,2,20141005170000
155,"No.3 water company, Mianyang",,31.505002,104.731054,127,65,23,30,4,9,24,14,1020,43,2,20141005170000
156,Mianyang,,31.465174,104.681731,142,67,38,30,13,9,24,14,1020,43,2,20141005170000
157,"Dongshan Park, Deyang",,31.118648,104.424587,78,54,48,5,7,4,20,16,1023,78,0,20141005170000
158,"Xixiaoqu, Deyang",,31.131159,104.390972,99,57,20,28,10,7,20,16,1023,78,0,20141005170000
159,"City Procuratorate, Deyang",,31.114554,104.407986,114,58,12,32,8,9,20,16,1023,78,0,20141005170000
160,"Refractory Factory, Deyang",,31.108606,104.356506,154,74,27,22,14,4,20,16,1023,78,0,20141005170000
161,Deyang,,31.124715,104.400703,154,74,48,32,14,9,20,16,1023,78,0,20141005170000
162,"Nongnongping, Panzhihua",,26.566698,101.695438,61,37,23,14,20,6,16,8,0,49,2,20141005170000
163,"Hemenkou, Panzhihua",,26.589072,101.578312,112,58,29,12,6,7,16,8,0,49,2,20141005170000
164,"Bingcaogang, Panzhihua",,26.58143,101.718473,59,47,14,24,7,7,16,8,0,49,2,20141005170000
165,"Renhe, Panzhihua",,26.498166,101.746887,50,29,16,11,7,7,16,8,0,49,2,20141005170000
166,"Jinjina, Panzhihua",,26.553226,101.84862,63,42,20,8,34,5,16,8,0,49,2,20141005170000
167,Panzhihua,,26.578779,101.720211,112,58,29,24,34,7,16,8,0,49,2,20141005170000
168,"Shima Middle School, Yibin",,28.815979,104.599199,151,83,25,21,13,9,21,18,1022,77,1,20141005170000
169,"Municipal party committee, Yibin",,28.762654,104.624834,154,72,33,21,16,10,21,18,1022,77,1,20141005170000
170,"No. 4 middle school, Yibin",,28.783257,104.608407,162,88,22,23,12,8,21,18,1022,77,1,20141005170000
171,"City government, Yibin",,28.760477,104.644079,147,75,18,23,9,8,21,18,1022,77,1,20141005170000
172,"Huangjinzui, Yibin",,28.712319,104.578389,117,65,16,12,9,9,21,18,1022,77,1,20141005170000
173,"Shaping Middle School, Yibin",,28.795569,104.681393,82,33,23,6,7,7,21,18,1022,77,1,20141005170000
174,Yibin,,28.748384,104.645766,162,88,25,23,16,10,21,18,1022,77,1,20141005170000
175,"Datang Hill, Zigong",,29.359969,104.757388,157,78,25,6,1,4,21,16,1001,73,1,20141005170000
176,"Yanma Road, Zigong",,29.355752,104.724036,134,59,37,16,13,6,21,16,1001,73,1,20141005170000
177,"Tanmulin Street, Zigong",,29.353555,104.777397,174,95,28,6,12,3,21,16,1001,73,1,20141005170000
178,"Chunhua Road, Zigong",,29.33825,104.771895,160,79,17,18,10,9,21,16,1001,73,1,20141005170000
179,Zigong,,29.33617,104.781138,174,95,37,18,13,9,21,16,1001,73,1,20141005170000
180,"Jiushi Hill, Luzhou",,28.955347,105.434207,139,60,92,4,1,5,20,15,1001,74,1,20141005170000
181,"Xiaoshishang Port, Luzhou",,28.899583,105.447192,154,81,48,14,16,6,20,15,1001,74,1,20141005170000
182,"Lantianxian Bridge, Luzhou",,28.852766,105.4358,134,73,53,27,1,6,20,15,1001,74,1,20141005170000
183,"City Environment Monitoring Station, Luzhou",,28.895898,105.435802,164,75,39,36,3,7,20,15,1001,74,1,20141005170000
184,Luzhou,,28.868782,105.445938,164,81,92,36,16,7,20,15,1001,74,1,20141005170000
185,"City Committee, Nanchong",,30.799993,106.082906,167,111,21,14,4,8,22,21,1022,96,0,20141005170000
186,"Refinery Factory, Nanchong",,30.819412,106.10712,209,144,33,30,4,6,22,21,1022,96,0,20141005170000
187,"Gaoping District Monitoring Station, Nanchong",,30.783291,106.110417,171,130,23,29,3,10,22,21,1022,96,0,20141005170000
188,"Jialing District EPB, Nanchong",,30.761255,106.06818,189,138,34,39,22,9,22,21,1022,96,0,20141005170000
189,"City Environmental Monitoring Station, Nanchong",,30.836519,106.11272,181,98,24,20,10,8,22,21,1022,96,0,20141005170000
190,Nanchong,,30.835511,106.114717,209,144,33,34,29,10,22,21,1022,96,0,20141005170000
1249,"City Monitoring Station, Neijiang",,29.592673,105.036234,174,92,18,26,6,9,21,16,1001,73,1,20141005170000
1250,"Dongxing District Government , Neijiang",,29.592148,105.074966,177,88,26,11,7,4,21,16,1001,73,1,20141005170000
1251,"No 2 middle school, Neijiang",,29.579135,105.068548,169,91,29,15,8,5,21,16,1001,73,1,20141005170000
1252,Neijiang,,29.577653,105.06166,181,92,29,24,8,9,21,16,1001,73,1,20141005170000
1253,"City Monitoring Station, Suining",,30.610641,105.683583,157,79,27,11,3,12,21,16,0,75,1,20141005170000
1254,"Administrative center , Suining",,30.63206,105.819747,154,87,30,35,13,6,21,16,0,75,1,20141005170000
1255,Suining,,30.530053,105.596307,170,127,36,14,21,12,21,16,0,73,1,20141005170000
1256,"City Monitoring Station, Leshan",,29.560651,103.759211,122,62,15,27,33,8,20,14,0,68,1,20141005170000
1257,"Leshan Giant Buddha Scenic Area , Leshan",,29.543938,103.772706,144,71,23,32,39,9,20,14,0,68,1,20141005170000
1258,Leshan,,29.54935,103.767777,144,71,23,32,39,12,20,14,0,68,1,20141005170000
1259,"Heilongtan , Meishan",,30.047726,103.900649,119,60,31,3,6,4,19,16,1022,83,1,20141005170000
1260,"Bureau of Meteorology, Meishan",,30.084591,103.843715,174,95,17,19,5,8,19,16,1022,83,1,20141005170000
1261,"Xuguang Community , Meishan",,30.066277,103.8516,169,62,25,10,3,5,19,16,1022,83,1,20141005170000
1262,"City Monitoring Station, Meishan",,30.059205,103.836229,169,75,22,18,18,7,19,16,1022,83,1,20141005170000
1263,Meishan,,30.072618,103.85064,174,95,31,19,18,8,19,16,1022,83,1,20141005170000
1264,"Ziyang middle school, Ziyang",,30.147763,104.638024,134,77,37,8,18,14,22,16,1001,72,1,20141005170000
1265,Ziyang,,30.126054,104.63004,134,112,45,30,43,19,22,16,1001,72,1,20141005170000
191,Shenyang US Consulate,,41.785668,123.432865,80,40,33,19,9,6,12,-1,1023,41,3,20141005170000
192,"Huishan, Shenyang",,41.835421,123.647773,68,25,33,6,3,6,13,-2,1023,36,4,20141005170000
193,"Hunnan, Shenyang",,41.758263,123.540809,74,47,28,18,5,5,12,-1,1023,41,3,20141005170000
194,"Zhangshi, Shenyang",,41.771679,123.289859,117,61,16,19,34,6,13,-2,1023,36,4,20141005170000
195,"Artillery College, Shenyang",,41.835749,123.547799,50,51,33,14,5,6,12,-1,1023,41,3,20141005170000
196,"Beiling, Shenyang",,41.849633,123.434146,76,30,17,20,4,4,13,-2,1023,36,4,20141005170000
197,"Wenyi Road, Shenyang",,41.767444,123.416144,85,40,33,19,9,4,12,-1,1023,41,3,20141005170000
198,"Xiaoheyan, Shenyang",,41.779828,123.484015,104,45,30,19,13,5,13,-2,1023,36,4,20141005170000
199,"Taiyuan Street, Shenyang",,41.799646,123.406146,74,34,12,22,5,6,13,-2,1023,36,4,20141005170000
200,"Ermao, Shenyang",,41.783011,123.366679,76,32,34,18,8,5,12,-1,1023,41,3,20141005170000
201,"Liaoning University, Shenyang",,41.830704,123.361071,63,31,26,9,4,5,12,-1,1023,41,3,20141005170000
202,Shenyang,,41.808126,123.437611,80,40,17,22,9,6,12,-1,1023,41,3,20141005170000
1104,"wenhua street, Shenyang , Shenyang",,41.774139,123.441839,85,40,33,19,9,4,13,-2,1023,36,4,20141005170000
1105,"Tanglin Road , Shenyang , Shenyang",,41.823665,123.562317,50,51,33,14,5,6,13,-2,1023,36,4,20141005170000
203,"Ganjingzi, Dalian",,38.9747,121.616893,80,54,39,9,3,3,14,7,1022,63,5,20141005170000
204,"Zhoushuizi, Dalian",,38.951928,121.569981,65,50,36,9,2,8,14,7,1022,63,5,20141005170000
205,"Xinghai No 3 station, Dalian",,38.885779,121.568864,89,38,33,8,5,4,14,7,1022,63,5,20141005170000
206,"Qingniwa Bridge, Dalian",,38.91274,121.638018,72,41,35,10,1,5,14,7,1022,63,5,20141005170000
207,"Fujiazhuang, Dalian",,38.864647,121.629947,80,42,36,10,7,4,14,7,1022,63,5,20141005170000
208,"Qixianling, Dalian",,38.856978,121.523169,70,36,22,10,2,5,14,7,1022,63,5,20141005170000
209,"Lushun, Dalian",,38.808946,121.264063,72,30,15,6,3,4,14,7,1022,63,5,20141005170000
210,"Jinzhou, Dalian",,39.132192,121.753259,80,32,19,7,5,3,14,7,1022,63,5,20141005170000
211,"BDA, Dalian",,39.05213,121.782022,95,33,21,5,2,3,14,7,1022,63,5,20141005170000
212,"D&D Port, Dalian",,39.064087,121.981874,78,31,10,6,2,8,14,7,1022,63,5,20141005170000
213,Dalian,,38.91478,121.619625,80,42,36,10,7,4,-,-,0,-,-,20141005170000
214,"Bearing Factory, Dandong",,40.068929,124.345703,65,30,17,6,11,19,13,9,1020,72,3,20141005170000
215,"Financial school, Dandong",,40.158723,124.432593,59,22,16,3,6,9,13,9,1020,72,3,20141005170000
216,"Yuanbaoshan water, Dandong",,40.149431,124.391698,61,19,17,5,12,13,13,9,1020,72,3,20141005170000
217,"Experimental Primary School, Dandong",,39.887343,124.158056,76,38,9,8,4,3,13,9,1020,72,3,20141005170000
218,Dandong,,40.002046,124.360479,72,32,17,6,12,13,13,9,1020,72,3,20141005170000
1106,"minzhu bridge, Dandong , Dandong",,40.112974,124.373604,72,32,10,6,4,3,13,9,1020,72,3,20141005170000
1107,"yuanbaoshan, Dandong , Dandong",,40.146298,124.399081,59,16,17,5,12,13,13,9,1020,72,3,20141005170000
1108,"linjiang houjie, Dandong , Dandong",,40.152757,124.431745,57,20,17,2,6,9,13,9,1020,72,3,20141005170000
219,"BDA, Panjin",,41.157144,122.06645,87,26,25,8,8,6,10,1,0,55,4,20141005170000
220,"Xinglongtai, Panjin",,41.140948,122.111343,-,-,-,-,-,-,-,-,0,-,-,20141005170000
221,"Dingxiang, Panjin",,41.16139,121.928781,74,32,19,30,6,10,10,1,0,55,4,20141005170000
222,Panjin,,41.122089,122.076206,87,32,25,30,8,10,10,1,0,55,4,20141005170000
223,"No.3 water company, Yingkou",,40.682052,122.385352,46,21,36,5,5,5,12,6,1024,56,5,20141005170000
224,"Yingkou University, Yingkou",,40.683689,122.388285,38,22,30,4,4,5,12,6,1024,56,5,20141005170000
225,"Botanical garden, Yingkou",,40.711674,122.281568,59,23,32,6,5,8,12,6,1024,56,5,20141005170000
226,Yingkou,,40.668578,122.24059,55,21,34,5,5,7,12,6,1024,56,5,20141005170000
1109,"jinghu west street, Yingkou , Yingkou",,40.653831,122.221943,42,21,34,5,4,5,12,6,1024,56,5,20141005170000
1110,"Daqing Road , Yingkou , Yingkou",,40.709181,122.28243,55,20,30,5,5,7,12,6,1024,56,5,20141005170000
227,"Xishanpo, Huludao",,40.724078,120.921974,68,29,27,6,6,5,10,1,0,55,4,20141005170000
228,"Huagong hospital, Huludao",,40.755662,120.848435,55,38,19,12,9,11,10,1,0,55,4,20141005170000
229,"New district park, Huludao",,40.723415,120.853801,63,41,24,17,14,4,10,1,0,55,4,20141005170000
230,"Lianshan district governement, Huludao",,40.775488,120.872292,46,20,31,8,12,2,10,1,0,55,4,20141005170000
231,Huludao,,40.712501,120.842107,68,33,30,12,15,11,12,5,0,49,3,20141005170000
1111,"Dongcheng District , Huludao , Huludao",,40.775362,120.871706,50,20,30,12,15,2,,,0,,,20141005170000
1112,"huagong street, Huludao , Huludao",,40.758901,120.842935,57,33,19,10,9,11,,,0,,,20141005170000
232,Anshan,,41.110466,123.000147,87,53,25,27,30,33,12,-1,1023,41,3,20141005170000
233,"Qianshan Park, Anshan",,41.033486,123.143897,65,34,20,13,12,6,12,-1,1023,41,3,20141005170000
234,"Tiexi, Anshan",,41.121636,122.97506,87,54,10,26,46,31,12,-1,1023,41,3,20141005170000
235,"Taiping Station, Anshan",,41.153322,123.052433,82,43,16,5,12,8,12,-1,1023,41,3,20141005170000
236,"Central Station, Anshan",,41.106731,123.002736,80,49,27,19,10,13,12,-1,1023,41,3,20141005170000
237,"Shengou Temple, Anshan",,41.137157,123.031901,68,40,21,15,8,12,12,-1,1023,41,3,20141005170000
1113,"Qianshan , Anshan , Anshan",,41.014521,123.122538,61,30,19,13,10,5,12,-1,1023,41,3,20141005170000
1114,"Tiexi Sandao jie, Anshan",,41.103264,122.978613,82,53,7,22,30,33,12,-1,1023,41,3,20141005170000
1115,"Taiyang, Anshan",,41.094946,123.019037,80,49,25,27,10,11,12,-1,1023,41,3,20141005170000
238,Fushun,,41.883028,123.962984,80,43,30,7,6,8,12,-1,1023,41,3,20141005170000
239,"Shenfu new town, Fushun",,41.804638,123.631684,70,33,30,7,6,8,12,-1,1023,41,3,20141005170000
240,"Reservoir, Fushun",,41.8464,123.802857,93,46,23,6,3,8,12,-1,1023,41,3,20141005170000
241,"Train Station, Fushun",,41.89726,124.017604,78,46,26,8,5,7,12,-1,1023,41,3,20141005170000
242,"Dongzhou, Fushun",,41.855578,124.044738,70,53,23,12,5,6,12,-1,1023,41,3,20141005170000
243,"Xinhua, Fushun",,41.888598,123.932932,72,53,25,6,4,6,12,-1,1023,41,3,20141005170000
244,"Wanghua, Fushun",,41.888825,123.093723,91,51,30,9,7,8,12,-1,1023,41,3,20141005170000
245,Benxi,,41.296267,123.772371,139,58,3,19,7,8,12,-1,1023,41,3,20141005170000
246,"Weining, Benxi",,41.349663,123.826071,153,97,14,22,3,4,13,-2,1023,36,4,20141005170000
247,"Occupational disease hospital, Benxi",,41.305432,123.74645,129,54,6,19,6,8,12,-1,1023,41,3,20141005170000
248,"Dongming, Benxi",,41.292369,123.765058,132,60,11,33,19,23,12,-1,1023,41,3,20141005170000
249,"Caitun, Benxi",,41.301591,123.746039,82,58,10,27,8,10,12,-1,1023,41,3,20141005170000
250,"Xihu, Benxi",,41.331332,123.773537,95,34,25,14,7,12,12,-1,1023,41,3,20141005170000
251,"Dayu, Benxi",,41.308091,123.818442,127,54,13,13,13,8,12,-1,1023,41,3,20141005170000
1116,"Xinlitun , Benxi , Benxi",,41.264104,123.811523,139,58,3,19,7,8,12,-1,1023,41,3,20141005170000
252,Jinzhou,,41.097169,121.132647,76,51,28,22,59,6,12,5,1025,49,3,20141005170000
253,"Beihu Park, Jinzhou",,41.141447,121.137339,68,30,27,7,8,6,12,5,1025,49,3,20141005170000
254,"Monitoring station, Jinzhou",,41.113441,121.140911,65,23,28,9,5,3,12,5,1025,49,3,20141005170000
255,"Nanshan, Jinzhou",,41.570689,122.046753,70,20,27,12,6,6,12,5,1025,49,3,20141005170000
1118,"BDA, Jinzhou",,40.853915,121.061756,76,51,13,22,59,6,12,5,1025,49,3,20141005170000
1119,"tianan street, Jinzhou , Jinzhou",,41.124468,121.126119,63,22,28,9,5,3,12,5,1025,49,3,20141005170000
1120,"baigu street, Jinzhou, Jinzhou",,41.12214,121.21027,72,26,28,6,4,4,12,5,1025,49,3,20141005170000
1121,Chaoyang,,41.576022,120.456053,139,71,14,20,7,21,-,-,0,-,-,20141005170000
472,"Fukang road, Tianjin",,39.098136,117.157621,87,72,8,17,3,4,11,6,1026,71,2,20141005170000
1122,"Agricultural Area, Chaoyang",,43.93968,125.247371,57,15,8,6,4,6,10,5,1026,62,1,20141005170000
1123,Tieling,,42.225197,123.732174,117,55,28,24,11,7,-,-,0,-,-,20141005170000
260,"Waterpark, Tieling",,42.297031,123.880748,117,55,15,24,11,5,12,-1,1023,41,2,20141005170000
1124,"Huigong Street West , Tieling , Tieling",,42.311115,123.845614,87,49,28,9,8,3,12,-1,1023,41,3,20141005170000
1125,Liaoyang,,41.269312,123.24268,65,47,21,15,43,14,-,-,0,-,-,20141005170000
1126,"Riverside Road , Liaoyang , Liaoyang",,41.176884,123.419859,65,33,23,9,7,7,12,-1,1023,41,3,20141005170000
1127,Fuxin,,42.02373,121.675733,65,42,21,17,7,8,-,-,0,-,-,20141005170000
266,"Agricultural Area, Fuxin",,42.071291,121.696445,63,42,16,8,5,4,8,1,0,62,3,20141005170000
267,"Industrial Area, Fuxin",,42.041052,121.715554,68,34,17,11,4,8,9,1,0,59,3,20141005170000
1128,"Yulong Metro , Fuxin , Fuxin",,42.035091,121.666531,65,38,21,17,6,7,8,1,0,62,3,20141005170000
1129,"Dongyuan , Fuxin , Fuxin",,42.029119,121.681553,53,21,21,17,6,3,8,1,0,62,3,20141005170000
268,"City Monitoring Station, Jinan",,36.662614,117.054645,154,62,28,20,20,7,15,4,1026,36,5,20141005170000
269,"Shandong Institute of Economics, Jinan",,36.63819,117.074975,-,-,-,-,-,-,-,-,0,-,-,20141005170000
270,"Quancheng Plaza, Jinan",,36.661711,117.027043,72,50,27,13,16,6,15,4,1026,36,5,20141005170000
271,"Kegansuo, Jinan",,36.611582,116.99384,97,66,30,22,16,6,15,4,1026,36,5,20141005170000
272,"Agriculture Science Institute, Jinan",,36.663115,116.95063,78,56,30,27,10,10,15,4,1026,36,5,20141005170000
273,"Lanxiang technical school, Jinan",,36.700421,116.95342,124,59,12,32,25,7,15,4,1026,36,5,20141005170000
274,"Chemical factory, Jinan",,36.687463,116.994406,93,54,30,20,11,5,15,4,1026,36,5,20141005170000
275,"Provincial Seed Warehouse, Jinan",,36.685706,117.066348,89,61,28,28,1,5,15,4,1026,36,5,20141005170000
276,"Shandong Architecture University, Jinan",,36.681732,117.191868,122,59,21,18,19,11,15,4,1026,36,5,20141005170000
277,"Baosheng cable company, Jinan",,36.724638,117.130855,153,95,222,32,9,5,15,4,1026,36,5,20141005170000
278,"Paomaling, Jinan",,36.47869,117.219027,53,19,40,12,33,13,15,4,1026,36,5,20141005170000
279,"Changqing District Communist Party School, Jinan",,36.548797,116.770859,74,44,29,29,46,10,15,4,1026,36,5,20141005170000
280,"BDA, Jinan",,36.685835,117.130851,93,59,37,38,21,16,15,4,1026,36,5,20141005170000
281,Jinan,,36.651426,117.126625,154,66,40,32,25,29,15,4,1026,36,5,20141005170000
282,"Shinan district No. 1, Qingdao",,36.065534,120.40839,119,60,39,8,9,7,13,11,1022,88,3,20141005170000
283,"Shibei district No. 1, Qingdao",,36.069919,120.341264,99,48,37,9,12,10,13,11,1022,88,3,20141005170000
284,"Shibei district No. 2, Qingdao",,36.104146,120.36637,109,57,119,8,8,9,15,11,1022,77,4,20141005170000
285,"Huangdao District No. 1, Qingdao",,35.958935,120.191041,122,74,18,13,17,11,13,11,1022,88,3,20141005170000
286,"Huangdao District No. 2, Qingdao",,35.970487,120.160339,112,91,-,15,15,14,13,11,1022,88,3,20141005170000
287,"Laoshan District No. 1, Qingdao",,36.085881,120.451839,159,56,40,17,17,12,13,11,1022,88,3,20141005170000
288,"Laoshan District No. 2, Qingdao",,36.091075,120.490388,139,50,41,12,13,9,13,11,1022,88,3,20141005170000
289,"Licang District No. 1, Qingdao",,36.184872,120.38533,132,76,26,17,8,14,13,11,1022,88,3,20141005170000
290,"Licang District No. 2, Qingdao",,36.154369,120.432287,139,63,31,17,8,7,13,11,1022,88,3,20141005170000
291,"Chengyang District No. 1, Qingdao",,36.308502,120.40008,153,92,46,19,15,7,15,11,1022,77,3,20141005170000
292,"Chengyang District No. 2, Qingdao",,36.308429,120.465806,152,56,31,17,14,7,13,11,1022,88,3,20141005170000
293,Qingdao,,36.067358,120.387773,159,91,37,9,21,14,13,11,1022,88,3,20141005170000
294,"Zichuan Meteo. Stations, Zibo",,36.637916,117.960222,160,89,12,42,63,12,12,7,0,72,2,20141005170000
295,"Dongfeng Chemical factory, Zibo",,36.838576,118.050785,152,65,9,40,52,14,12,7,0,72,2,20141005170000
296,"Boshan shuangshan, Zibo",,36.497278,117.853581,144,58,15,43,77,14,12,7,0,72,2,20141005170000
297,"Linzi Putian Park, Zibo",,36.820171,118.315022,107,62,23,37,36,16,12,7,0,72,2,20141005170000
298,"Qilu Petrochemical, Zibo",,36.765907,118.254967,93,52,24,25,31,12,12,7,0,72,2,20141005170000
299,"Zhoucun sanjin Group, Zibo",,36.8044,117.85694,134,65,17,24,33,13,12,7,0,72,2,20141005170000
300,"Vocational College, Zibo",,36.825208,117.926305,157,80,15,29,42,15,12,7,0,72,2,20141005170000
301,"BDA, Zibo",,36.905214,118.021824,154,79,10,20,55,11,12,7,0,72,2,20141005170000
302,Zibo,,36.813618,118.060948,160,89,19,43,113,14,12,7,0,72,2,20141005170000
303,"Shizhong District Government, Zaozhuang",,34.850397,117.569545,95,52,49,8,50,5,18,7,1025,39,2,20141005170000
304,"Sewage treatment plant, Zaozhuang",,34.818951,117.595345,122,56,31,16,54,6,18,7,1025,39,2,20141005170000
305,"Xuecheng EPA, Zaozhuang",,34.790214,117.272455,91,56,44,16,10,4,18,7,1025,39,2,20141005170000
306,"Yicheng District government, Zaozhuang",,34.772806,117.57647,153,78,45,19,59,7,18,7,1025,39,2,20141005170000
307,"Taierzhuang EPA, Zaozhuang",,34.579462,117.741067,112,46,28,17,52,14,18,7,1025,39,2,20141005170000
308,"Shanting EPA, Zaozhuang",,35.070373,117.457691,151,71,51,12,22,8,18,7,1025,39,2,20141005170000
309,"City EPA, Zaozhuang",,34.809466,117.320608,104,61,62,12,29,5,18,7,1025,39,2,20141005170000
310,"High-tech zone, Zaozhuang",,34.821779,117.363495,95,53,12,13,33,6,18,7,1025,39,2,20141005170000
311,Zaozhuang,,34.809693,117.329634,153,78,51,19,59,14,18,7,1025,39,2,20141005170000
312,"City EPA, Dongying",,37.432052,118.672871,93,41,30,12,16,11,16,9,0,65,5,20141005170000
313,"Vocational College, Dongying",,37.438653,118.630567,78,45,29,12,24,9,16,9,0,65,5,20141005180000
314,"Xianhe Oil Production Plant, Dongying",,37.442419,118.510222,99,62,29,17,15,12,16,9,0,65,5,20141005180000
315,"Gengjin village, Dongying",,37.445072,118.55839,89,56,29,12,24,8,16,9,0,65,5,20141005180000
316,"City environmental company, Dongying",,37.466599,118.508012,102,53,28,19,11,8,16,9,0,65,5,20141005180000
317,"Hekou  district, Dongying",,37.883786,118.522171,107,59,34,9,16,8,16,9,0,65,5,20141005180000
318,"BDA, Dongying",,37.435162,118.701827,70,42,36,12,8,13,16,9,0,65,5,20141005180000
319,Dongying,,37.435429,118.680434,107,59,34,12,24,8,16,9,0,65,5,20141005180000
320,"Bearing Factory, Yantai",,37.544126,121.376956,137,63,37,12,28,5,,,0,,,20141005180000
321,"Xijiao Chemical Station, Yantai",,37.547148,121.323695,104,30,46,15,44,8,,,0,,,20141005180000
322,"Fushan Monitoring Stations, Yantai",,37.472245,121.260116,87,9,91,3,6,7,,,0,,,20141005180000
323,"Mouping EPA, Yantai",,37.376681,121.586509,122,50,42,1,7,6,,,0,,,20141005180000
324,"Laishan EPA, Yantai",,37.478422,121.44829,87,42,48,6,5,3,,,0,,,20141005180000
325,"Laishan Shengquan Industrial Park, Yantai",,37.4271,121.408386,93,55,48,6,10,5,,,0,,,20141005180000
326,"China Agricultural University, Yantai",,37.423568,121.511838,82,50,55,7,7,5,,,0,,,20141005180000
327,"BDA EPA, Yantai",,37.560827,121.257954,34,20,38,6,6,6,,,0,,,20141005180000
329,"Dajijia, Yantai",,37.673849,121.071465,97,52,36,6,7,4,,,0,,,20141005180000
330,Yantai,,37.464793,121.453142,137,63,46,15,44,8,18,10,0,62,8,20141005180000
331,"BDA, Weifang",,36.720022,119.054064,144,66,28,29,20,9,,,0,,,20141005180000
332,"Business School, Weifang",,36.682442,119.105909,152,58,32,34,52,6,,,0,,,20141005180000
333,"Hanting District, Weifang",,36.773484,119.199705,124,61,33,15,36,8,,,0,,,20141005180000
334,"Gongda Company, Weifang",,36.657635,119.167266,129,61,32,9,10,6,,,0,,,20141005180000
335,"City EPA, Weifang",,36.701272,119.16838,134,65,25,16,24,7,,,0,,,20141005180000
336,"City Arbitration Committee, Weifang",,36.702422,119.145927,127,56,43,17,22,9,,,0,,,20141005180000
337,"Xinhui Group, Weifang",,36.641581,119.11679,124,65,33,28,35,9,,,0,,,20141005180000
338,"Jincheng Middle School, Weifang",,36.773611,119.115539,137,57,39,18,20,7,,,0,,,20141005180000
339,Weifang,,36.707217,119.167638,152,66,43,34,52,9,16,9,0,65,5,20141005180000
340,"City Monitoring Station, Jining",,35.408443,116.623917,177,108,41,17,15,8,16,10,1024,56,1,20141005180000
1090,"Shengdi Hollidays Resort, Jining",,35.424746,116.699093,206,135,23,42,30,7,16,10,1024,56,1,20141005180000
341,"Sewage treatment plant, Jining",,35.364286,116.609177,180,94,44,18,15,8,16,10,1024,56,1,20141005180000
342,"Electrochemical Factory, Jining",,35.390473,116.552956,175,96,34,11,13,8,16,10,1024,56,1,20141005180000
343,"Rencheng BDA, Jining",,35.390484,116.662995,9,102,43,28,12,9,16,10,1024,56,1,20141005180000
344,"Agricultural School, Jining",,35.44235,116.601682,188,130,30,26,6,7,16,10,1024,56,1,20141005180000
345,"BDA Huojucheng, Jining",,35.436377,116.642953,193,121,35,23,15,11,16,10,1024,56,1,20141005180000
346,Jining,,35.414473,116.59239,206,135,23,42,30,7,16,10,1024,56,1,20141005180000
347,"Taishan monitoring station, Taian",,36.194362,117.159648,21,17,32,5,3,9,6,5,0,97,8,20141005180000
348,"Shandong Electric Power School, Taian",,36.176071,117.12413,17,21,39,6,2,8,6,5,0,97,8,20141005180000
349,"Population Education school, Taian",,36.194417,117.104131,42,35,38,2,3,7,6,5,0,97,8,20141005180000
350,"Houfeng company, Taian",,36.204863,117.19015,38,50,27,4,7,5,6,5,0,97,8,20141005180000
351,"Nongda new campus, Taian",,36.170179,117.165191,87,53,18,27,27,13,6,5,0,97,8,20141005180000
352,"Transportation technical school, Taian",,36.202126,117.047068,17,13,18,7,2,8,6,5,0,97,8,20141005180000
353,"ICT Technology, Taian",,36.116621,117.107458,59,22,21,13,19,13,6,5,0,97,8,20141005180000
354,Taian,,36.200502,117.093682,87,53,32,27,27,13,6,5,0,97,8,20141005180000
355,"City Environmental Monitoring Station, Weihai",,37.513939,122.067058,97,62,61,9,9,4,18,10,0,62,8,20141005180000
356,"Woodworking Factory, Weihai",,37.325455,122.160777,102,42,48,8,5,4,18,10,0,62,8,20141005180000
357,"Lantian Hotel, Weihai",,37.514641,122.146276,114,53,76,11,11,5,18,10,0,62,8,20141005180000
358,"Zhang village government, Weihai",,37.485561,122.049436,102,40,44,11,8,3,18,10,0,62,8,20141005180000
359,"Gao District Bank, Weihai",,37.534919,122.056294,97,53,62,6,10,4,18,11,0,64,7,20141005180000
360,"Huxia technical school, Weihai",,37.427951,122.130811,91,60,50,8,11,5,18,10,0,62,8,20141005180000
361,Weihai,,37.5141,122.125477,114,62,76,11,11,5,18,10,0,62,8,20141005180000
362,"City governement square, Rizhao",,35.4075,119.526008,112,56,38,8,12,6,16,11,1024,69,4,20141005180000
363,"Port Authority, Rizhao",,35.381297,119.55396,107,56,40,9,10,7,16,11,1024,69,4,20141005180000
364,"City Monitoring Station, Rizhao",,35.388683,119.496405,99,57,37,10,10,8,16,11,1024,69,4,20141005180000
365,"Professor Garden, Rizhao",,35.462161,119.574193,107,65,42,9,12,11,16,11,1024,69,4,20141005180000
366,"Vocational and Technical College, Rizhao",,35.441939,119.538187,127,57,45,10,13,7,16,11,1024,69,4,20141005180000
367,"Lanshan EPA branch, Rizhao",,35.293405,119.345716,112,55,30,12,20,9,16,11,1024,69,4,20141005180000
368,"Jinma Industrial Park, Rizhao",,35.373339,119.514108,124,80,36,23,15,7,16,11,1024,69,4,20141005180000
369,Rizhao,,35.416089,119.532316,127,80,45,23,20,11,16,11,1024,69,4,20141005180000
370,"Vegetable oil factory, Laiwu",,36.205028,117.700917,107,32,29,21,27,12,14,5,1025,42,1,20141005180000
371,"Nursing home, Laiwu",,36.266067,117.652769,124,50,25,17,18,19,14,5,1025,42,1,20141005180000
372,"Xinyi middle school, Laiwu",,36.245086,117.739025,97,29,18,26,51,18,14,5,1025,42,1,20141005180000
373,"Risheng International School, Laiwu",,36.208125,117.730959,127,50,24,13,38,8,14,5,1025,42,1,20141005180000
374,"Gangcheng EPA, Laiwu",,36.066836,117.871823,124,67,10,24,60,16,14,5,1025,42,1,20141005180000
375,"City EPA, Laiwu",,36.228913,117.694797,72,30,25,14,30,15,14,5,1025,42,1,20141005180000
376,Laiwu,,36.213688,117.682612,127,67,25,26,60,19,-,-,0,-,-,20141005180000
377,"Lunan Pharmaceutical Factory, Linyi",,35.061671,118.299527,164,75,26,17,18,9,12,8,0,73,3,20141005180000
378,"Yihe compound, Linyi",,35.056752,118.34739,161,84,24,17,20,10,12,8,0,73,3,20141005180000
379,"Linyi University, Linyi",,35.114777,118.293414,172,99,14,21,22,15,12,8,0,73,3,20141005180000
380,City EPA,Nanfang,35.104871,118.353518,164,81,31,12,27,10,12,8,0,73,3,20141005180000
381,"Xinguang woolen factory, Linyi",,34.981004,118.282,173,86,20,13,22,12,12,8,0,73,3,20141005180000
382,"Hongfu Baijiu Factory, Linyi",,34.998788,118.257275,167,100,23,16,21,14,12,8,0,73,3,20141005180000
384,"Hedong insurance company, Linyi",,35.089354,118.40812,164,81,28,20,22,8,12,8,0,73,3,20141005180000
385,"Jianghua vehicule center, Linyi",,35.010082,118.435749,160,86,24,19,28,13,12,8,0,73,3,20141005180000
386,Linyi,,35.10428,118.362202,173,100,28,13,28,14,12,8,0,73,3,20141005180000
387,"Heima group, Dezhou",,37.466063,116.314134,114,68,15,32,25,9,16,6,1026,41,0,20141005180000
388,"Monitoring station, Dezhou",,37.433107,116.377312,95,61,12,36,10,11,16,6,1026,41,0,20141005180000
389,"Supervision Station, Dezhou",,37.449689,116.324709,85,55,15,33,20,17,16,6,1026,41,0,20141005180000
390,"Huayu technical school, Dezhou",,37.462809,116.357559,112,59,15,31,13,7,16,6,1026,41,0,20141005180000
391,"Shuangyi group, Dezhou",,37.478848,116.316362,109,55,23,17,7,9,16,6,1026,41,0,20141005180000
392,Dezhou,,37.434959,116.363366,119,69,23,42,22,19,16,6,1026,41,0,20141005180000
393,"Dongchang District Government, Liaocheng",,36.444473,115.971733,142,53,16,30,33,14,17,6,1025,37,2,20141005180000
394,"Light Machinery Factory No. 2, Liaocheng",,36.456788,116.002383,-,-,-,-,-,-,-,-,0,-,-,20141005180000
395,"City committee communist party school, Liaocheng",,36.479537,115.989288,159,72,15,36,9,14,17,6,1025,37,2,20141005180000
396,"Customs, Liaocheng",,36.431933,115.956974,154,70,18,29,26,14,17,6,1025,37,2,20141005180000
397,"Hongshun Garden, Liaocheng",,36.471124,115.960319,160,81,12,44,9,16,17,6,1025,37,2,20141005180000
398,"BDA, Liaocheng",,36.459407,116.043621,158,71,17,28,38,14,17,6,1025,37,2,20141005180000
399,Liaocheng,,36.456792,115.991051,160,81,18,44,33,16,17,6,1025,37,2,20141005180000
400,"City EPA, Binzhou",,37.38024,118.026895,74,32,12,20,15,11,12,8,1026,71,1,20141005180000
401,"Beizhong new school, Binzhou",,37.38374,117.988996,89,39,10,23,32,14,12,8,1026,71,1,20141005180000
402,"No.2 water factory, Binzhou",,37.36155,118.002648,80,38,9,19,11,14,12,8,1026,71,1,20141005180000
403,"Keling Chemical factory, Binzhou",,37.396138,117.943609,91,30,11,11,2,12,12,8,1026,71,1,20141005180000
404,"Yinhe logistics company, Binzhou",,37.356122,117.943326,93,41,10,28,9,12,12,8,1026,71,1,20141005180000
405,"Bilin compond, Binzhou",,37.36815,117.978964,72,28,12,14,9,10,12,8,1026,71,1,20141005180000
406,Binzhou,,37.382639,117.976606,93,41,12,28,14,12,12,8,1026,71,1,20141005180000
407,"Bureau of Meteorology, Heze",,35.248625,115.428775,254,151,27,26,18,13,13,6,0,63,3,20141005180000
408,"Sewage treatment plant, Heze",,35.222517,115.531511,251,142,22,18,11,8,13,6,0,63,3,20141005180000
409,"Municipal CPPCC, Heze",,35.237125,115.480591,221,129,32,17,18,13,13,6,0,63,3,20141005180000
410,"Huarun Pharmaceutical Company, Heze",,35.261463,115.524873,220,141,21,23,17,19,13,6,0,63,3,20141005180000
411,"Heze University, Heze",,35.269706,115.460934,258,139,29,31,17,14,13,6,0,63,3,20141005180000
412,Heze,,35.233354,115.486503,258,151,33,31,18,14,13,6,0,63,3,20141005180000
413,"Shiji Park, Shijiazhuang",,38.03155,114.547873,158,92,9,23,6,9,9,9,1027,100,2,20141005180000
414,"Xinan College, Shijiazhuang",,38.012764,114.473163,163,121,5,18,13,6,9,9,1027,100,2,20141005180000
415,"Chemical College, Shijiazhuang",,38.055503,114.569816,183,75,20,9,1,12,9,9,1027,100,2,20141005180000
416,"Worker hospital, Shijiazhuang",,38.051784,114.461209,160,170,8,24,9,7,9,9,1027,100,2,20141005180000
417,"Northwest Water Company, Shijiazhuang",,38.140638,114.508038,165,114,9,20,8,4,9,9,1027,100,2,20141005180000
418,"High-tech zone, Shijiazhuang",,38.040482,114.610775,147,78,4,28,17,6,9,9,1027,100,2,20141005180000
419,"Fenglong Montain, Shijiazhuang",,37.910829,114.360264,70,48,38,14,27,6,9,9,1027,100,2,20141005180000
1130,"Zhengding Unicom, Shijiazhuang",,38.159458,114.59879,201,173,8,37,11,6,9,9,1027,100,2,20141005180000
1131,"Luancheng Communications, Shijiazhuang",,37.906534,114.638785,169,114,13,41,23,4,9,9,1027,100,2,20141005180000
1132,"Gaocheng Experimental School, Shijiazhuang",,38.039518,114.867812,184,108,8,25,46,6,9,9,1027,100,2,20141005180000
1133,"Wuji EPA, Shijiazhuang",,38.17862,114.997012,210,143,9,35,13,8,9,9,1027,100,2,20141005180000
1134,"Shenze Power Supply Bureau, Shijiazhuang",,38.197674,115.219126,198,109,11,38,2,7,9,9,1027,100,2,20141005180000
1135,"Zhaoxian EPA, Shijiazhuang",,37.77171,114.775957,244,146,10,47,9,7,9,9,1027,100,2,20141005180000
1136,"Gaoyi County City Hall, Shijiazhuang",,37.623535,114.612729,181,158,8,32,27,9,9,9,1027,100,2,20141005180000
1137,"Zanhuang County City Hall, Shijiazhuang",,37.672898,114.398269,89,54,12,23,2,2,9,9,1027,100,2,20141005180000
1138,"Jingxing Bureau of Meteorology, Shijiazhuang",,38.038788,114.158406,149,124,11,28,6,7,9,9,1027,100,2,20141005180000
1139,"Pingshan Ye River, Shijiazhuang",,38.266657,114.210275,132,108,13,28,8,6,9,9,1027,100,2,20141005180000
420,Shijiazhuang,,38.042926,114.520834,183,170,13,28,17,12,9,9,1027,100,2,20141005180000
421,"No. 12 middle school, Tangshan",,39.659306,118.190271,70,33,15,7,3,4,-,-,0,-,-,20141005180000
422,"Ceramics Company, Tangshan",,39.669255,118.225185,78,40,8,15,13,7,11,6,1026,71,2,20141005180000
423,"Commodities Bureau, Tangshan",,39.642301,118.191265,87,42,9,14,8,5,11,6,1026,71,2,20141005180000
424,"Leidazhanzi Station, Tangshan",,39.644375,118.150383,68,40,10,17,6,5,11,6,1026,71,2,20141005180000
425,"Supply and marketing cooperatives, Tangshan",,39.632334,118.17232,74,36,8,19,8,6,11,6,1026,71,2,20141005180000
1140,"Guye District City Hall, Tangshan",,39.741379,118.460246,99,54,13,23,18,4,11,6,1026,71,2,20141005180000
1141,"Kaiping Stations, Tangshan",,39.675246,118.275149,151,83,12,35,31,4,11,6,1026,71,2,20141005180000
1142,"Fengnan District City Hall, Tangshan",,39.5834,118.097454,74,49,9,37,11,9,11,6,1026,71,2,20141005180000
1143,"Fengrun City Hall, Tangshan",,39.840355,118.175338,107,85,18,16,18,11,11,6,1026,71,2,20141005180000
1144,"Qianxi EPA, Tangshan",,40.153339,118.317265,132,54,13,25,8,13,11,6,1026,71,2,20141005180000
1145,"Caofeidian Xinli  Primary School, Tangshan",,39.291232,118.462182,151,82,8,33,14,14,11,6,1026,71,2,20141005180000
1146,"Zunhua EPA, Tangshan",,40.206249,117.997315,144,62,9,20,12,5,11,6,1026,71,2,20141005180000
1147,"Qianan No.1 middle school, Tangshan",,40.004248,118.717055,149,51,21,20,5,9,11,6,1026,71,2,20141005180000
1266,"Luannan County , Tangshan",,39.511132,118.686928,151,65,19,28,13,8,11,6,1026,71,2,20141005180000
1267,"Yutian County , Tangshan",,39.908249,117.751417,117,103,13,39,11,10,11,6,1026,71,2,20141005180000
426,Tangshan,,39.632175,118.186472,151,83,12,37,31,9,-,-,0,-,-,20141005180000
427,"City Monitoring Station, Qinhuangdao",,39.958109,119.607773,59,20,18,13,9,4,,,0,,,20141005180000
428,"Beidaihe, Qinhuangdao",,39.829209,119.53194,76,29,13,23,20,5,,,0,,,20141005180000
429,"Shanhai Pass, Qinhuangdao",,40.019298,119.767898,13,25,19,13,19,3,,,0,,,20141005180000
430,"Contruction Plazz, Qinhuangdao",,39.943187,119.542912,82,30,10,28,16,2,,,0,,,20141005180000
431,"City government, Qinhuangdao",,39.93711,119.612769,42,18,3,14,14,4,,,0,,,20141005180000
1148,"Qinglong EPA, Qinhuangdao",,40.419223,118.958002,70,31,23,11,5,4,11,6,0,71,2,20141005180000
1149,"Changli EPA, Qinhuangdao",,39.714369,119.173237,57,30,32,6,4,2,,,0,,,20141005180000
1268,"Lulong County Bureau of Meteorology , Qinhuangdao",,39.901091,118.904857,124,56,25,12,21,4,11,6,0,71,2,20141005180000
432,Qinhuangdao,,39.936485,119.606263,82,30,18,28,16,4,-,-,0,-,-,20141005180000
433,"CongTai Park, Handan",,36.620197,114.501891,168,160,10,16,13,7,13,8,0,68,1,20141005180000
434,"City EPA, Handan",,36.618145,114.518822,193,97,15,30,8,7,13,8,0,68,1,20141005180000
435,"East Sewage Factory, Handan",,36.616064,114.548714,172,109,9,17,6,6,13,8,0,68,1,20141005180000
436,"Mine Hospital, Handan",,36.578149,114.509854,149,80,17,23,3,6,13,8,0,68,1,20141005180000
1150,"Fengfeng mine Inland Revenue Department, Handan",,36.423085,114.245994,154,73,17,19,34,5,18,7,0,37,2,20141005180000
1151,"Shexian EPA, Handan",,36.589084,113.692341,161,90,17,32,13,19,,,0,,,20141005180000
1152,"Ci County Vocational Education Center, Handan",,36.380247,114.390119,151,52,23,30,28,4,,,0,,,20141005180000
1153,"Yongnian government guesthouse, Handan",,36.783297,114.502905,173,114,10,25,34,2,13,8,0,68,1,20141005180000
1154,"Wuan BDA, Handan",,36.686223,114.269009,114,133,4,33,11,10,,,0,,,20141005180000
1085,Handan,,36.625683,114.544812,193,160,17,30,13,7,13,8,0,68,1,20141005180000
437,"Road and Bridge Corporation, Xingtai",,37.096415,114.538799,152,53,5,25,7,5,13,8,1028,68,1,20141005180000
438,"Dahuo fontain, Xingtai",,37.097563,114.488001,132,54,6,20,3,5,13,8,1028,68,1,20141005180000
439,"Xingtai Normal College, Xingtai",,37.053404,114.531819,158,88,7,34,13,4,13,8,1028,68,1,20141005180000
440,"Environment protection office, Xingtai",,37.06253,114.490985,119,67,10,12,11,6,13,8,1028,68,1,20141005180000
1155,"Cultural centers within the mound, Xingtai",,37.293569,114.524873,97,53,10,9,1,3,13,8,1028,68,1,20141005180000
383,Xingtai,,37.071066,114.510749,158,88,10,34,13,6,13,8,1028,68,1,20141005180000
441,"City Monitoring Station, Baoding",,38.871737,115.527103,159,89,12,34,27,8,16,10,1026,60,1,20141005180000
442,"Surface water Company, Baoding",,38.842891,115.467326,181,138,11,41,11,9,16,10,1026,60,1,20141005180000
443,"Huadian II, Baoding",,38.896748,115.528102,163,102,4,10,10,4,16,10,1026,60,1,20141005180000
444,"Reception Center, Baoding",,38.911905,115.477301,184,130,8,33,13,6,16,10,1026,60,1,20141005180000
445,"Film Factory, Baoding",,38.876949,115.448383,188,138,12,23,6,22,16,10,1026,60,1,20141005180000
446,"Natatorium, Baoding",,38.863815,115.499212,168,113,8,35,30,20,16,10,1026,60,1,20141005180000
1156,"Qingyuan City Hall, Baoding",,38.771758,115.502189,201,141,6,30,18,14,16,10,1026,60,1,20141005180000
1157,"Xushui EPA, Baoding",,39.025781,115.668023,178,123,10,28,58,7,16,10,1026,60,1,20141005180000
1158,"Zhouzhou Monitoring Stations, Baoding",,39.493241,116.040187,129,70,23,22,7,6,16,10,1026,60,1,20141005180000
1159,"Gaobeidian EPA, Baoding",,39.3329,115.885891,155,81,2,29,12,4,16,10,1026,60,1,20141005180000
447,Baoding,,38.874791,115.471124,188,138,12,41,30,22,16,10,1026,60,1,20141005180000
448,"Century Compound, Zhangjiakou",,40.770279,114.909106,93,9,13,6,6,2,6,0,1030,56,1,20141005180000
449,"North Pumping Station, Zhangjiakou",,40.874362,114.910119,78,40,18,7,1,4,6,0,1030,56,1,20141005180000
450,"Hardware Warehouse, Zhangjiakou",,40.81232,114.887119,9,25,44,28,11,14,6,0,1030,56,1,20141005180000
451,"Tanji Chang, Zhangjiakou",,40.796301,114.89811,50,12,14,8,15,3,6,0,1030,56,1,20141005180000
1160,"Xiahuayuan EPA, Zhangjiakou",,40.509345,115.302442,68,15,18,11,13,1,6,0,1030,56,1,20141005180000
1161,"Huaian EPA, Zhangjiakou",,40.68157,114.398646,74,31,12,7,8,1,6,0,1030,56,1,20141005180000
1162,"Huailai Fuqian Primary School, Zhangjiakou",,40.422204,115.530285,85,42,15,24,1,0,6,0,1030,56,1,20141005180000
1269,"Zhangbei EPA , Zhangjiakou",,41.166775,114.732369,107,62,13,21,6,3,6,0,1030,56,1,20141005180000
1270,"Kangbao County Environmental Protection Agency , Zhangjiakou",,41.837866,114.591246,85,57,16,7,5,4,6,0,1030,56,1,20141005180000
1271,"Guyuan County welfare , Zhangjiakou",,41.669984,115.687401,93,53,16,17,3,7,6,0,1030,56,1,20141005180000
1272,"Shangyi County Environmental Protection Bureau , Zhangjiakou",,41.086638,113.984688,80,56,11,13,5,5,6,0,1030,56,1,20141005180000
1273,"Yuxian Secondary School , Zhangjiakou",,39.84699,114.601986,104,68,16,20,10,5,6,0,1030,56,1,20141005180000
1274,"Yang County Vocational Education Center , Zhangjiakou",,40.106343,114.134732,99,47,23,4,4,9,6,0,1030,56,1,20141005180000
1275,"Wan county Environmental Protection Agency , Zhangjiakou",,40.770459,114.75033,70,34,24,8,3,2,6,0,1030,56,1,20141005180000
473,"Nankou road, Tianjin",,39.174022,117.199688,89,49,10,18,3,6,11,6,1026,71,2,20141005180000
1276,"Zhuolu County Environmental Protection Agency , Zhangjiakou",,40.374273,115.221393,78,40,18,1,6,4,6,0,1030,56,1,20141005180000
452,Zhangjiakou,,40.825744,114.893659,93,40,44,28,15,14,6,0,1030,56,1,20141005180000
453,"Railway, Chengde",,40.917557,117.972331,50,29,14,10,4,3,5,5,1028,94,0,20141005180000
454,"Cultural Center, Chengde",,40.974625,117.824437,104,40,2,11,2,7,5,5,1028,94,0,20141005180000
455,"Bank of China, Chengde",,40.985582,117.958304,93,30,5,9,11,5,5,5,1028,94,0,20141005180000
456,"BDA, Chengde",,40.937567,117.969325,65,31,4,14,9,7,5,5,1028,94,0,20141005180000
457,"Ligong, Chengde",,41.012579,117.94428,93,30,6,6,1,4,5,5,1028,94,0,20141005180000
1163,"Chengde County EPA, Chengde",,40.776643,118.17646,87,76,7,12,1,4,5,5,1028,94,0,20141005180000
1164,"Xinglong County City Hall, Chengde",,40.424301,117.513488,112,41,4,10,1,13,5,5,1028,94,0,20141005180000
1165,"Luanping EPA, Chengde",,40.950792,117.350715,76,39,8,8,1,6,5,5,1028,94,0,20141005180000
1166,"Fengning County City Hall, Chengde",,41.216739,116.658037,72,43,12,4,1,7,5,5,1028,94,0,20141005180000
1277,"Longhua EPA , Chengde",,41.311956,117.739605,95,44,5,10,5,4,5,5,1028,94,0,20141005180000
458,Chengde,,40.955652,117.968737,93,30,14,14,11,7,5,5,1028,94,0,20141005180000
459,"Municipal EPB, Cangzhou",,38.323507,116.876746,70,54,16,29,2,4,11,6,1026,71,2,20141005180000
460,"Cangxian Urban Construction Bureau, Cangzhou",,38.299495,116.890734,89,37,10,23,15,6,11,6,1026,71,2,20141005180000
461,"TV Broadcast Station, Cangzhou",,38.325525,116.863761,102,45,10,50,7,1,11,6,1026,71,2,20141005180000
1167,"Qing County City Hall, Cangzhou",,38.589643,116.815876,152,16,1,27,1,0,11,6,1026,71,2,20141005180000
1168,"Poyoushi City Hall, Cangzhou",,38.089516,116.590575,154,87,12,28,1,3,11,6,1026,71,2,20141005180000
1169,"Huanghua Finance Bureau Training Center, Cangzhou",,38.377793,117.343356,132,60,23,22,6,3,11,6,1026,71,2,20141005180000
462,Cangzhou,,38.305035,116.844625,102,54,16,29,15,6,11,6,1026,71,2,20141005180000
463,"Environmental Monitoring Supervision Center, Langfang",,39.558157,116.720995,151,81,16,11,6,7,11,6,1026,71,2,20141005180000
464,"TCM Medical Material Company, Langfang",,39.519096,116.689914,139,141,9,13,9,8,11,6,1026,71,2,20141005180000
465,"BDA, Langfang",,39.576175,116.779041,127,54,7,18,7,5,11,6,1026,71,2,20141005180000
466,"North China Institute of Aerospace, Langfang",,39.53517,116.743027,137,76,6,15,6,8,11,6,1026,71,2,20141005180000
1170,"Guan Party School, Langfang",,39.446185,116.311026,127,76,11,34,5,6,11,6,1026,71,2,20141005180000
1171,"Xianghe EPA, Langfang",,39.76725,117.015252,149,72,11,20,3,8,11,6,1026,71,2,20141005180000
1172,"Wenan County EPA, Langfang",,38.880927,116.47001,180,112,14,45,32,7,11,6,1026,71,2,20141005180000
1173,"Three Rivers Department of Transportation, Langfang",,39.989419,117.091528,127,46,10,15,1,5,11,6,1026,71,2,20141005180000
1278,"Yongqing EPA , Langfang",,39.329071,116.510917,144,74,11,27,6,6,11,6,1026,71,2,20141005180000
1279,"Dacheng EPA, Langfang",,38.712628,116.665751,224,120,18,27,9,8,11,6,1026,71,2,20141005180000
467,Langfang,,39.539148,116.689668,151,141,16,18,9,8,11,6,1026,71,2,20141005180000
468,"Hengshui City EPB, Hengshui",,37.739679,115.695929,137,75,18,37,15,6,11,4,0,60,1,20141005180000
469,"Environmental Monitoring Station, Hengshui",,37.738593,115.648837,179,96,26,53,8,5,11,4,0,60,1,20141005180000
470,"Electrical Machine North Factory, Hengshui",,37.758686,115.70094,172,103,10,38,15,8,11,4,0,60,1,20141005180000
1174,"Anping EPA, Hengshui",,38.238559,115.537988,165,77,14,30,5,6,11,4,0,60,1,20141005180000
1175,"Jizhou EPA, Hengshui",,37.548552,115.58679,149,68,25,33,3,5,11,4,0,60,1,20141005180000
1280,"Zaoqiang EPA, Hengshui",,37.520698,115.714936,153,65,44,32,3,5,11,4,0,60,1,20141005180000
1281,"Wuyi EPA, Hengshui",,37.801554,115.898697,155,81,18,33,15,5,11,4,0,60,1,20141005180000
1282,"Wuqiang EPA , Hengshui",,38.03557,115.959767,142,68,14,1,7,5,11,4,0,60,1,20141005180000
1283,"Raoyang EPA , Hengshui",,38.230652,115.741041,172,98,14,19,6,7,11,4,0,60,1,20141005180000
1284,"Gucheng County , Hengshui",,37.347569,115.966707,137,72,22,24,9,6,11,4,0,60,1,20141005180000
471,Hengshui,,37.739562,115.676066,173,142,21,43,20,8,11,4,0,60,1,20141005180000
1176,"Xinji City Hall, Xinji",,37.949711,115.230084,249,154,12,28,42,10,11,4,0,60,1,20141005180000
474,"Qinjian street, Tianjin",,39.166588,117.15104,72,64,7,24,4,7,11,6,1026,71,2,20141005180000
475,"Nanjing Road, Tianjin",,39.120958,117.195112,89,52,9,20,6,6,11,6,1026,71,2,20141005180000
476,"Dazhigu No.8 road, Tianjin",,39.111811,117.25147,82,54,8,20,7,4,11,6,1026,71,2,20141005180000
477,"Qianjin street, Tianjin",,39.09371,117.207981,87,52,11,18,7,3,11,6,1026,71,2,20141005180000
478,"Huaihe street, Tianjin",,39.227167,117.191293,104,61,3,25,3,8,11,6,1026,71,2,20141005180000
479,"Xiangshan street, Tianjin",,39.134752,117.275125,186,59,10,10,7,6,11,6,1026,71,2,20141005180000
480,"Yuejin Road, Tianjin",,39.088177,117.320884,107,54,5,27,2,3,11,6,1026,71,2,20141005180000
481,"Zhujiang street, Tianjin",,39.064463,117.231268,-,-,-,-,-,-,-,-,0,-,-,20141005180000
482,"No.4 street, Tianjin",,39.035228,117.713424,76,39,12,33,11,11,11,6,1026,71,2,20141005180000
483,"Yongming road, Tianjin",,38.840392,117.463805,74,47,7,22,7,7,11,6,1026,71,2,20141005180000
484,"Xinhua street, Tianjin",,39.138671,117.010083,89,62,7,18,7,10,11,6,1026,71,1,20141005180000
485,"Jingu Road, Tianjin",,38.985659,117.381254,78,46,12,7,13,12,11,6,1026,71,1,20141005180000
486,"Tanggu Yingkou street, Tianjin",,39.021768,117.656454,70,38,10,19,7,8,11,6,1026,71,1,20141005180000
487,"Hexi Yijing road, Tianjin",,39.248392,117.798043,97,39,7,16,6,4,11,6,1026,71,1,20141005180000
488,"Jianshe Road, Tianjin",,39.720075,117.310588,154,97,14,26,4,12,11,6,1026,71,1,20141005180000
489,"Quanzhou South road, Tianjin",,39.373857,117.050329,63,37,8,6,3,6,11,6,1026,71,1,20141005180000
490,"Donghuan road, Tianjin",,40.043144,117.451062,70,33,10,12,1,8,11,6,1026,71,1,20141005180000
491,"Tuanpowa, Tianjin",,38.920418,117.16299,72,55,15,16,9,17,11,6,1026,71,2,20141005180000
493,"Beiwei No.2 road, Tianjin",,38.943857,116.920624,-,-,-,-,-,-,-,-,0,-,-,20141005180000
494,"Haitai fazhan No.2 road, Tianjin",,39.079608,117.096583,82,63,8,44,7,2,11,6,1026,71,1,20141005180000
495,"Hangtian road, Tianjin",,39.152244,117.381309,112,50,10,22,3,6,11,6,1026,71,2,20141005180000
496,"Hanbei road, Tianjin",,39.159768,117.770477,78,40,11,21,6,8,11,6,1026,71,2,20141005180000
497,"Baobai highway, Tianjin",,39.51757,117.349635,61,65,14,13,3,7,11,6,1026,71,1,20141005180000
498,Tianjin,,39.085164,117.207281,89,52,9,20,6,6,11,6,1026,71,2,20141005180000
499,"Wolong bridge, Hangzhou",,30.24371,120.132762,156,76,39,13,8,7,20,15,1021,73,3,20141005180000
500,"Hemu primary school, Hangzhou",,30.309669,120.124507,168,105,40,16,14,8,20,15,1021,73,4,20141005180000
501,"Zhejiang Agricultural University, Hangzhou",,30.265601,120.197583,195,106,29,42,20,12,20,15,1021,73,3,20141005180000
502,"Xiasha, Hangzhou",,30.303516,120.352618,184,92,37,19,14,9,20,15,1021,73,3,20141005180000
503,"Yunqi, Hangzhou",,30.178555,120.093142,147,68,30,12,4,9,20,15,1021,73,3,20141005180000
504,"Xixi, Hangzhou",,30.272425,120.068144,155,68,18,32,4,8,20,15,1021,73,3,20141005180000
505,"Chengxiang town, Hangzhou",,30.179493,120.274184,156,88,43,21,14,9,20,15,1021,73,4,20141005180000
506,"Qiandao lake, Hangzhou",,29.638139,119.031092,127,59,89,5,6,5,20,15,1021,73,3,20141005180000
507,"Linping town, Hangzhou",,30.415948,120.305059,172,95,36,29,20,7,20,15,1021,73,3,20141005180000
509,"No.2 Middle School, Hangzhou",,30.044303,119.956356,165,92,28,17,10,12,20,15,1021,73,3,20141005180000
510,"City Hall, Hangzhou",,30.234185,119.723503,152,69,131,15,20,9,20,15,1021,73,3,20141005180000
511,"No. 4 middle school, Hangzhou",,30.229428,119.699591,139,54,131,1,2,10,20,15,1021,73,3,20141005180000
512,Hangzhou,,30.271756,120.159765,195,106,41,42,20,12,20,15,1021,73,3,20141005180000
513,"City Station, Wenzhou",,28.009715,120.679129,149,69,43,20,9,8,17,15,0,90,4,20141005180000
514,"Ouhai, Wenzhou",,28.001846,120.641982,151,66,42,17,8,9,17,15,0,90,4,20141005180000
515,"Longwan, Wenzhou",,27.968122,120.768393,139,70,36,20,9,7,17,15,0,90,4,20141005180000
516,"Nanpu, Wenzhou",,27.981763,120.683685,147,69,40,21,8,10,17,15,0,90,4,20141005180000
517,Wenzhou,,27.990985,120.703425,151,70,43,21,9,10,17,15,0,90,4,20141005180000
518,"Monitoring station, Jiaxing",,30.75437,120.767373,129,59,36,8,9,8,18,16,1020,88,3,20141005180000
519,"Jiaxing University, Jiaxing",,30.745099,120.735004,151,57,41,11,10,7,18,16,1020,88,3,20141005180000
520,"Qinghe Primary School, Jiaxing",,30.775685,120.747969,114,55,36,6,14,7,18,16,1020,88,3,20141005180000
521,Jiaxing,,30.751627,120.762862,151,59,41,11,14,8,18,16,1020,88,3,20141005180000
522,"Chengbei water plant, Huzhou",,30.891155,120.096593,155,86,36,15,8,9,18,16,1020,88,3,20141005180000
523,"Jishan new village, Huzhou",,30.859939,120.120168,162,78,38,17,16,9,18,16,1020,88,3,20141005180000
524,"Town west water plant, Huzhou",,30.862371,120.084577,156,92,27,43,13,9,18,16,1020,88,3,20141005180000
525,Huzhou,,30.892304,120.091694,162,92,38,43,16,9,18,16,1020,88,3,20141005180000
526,"Donghu middle school, Shaoxing",,29.990447,120.647547,185,90,49,25,31,17,20,15,1021,73,3,20141005180000
527,"City EPA station, Shaoxing",,30.001695,120.584318,163,93,54,21,23,6,20,15,1021,73,4,20141005180000
528,"Chengdong BDA committee, Shaoxing",,29.986643,120.613578,173,105,46,23,30,6,20,15,1021,73,4,20141005180000
529,"Paojiang station, Shaoxing",,30.07574,120.62154,167,92,39,19,27,11,20,15,1021,73,3,20141005180000
530,"Shaoxing technical school, Shaoxing",,29.930983,120.577131,153,94,17,21,7,9,20,15,1021,73,3,20141005180000
531,"Library, Shaoxing",,29.706266,120.253183,154,89,42,22,8,12,20,15,1021,73,3,20141005180000
532,"Transporation management station, Shaoxing",,29.726405,120.221602,153,88,39,38,8,10,20,15,1021,73,3,20141005180000
533,"Dongpu Town Governement, Shaoxing",,30.049601,120.539893,173,78,38,30,29,9,20,15,1021,73,3,20141005180000
534,Shaoxing,,29.993122,120.590182,173,105,54,23,30,6,-,-,0,-,-,20141005180000
535,"City Monitoring Station, Jinhua",,29.100031,119.690373,163,78,32,20,8,8,14,13,0,92,1,20141005180000
536,"No.15 middle school, Jinhua",,29.074022,119.652121,161,80,34,14,9,8,14,13,0,92,1,20141005180000
537,"No.4 middle school, Jinhua",,29.110109,119.653654,172,106,28,27,17,10,14,13,0,92,1,20141005180000
538,"Beiyuan, Jinhua",,29.332898,120.083351,154,88,32,22,16,14,14,13,0,92,1,20141005180000
539,"Jiangdong, Jinhua",,29.302486,120.095291,159,81,60,18,14,12,14,13,0,92,1,20141005180000
540,Jinhua,,29.076083,119.65215,172,106,34,27,17,10,14,13,0,92,1,20141005180000
541,"EPA building, Quzhou",,28.937291,118.876081,147,62,23,20,23,8,18,15,1020,79,1,20141005180000
542,"Experimental school, Quzhou",,28.961502,118.880916,151,76,18,42,10,6,18,15,1020,79,1,20141005180000
543,"Quzhou University, Quzhou",,28.971452,118.860052,151,73,14,39,5,6,18,15,1020,79,1,20141005180000
544,Quzhou,,28.966994,118.864252,151,76,23,42,23,8,18,15,1020,79,1,20141005180000
545,"Putuo east port, Zhoushan",,29.951412,122.317679,97,55,62,1,4,4,20,16,1019,78,3,20141005180000
546,"Dinghai tanfeng, Zhoushan",,30.018014,122.126566,85,55,51,4,5,11,20,16,1019,78,3,20141005180000
547,Zhoushan,,29.983049,122.210763,104,74,62,5,5,11,20,16,1019,78,3,20141005180000
548,"Taizhou EPA building, Taizhou",,28.651216,121.42331,163,81,97,4,4,7,18,16,0,89,4,20141005180000
549,"Luqiao Tian Yang Wang, Taizhou",,28.574364,121.381194,156,74,81,8,6,7,18,16,0,89,4,20141005180000
550,"Huangyan EPA building, Taizhou",,28.656151,121.285064,152,71,39,10,4,14,18,16,0,89,4,20141005180000
551,"Yu Zhuang Qian, Lishui",,28.419638,119.883884,155,64,21,23,5,6,19,16,1020,73,0,20141005190000
552,"Monitoring station building, Lishui",,28.444379,119.923103,162,65,30,10,9,8,19,16,1020,73,0,20141005190000
553,"Liandu primary school, Lishui",,28.450912,119.939332,160,91,24,26,4,9,19,16,1020,73,0,20141005190000
554,Lishui,,28.464224,119.927201,162,91,30,26,9,9,19,16,1020,73,0,20141005190000
1248,Jingningxian,,27.977454,119.634837,139,68,15,14,2,9,19,16,1020,73,0,20141005190000
555,Taigu Primary School,,29.864178,121.60022,85,55,34,3,6,11,21,16,1019,73,3,20141005190000
556,Qianhu shuihan,,29.862459,121.5328,139,75,34,11,100,7,20,16,1019,78,3,20141005190000
557,Sanjiang secondary schools,,29.891563,121.568427,152,64,36,22,33,8,21,16,1019,73,3,20141005190000
558,Longsai Hospital,,29.957301,121.726734,91,48,47,13,8,7,21,16,1019,73,3,20141005190000
559,Beilun District EPB,,29.911633,121.850773,99,52,47,5,3,7,21,16,1019,73,3,20141005190000
560,Wanli University,,29.821314,121.574364,139,67,43,6,8,8,21,16,1019,73,3,20141005190000
561,Qianhu water plant,,29.774416,121.648136,107,55,39,12,130,6,21,16,1019,73,3,20141005190000
562,Municipal management station,,29.899182,121.626691,107,73,39,9,53,9,21,16,1019,73,3,20141005190000
1177,Daxie Literary Museum,,29.9027,121.986447,114,54,44,6,113,6,21,16,1019,73,3,20141005190000
1178,Cixi EPB,,30.165807,121.248991,134,58,42,14,7,9,21,16,1019,73,3,20141005190000
1179,Cixi Experimently Primary School,,30.179808,121.268672,132,66,43,24,7,8,21,16,1019,73,3,20141005190000
1180,"Yongsan Park, Yuyao",,30.050842,121.162477,151,72,46,36,5,9,21,16,1019,73,3,20141005190000
1181,"Qilupu Water Company, Yuyao",,30.039112,121.133416,137,53,48,9,7,5,21,16,1019,73,3,20141005190000
1182,Fenghua EPB,,29.666557,121.42069,162,73,59,6,8,9,21,16,1019,73,3,20141005190000
1183,"Yuelong station, Ninghai",,29.296505,121.445872,169,75,54,9,8,6,21,16,1019,73,3,20141005190000
1184,"Wenfeng Primary School, Xiangshan",,29.470908,121.889544,117,60,47,6,5,6,21,16,1019,73,3,20141005190000
1185,"Chengnan Primary School, Ninghai",,29.293812,121.43666,165,67,82,7,9,7,21,16,1019,73,3,20141005190000
1186,"Xingang Primary School, Xiangshan",,29.203878,121.952514,147,56,58,6,6,6,21,16,1019,73,3,20141005190000
1356,Haishu City Monitoring Center,,29.86835,121.539341,139,75,31,5,56,8,21,16,1019,73,3,20141005190000
1357,Fenghua Xikou government,,29.693164,121.29331,163,80,66,6,5,11,21,16,1019,73,3,20141005190000
1294,Ningbo,,29.865766,121.548164,152,73,47,22,130,11,21,16,1019,73,3,20141005190000
1187,Fuyang,,30.046157,119.96468,165,103,25,16,9,12,-,-,0,-,-,20141005190000
1188,Yiwu,,29.304353,120.079794,160,89,50,21,17,14,-,-,0,-,-,20141005190000
1189,Zhuji,,29.711185,120.240748,155,90,38,24,8,12,20,15,1021,73,4,20141005190000
563,"Shanxi Road , Nanjing",,32.06795,118.779216,211,115,26,15,12,5,16,16,1021,100,1,20141005190000
564,"Ruijin Road , Nanjing",,32.029321,118.80817,218,104,17,32,13,7,16,16,1021,100,1,20141005190000
565,"Xuanwu Lake, Nanjing",,32.075423,118.800188,212,120,20,27,10,6,16,16,1021,100,1,20141005190000
566,"Olympic Center, Nanjing",,32.007171,118.742217,221,132,38,11,6,7,16,16,1021,100,1,20141005190000
567,"Xianlin University Town , Nanjing",,32.106958,118.919882,231,134,32,18,5,6,16,16,1021,100,1,20141005190000
568,Nanjing,,32.058179,118.802061,221,132,38,32,14,7,16,16,1021,100,1,20141005190000
569,"Shangfang hill , Suzhou",,31.24502,120.565211,-,-,-,-,-,-,-,-,0,-,-,20141005190000
570,"Wuzhong District , Suzhou",,31.268105,120.61717,114,72,29,15,13,8,18,16,1019,88,4,20141005190000
571,"Suzhou New District , Suzhou",,31.297277,120.547262,112,50,32,14,13,7,18,16,1020,88,3,20141005190000
572,"Suzhou Industrial Area, Suzhou",,31.307603,120.673257,129,51,30,14,11,7,18,16,1019,88,4,20141005190000
573,"Xiangcheng district, Suzhou",,31.368674,120.645209,137,57,40,15,38,9,18,16,1019,88,4,20141005190000
574,Suzhou,,31.296701,120.589493,151,64,40,22,36,9,18,16,1020,88,3,20141005190000
575,"South suburb , Nantong",,31.957836,120.917218,99,46,43,8,6,2,17,15,1003,88,4,20141005190000
576,"Xinghu park, Nantong",,31.927873,120.944254,109,63,41,6,13,5,17,15,1003,88,4,20141005190000
577,"Zilang school, Nantong",,32.039638,120.814358,149,60,40,7,6,0,17,15,1003,88,4,20141005190000
578,Nantong,,31.978005,120.898555,127,60,43,8,13,7,17,15,1003,88,4,20141005190000
579,Lianyungang,,34.595509,119.226814,152,84,21,27,10,7,8,8,1016,96,0,20141005190000
580,"Hongmen police substation, Lianyungang",,34.588692,119.146693,114,68,34,8,16,9,13,9,1024,67,2,20141005190000
581,"Xugou Nuclear Expert Village , Lianyungang",,34.749957,119.373707,80,57,31,7,16,9,13,9,1024,67,2,20141005190000
582,"Hengrui pharmaceutical company, BDA, Lianyungang",,34.697574,119.353668,61,54,40,12,12,10,16,13,1024,77,3,20141005190000
583,"City Monitoring Station, Lianyungang",,34.586791,119.186929,107,67,36,11,12,9,16,13,1024,77,3,20141005190000
584,"Yellow river new village , Xuzhou",,34.271542,117.177241,85,42,21,33,19,8,18,7,1025,39,2,20141005190000
585,"Tongshan Veterinary Hospital , Xuzhou",,34.307086,117.197766,109,59,30,21,13,3,15,9,1025,55,1,20141005190000
586,"New Town , Xuzhou",,34.213992,117.261718,89,65,30,27,40,4,15,9,1025,55,1,20141005190000
587,"Taoyuan road, Xuzhou",,34.289822,117.249721,82,27,31,12,7,8,18,7,1025,39,2,20141005190000
588,"Agricultural Science Academy , Xuzhou",,34.27655,117.299079,50,67,21,12,16,6,15,9,1025,55,1,20141005190000
589,"Tongshan EPA, Xuzhou",,34.179384,117.171798,97,54,3,6,17,3,15,9,1025,55,1,20141005190000
590,Xuzhou,,34.20346,117.289825,109,69,27,33,50,8,15,9,1025,55,1,20141005190000
591,Yangzhou,,32.39233,119.418446,159,69,10,19,10,5,11,9,0,90,6,20141005190000
592,"Hanjiang Monitoring Station, Yangzhou",,32.374218,119.394484,159,111,40,6,7,7,16,14,0,86,3,20141005190000
593,"No. 4 Hospital, Yangzhou",,32.401394,119.44444,160,95,45,5,15,5,16,14,0,86,3,20141005190000
594,"City Monitoring Station, Yangzhou",,32.406588,119.41591,165,85,33,8,19,6,16,14,0,87,3,20141005190000
595,"University Town , Wuxi",,31.484752,120.273571,129,80,81,5,18,6,18,16,1020,88,3,20141005190000
596,"Shibei High School , Wuxi",,31.619969,120.279584,152,78,30,12,19,7,18,16,1019,88,4,20141005190000
597,"Yuhong Elementary School , Wuxi",,31.561155,120.249588,151,71,49,11,15,8,18,16,1019,88,4,20141005190000
598,Wuxi,,31.488746,120.31575,157,76,70,11,26,6,-,-,0,-,-,20141005190000
599,Changzhou,,31.808037,119.979205,172,86,6,22,36,13,11,9,0,88,5,20141005190000
600,"Chengjian School, Changzhou",,31.776476,119.937681,165,87,40,12,8,8,16,15,1003,92,3,20141005190000
601,"Changzhou Engineering Institute , Changzhou",,31.806828,119.966724,157,78,36,10,15,9,16,15,1003,92,3,20141005190000
602,"Wujin Monitoring Station, Changzhou",,31.701788,119.939676,156,69,38,12,6,10,16,15,1003,92,3,20141005190000
603,"City Monitoring Station, Changzhou",,31.777201,119.979426,132,71,42,11,6,8,16,15,1003,92,3,20141005190000
604,Zhenjiang,,32.18597,119.431281,170,79,4,39,15,13,9,8,0,93,5,20141005190000
605,"New District Administrative office , Zhenjiang",,32.186174,119.685021,196,105,37,11,9,10,16,16,1021,100,1,20141005190000
606,"Vocational Education Center , Zhenjiang",,32.212973,119.496253,182,116,25,10,5,8,16,16,1021,100,1,20141005190000
607,"Dantu Monitoring Station , Zhenjiang",,32.130026,119.435432,182,111,35,19,9,9,16,16,1021,100,1,20141005190000
608,"City Monitoring Station, Zhenjiang",,32.202178,119.439766,180,88,36,17,9,8,16,16,1021,100,1,20141005190000
609,"Gaogang Adminstrative office , Taizhoushi",,32.300768,119.886757,192,107,28,10,14,8,16,14,0,86,3,20141005190000
610,"Students Innovation Park , Taizhoushi",,32.461672,119.892761,166,-,34,6,15,6,16,14,0,86,3,20141005190000
611,Taizhoushi,,32.453555,119.927852,192,107,34,18,21,9,16,14,0,86,3,20141005190000
612,"Yancheng power station , Yancheng",,33.400859,120.123067,158,71,44,7,6,4,-,-,0,-,-,20141005190000
613,Yancheng,,33.345939,120.168504,144,52,30,5,3,7,11,10,1016,95,4,20141005190000
614,"Wenfeng Middle School , Yancheng",,33.370531,120.134041,158,66,16,6,16,4,-,-,0,-,-,20141005190000
615,"BDA Management Committe, Yancheng",,33.393191,120.22978,153,49,43,4,4,3,-,-,0,-,-,20141005190000
616,"City Monitoring Station, Yancheng",,33.390623,120.164423,161,84,41,7,4,4,16,14,0,86,3,20141005190000
617,Suqian,,33.960666,118.281004,160,87,24,7,5,7,11,10,0,91,6,20141005190000
618,"Suqian College , Suqian",,33.951472,118.298523,167,92,41,44,28,14,14,9,0,74,4,20141005190000
619,"Suqian Middle School , Suqian",,33.95784,118.249505,175,122,27,15,18,13,14,9,0,74,4,20141005190000
620,"Suyu District Environmental Protection Agency , Suqian",,33.94932,118.326569,197,108,35,10,8,10,14,9,0,74,4,20141005190000
621,"City Monitoring Station, Suqian",,33.956982,118.277022,181,97,19,11,18,11,14,9,0,74,4,20141005190000
622,Taizhou,,28.653436,121.425185,163,81,97,8,6,7,18,16,0,89,4,20141005190000
623,Donghu Liyuan,,30.572324,114.377844,263,154,35,17,20,14,20,15,1022,73,4,20141005190000
624,Yuehu Lake,,30.554662,114.256937,254,142,43,17,5,11,20,15,1022,73,4,20141005190000
625,Hankou Huaqiao ,,30.61724,114.287652,254,142,41,17,10,14,20,15,1022,73,4,20141005190000
626,Wuchang Ziyang ,,30.530801,114.309438,235,143,26,21,4,12,20,15,1022,73,4,20141005190000
627,Qingshan Ganghua,,30.622435,114.375599,299,164,33,25,8,14,20,15,1022,73,4,20141005190000
628,Dunkou Xinou,,30.480091,114.162176,213,143,37,10,6,14,20,15,1022,73,4,20141005190000
629,Donghu Gaoxin,,30.48095,114.40724,253,145,40,12,5,17,20,15,1022,73,4,20141005190000
630,Wujianshan,,30.63114,114.135907,243,124,39,28,6,15,20,15,1022,73,4,20141005190000
631,Yuanshun Road,,30.297142,113.858587,293,154,65,9,3,11,20,15,1022,73,4,20141005190000
632,Wuhan,,30.590689,114.310838,299,164,43,25,20,14,20,15,1022,73,4,20141005190000
1190,"Silingsan Factory, Yichang",,30.713288,111.306585,93,53,15,8,3,5,17,10,1023,54,2,20141005190000
633,Yichang,,30.689528,111.292131,144,92,15,24,10,8,17,10,1023,54,2,20141005190000
633,Yichang,,30.689528,111.292131,144,92,15,24,10,8,17,10,1023,54,2,20141005190000
1191,"City Library , Jingzhou",,30.31494,112.260844,179,98,36,25,17,15,23,13,1022,45,2,20141005190000
1192,"City committee communist party school, Jingzhou",,30.35054,112.20743,172,110,31,24,25,14,23,13,1022,45,2,20141005190000
1193,"kerong EPA, Jingzhou",,30.302965,112.29443,1,1,35,0,0,12,18,13,1023,65,1,20141005190000
634,Jingzhou,,30.332608,112.245451,1,1,35,0,0,13,18,13,1023,65,1,20141005190000
634,Jingzhou,,30.332608,112.245451,1,1,35,0,0,13,18,13,1023,65,1,20141005190000
635,Huangshi,,30.19723,115.043908,189,120,30,34,10,26,19,15,1025,90,3,20141005190000
635,Huangshi,,30.19723,115.043908,189,120,30,34,10,26,19,15,1025,90,3,20141005190000
1194,"Chenjiaying, Huangshi",,30.232823,115.067923,187,120,20,22,1,26,19,,1025,85,3,20141005190000
1195,"Chenjiawan , Huangshi",,30.200422,115.082138,165,92,20,34,10,23,19,,1025,85,3,20141005190000
1196,"Xinxialu, Huangshi",,30.17332,114.954357,-,-,-,-,-,-,-,,0,-,-,20141005190000
1197,"Tie montian, Huangshi",,30.203885,114.906439,172,92,26,36,1,14,19,,1025,85,3,20141005190000
1198,"BDA, Huangshi",,30.207491,115.031739,183,113,25,24,9,24,19,,1025,85,3,20141005190000
636,Shiyan,,32.627208,110.803311,117,49,14,17,11,13,9,,1025,85,1,20141005190000
636,Shiyan,,32.627208,110.803311,117,49,14,17,11,13,9,,1025,85,1,20141005190000
1199,"Wudang Mountain , Shiyan",,32.392921,111.047655,57,16,22,2,3,6,9,,,85,1,20141005190000
1200,"Riverside Village , Shiyan",,32.647286,110.785335,95,49,10,9,5,13,9,,,85,1,20141005190000
1201,"Liujiagou , Shiyan",,32.636732,110.731129,82,48,10,17,11,4,9,,,85,1,20141005190000
637,Xiangyang,,32.007029,112.128496,152,141,14,27,17,19,14,,1025,81,3,20141005190000
638,Ezhou,,30.389244,114.899884,107,111,37,10,4,24,20,15,1032,84,6,20141005190000
638,Ezhou,,30.389244,114.899884,107,111,37,10,4,24,20,15,1032,84,6,20141005190000
1203,"City government, Ezhou",,30.391836,114.892822,107,51,35,7,4,18,20,,1032,80,6,20141005190000
1204,"Zhaojiaba, Ezhou",,30.368966,114.90365,155,78,40,2,9,23,18,,1032,84,5,20141005190000
1205,"Fankou BDA, Ezhou",,30.410759,114.818225,153,111,37,10,3,24,18,,1032,84,5,20141005190000
639,Jingmen,,31.033208,112.205093,194,125,32,18,22,9,14,12,1018,84,2,20141005190000
639,Jingmen,,31.033208,112.205093,194,125,32,18,22,9,14,12,1018,84,2,20141005190000
640,Xiaogan,,30.922089,113.922387,187,120,37,9,10,13,20,15,1022,72,4,20141005190000
640,Xiaogan,,30.922089,113.922387,187,120,37,9,10,13,20,15,1022,72,4,20141005190000
1206,"wenhua street, Shenyang , Xiaogan",,30.925856,113.92104,187,120,37,9,10,13,20,15,1022,72,4,20141005190000
641,Huanggang,,30.45124,114.877378,137,71,47,15,6,13,18,15,1032,84,5,20141005190000
641,Huanggang,,30.45124,114.877378,137,71,47,15,6,13,18,15,1032,84,5,20141005190000
1208,"Dazhou Island, Huanggang",,30.446205,114.900323,137,71,43,15,6,11,18,,1032,84,5,20141005190000
1209,"Workers Center , Huanggang",,30.469244,114.912504,134,64,47,5,3,13,18,,1032,84,5,20141005190000
642,Xianning,,29.838978,114.327898,262,167,23,25,6,20,18,15,996,76,2,20141005190000
642,Xianning,,29.838978,114.327898,262,167,23,25,6,20,18,15,996,76,2,20141005190000
1210,"Municipal Development and Reform Commission , Xianning",,29.818645,114.328461,187,146,11,25,2,20,18,,996,76,2,20141005190000
1211,"Xianan District Governement, Xianning",,29.51107,114.181864,192,139,3,6,6,21,18,,1005,83,3,20141005190000
1212,"Yangtze River Industrial Park , Xianning",,29.883098,114.32909,244,164,23,17,6,18,18,,996,76,2,20141005190000
1213,"Qianshan Park, Xianning",,29.815351,114.328689,262,167,23,9,1,13,18,,996,76,2,20141005190000
643,Suizhou,,31.688342,113.388675,204,138,26,14,8,18,13,,1019,70,3,20141005190000
643,Suizhou,,31.688342,113.388675,204,138,26,14,8,18,13,,1019,70,3,20141005190000
1338,"City committee communist party school, Suizhou",,31.725316,113.3648,218,148,30,14,4,14,13,,1019,70,3,20141005190000
1339,"Forestry Bureau, Suizhou",,31.690065,113.383157,176,115,31,14,7,16,13,,1019,70,3,20141005190000
645,Xiantao,,30.360228,113.460616,237,164,46,6,14,15,16,15,1033,64,4,20141005190000
645,Xiantao,,30.360228,113.460616,237,164,46,6,14,15,16,15,1033,64,4,20141005190000
1214,"Xiangcheng Yundong Street, Xiangfan",,32.017716,112.16102,21,94,10,15,11,14,14,,1025,73,2,20141005190000
1359,"Fancheng Xinhua Road , Xiangfan",,32.0544,112.145224,152,129,10,22,15,22,14,,1025,73,2,20141005190000
655,"City Environmental Monitoring Station, Baotou",,40.657201,109.886738,74,63,9,30,12,10,,,0,,,20141005190000
656,"Donghe EPB, Baotou",,40.586213,110.002224,70,64,14,23,32,10,,,0,,,20141005190000
657,"Baotou shopping mall, Baotou",,40.508334,109.819085,82,58,11,15,13,13,,,0,,,20141005190000
658,"Huilong logistics, Baotou",,40.633436,109.879821,85,55,14,20,11,3,,,0,,,20141005190000
659,Baotou,,40.658597,109.846051,93,93,18,30,32,13,8,-5,0,28,3,20141005190000
660,"Huatai Automobile Mall, Eerduosi",,39.837048,109.972209,82,67,42,26,10,5,8,-5,1026,28,3,20141005190000
661,"Olympus Garden, Eerduosi",,39.789171,109.987742,59,53,38,20,8,9,8,-5,1026,28,3,20141005190000
662,Eerduosi,,39.609284,109.78704,82,67,43,31,15,9,8,-5,1026,28,3,20141005190000
663,"Tianyi Road, Chifeng",,42.275552,118.88507,72,50,27,11,14,12,2,0,1030,77,1,20141005190000
664,"Songshan No.1 Middle School, Chifeng",,42.329307,118.793045,95,77,26,12,6,15,2,0,1030,77,1,20141005190000
665,"Hada Street, Chifeng",,42.280714,118.988235,78,41,14,9,8,8,2,0,1030,77,1,20141005190000
666,"Songshan Road, Chifeng",,42.171487,118.89501,-,-,-,-,-,-,-,-,0,-,-,20141005190000
667,Chifeng,,42.259752,118.893027,95,77,27,12,14,15,2,0,1030,77,1,20141005190000
674,Fuzhou,,26.071406,119.301294,107,62,108,17,5,6,22,17,1016,73,2,20141005190000
675,"Xidong, Xiamen",,24.815345,118.161848,82,40,49,7,4,5,23,16,1015,65,4,20141005190000
676,"Hongwen, Xiamen",,24.473969,118.156281,78,70,84,13,15,8,23,16,1015,65,4,20141005190000
677,"Gulangyu, Xiamen",,24.443168,118.068571,107,63,47,8,11,6,23,16,1015,65,4,20141005190000
678,"Huli, Xiamen",,24.51235,118.099146,109,57,36,7,5,6,23,16,1015,65,4,20141005190000
679,Xiamen,,24.477187,118.094402,109,63,47,8,11,6,-,-,0,-,-,20141005190000
680,"Qingyuan Montain, Quanzhou",,24.939503,118.598337,68,32,32,6,2,4,23,16,1015,65,5,20141005190000
681,"Tushan Street, Quanzhou",,24.90867,118.586397,70,42,40,4,3,6,23,16,1015,65,5,20141005190000
682,"Wanan, Quanzhou",,24.304154,118.070903,95,42,49,6,3,6,23,16,1015,65,5,20141005190000
683,Quanzhou,,24.87179,118.68001,95,42,49,7,3,6,23,16,1015,65,5,20141005190000
687,"Jiancaoping, Taiyuan",,37.887889,112.528383,68,59,4,14,7,6,9,0,1027,54,3,20141005190000
688,"Jianhe, Taiyuan",,37.910779,112.579258,78,69,5,11,13,7,9,0,1027,54,3,20141005190000
689,"Shanglan, Taiyuan",,38.011589,112.440679,34,29,13,5,6,5,9,0,1027,54,3,20141005190000
690,"Jinyuan, Taiyuan",,37.713164,112.475552,55,36,12,14,14,5,9,0,1027,54,3,20141005190000
691,"Xiaodian, Taiyuan",,37.782137,112.483533,78,60,14,18,28,9,9,0,1027,54,3,20141005190000
692,"Taoyuan, Taiyuan",,37.869752,112.543332,85,64,5,22,9,9,8,1,1027,62,1,20141005190000
693,"Wucheng, Taiyuan",,37.819998,112.576252,89,76,5,16,11,14,9,0,1027,54,3,20141005190000
694,"Nanzhai, Taiyuan",,37.985902,112.555312,63,38,10,9,6,10,9,0,1027,54,3,20141005190000
695,"Jinsheng, Taiyuan",,37.781205,112.494494,76,56,5,16,20,8,9,0,1027,54,3,20141005190000
696,Taiyuan,,37.871115,112.555178,68,65,4,21,8,6,-,-,0,-,-,20141005190000
697,"Monitoring station, Changzhi",,36.194062,113.10389,160,70,21,17,15,13,17,7,0,52,3,20141005190000
698,"Auditing bureau, Changzhi",,36.212787,113.095221,160,63,24,14,6,12,17,7,0,52,3,20141005190000
699,"Qinghua station, Changzhi",,36.154328,113.116385,159,66,22,11,6,14,17,7,0,52,3,20141005190000
700,"No.8 middle school, Changzhi",,36.185451,113.099481,167,70,25,19,31,26,,,0,,,20141005190000
701,Changzhi,,36.195553,113.12292,167,70,28,19,31,26,17,8,0,45,3,20141005190000
702,"Yungang Hotel, Datong",,40.076997,113.278079,61,46,4,15,5,14,-1,-1,1029,92,1,20141005190000
703,"college of education, Datong",,40.085608,113.27808,132,53,4,16,6,35,-1,-1,1029,92,1,20141005190000
704,Datong,,40.078016,113.307143,132,90,16,17,11,39,-1,-1,1029,92,1,20141005190000
705,"Technical Schools, Linfen",,36.07131,111.509046,82,42,12,22,41,11,6,-4,0,44,2,20141005190000
706,"Municipal party committee, Linfen",,36.087425,111.508771,61,32,6,1,34,16,6,-4,0,44,2,20141005190000
1073,"City Monitoring Station, Linfen",,36.097676,111.518739,132,68,16,25,17,16,7,-4,0,43,2,20141005190000
707,"South Airport, Linfen",,36.041614,111.497968,85,3,5,18,9,17,6,-4,0,44,2,20141005190000
708,Linfen,,36.087944,111.525098,87,68,12,25,41,17,6,-4,0,44,2,20141005190000
709,"City center, Yangquan",,37.848012,113.578636,234,81,13,17,4,2,9,0,1027,54,3,20141005190000
710,Yangquan,,37.857475,113.586921,155,163,11,61,29,14,9,0,1027,54,3,20141005190000
711,"Water Company, Jincheng",,35.504787,112.857245,169,80,28,16,4,17,12,8,1026,73,1,20141005190000
712,"Baiyun shopping mall, Jincheng",,35.492858,112.841566,30,77,14,24,7,17,12,8,1026,73,1,20141005190000
713,"City EPA, Jincheng",,35.488422,112.858528,172,114,17,7,11,20,12,8,1026,73,1,20141005190000
714,"Institute of Technology, Jincheng",,35.484844,112.878073,122,102,30,28,13,16,12,8,1026,73,1,20141005190000
715,"No.1 middle school, Jincheng",,35.478725,112.838636,149,73,18,15,12,10,12,8,1026,73,1,20141005190000
716,Jincheng,,35.490287,112.85794,172,114,30,28,13,20,12,8,1026,73,1,20141005190000
718,"District Government, Shuozhou",,39.320857,112.430641,-,21,-,15,14,-,6,1,1029,64,2,20141005190000
719,"City EPA, Shuozhou",,39.331495,112.407997,-,-,-,-,-,-,-,-,0,-,-,20141005190000
720,"No.2 middle school, Shuozhou",,39.377963,112.432877,153,83,12,25,19,10,6,1,1029,64,2,20141005190000
721,Shuozhou,,39.332756,112.439672,153,83,12,25,26,10,6,1,1029,64,2,20141005190000
722,"Jinlun compound, Jinzhong",,37.697891,112.771017,30,30,12,1,8,1,9,0,1027,54,3,20141005190000
723,"Hydraulic Component Factory, Jinzhong",,37.688355,112.725844,55,51,8,25,12,4,9,0,1027,54,3,20141005190000
724,"Nandu compound, Jinzhong",,37.713148,112.732036,53,32,5,6,4,3,9,0,1027,54,3,20141005190000
725,"Yuci district government, Jinzhong",,37.698228,112.714167,42,28,6,6,5,3,9,0,1027,54,3,20141005190000
726,Jinzhong,,37.687705,112.759187,55,51,12,25,12,4,9,0,1027,54,3,20141005190000
727,"Yuncheng Middle School, Yuncheng",,35.012345,111.003215,152,73,31,8,44,13,14,10,1023,69,2,20141005190000
728,"Yudou BDA, Yuncheng",,35.05065,111.029571,158,94,17,7,77,1,14,10,1023,69,2,20141005190000
730,"Regional Technical School, Yuncheng",,35.028727,110.974076,159,71,22,3,15,12,14,10,1023,69,2,20141005190000
731,"Airport new district, Yuncheng",,35.084515,111.05339,159,84,21,5,6,22,14,10,1023,69,2,20141005190000
732,Yuncheng,,35.025675,111.013344,159,94,31,8,77,22,-,-,0,-,-,20141005190000
733,"Jiyin, Xinzhou",,38.413292,112.742432,68,45,5,16,23,18,9,0,1027,54,3,20141005190000
734,"BDA, Xinzhou",,38.450069,112.736723,9,22,3,3,8,9,8,0,1027,57,2,20141005190000
735,"Convention Center, Xinzhou",,38.492043,112.709772,80,32,8,9,12,6,9,0,1027,54,3,20141005190000
736,Xinzhou,,38.417244,112.740742,80,45,5,16,23,18,9,0,1027,54,3,20141005190000
737,"City EPA, Luliang",,37.522189,111.144365,38,82,3,13,14,12,10,8,0,81,1,20141005190000
738,"Soybean factory, Luliang",,37.51689,111.135101,50,55,1,12,28,20,10,8,0,81,1,20141005190000
739,"Water Company, Luliang",,37.53394,111.138834,57,76,3,9,5,18,10,8,0,81,1,20141005190000
740,Luliang,,25.027007,103.668566,57,76,3,13,28,20,10,8,0,81,1,20141005190000
741,"City government, Sanmenxia",,34.776251,111.198781,182,106,15,11,9,8,14,10,1023,69,2,20141005190000
743,"BDA, Sanmenxia",,34.800434,111.204332,170,115,12,9,8,5,14,10,1023,69,2,20141005190000
744,Sanmenxia,,34.771506,111.206129,207,115,15,9,8,14,14,10,1023,69,2,20141005190000
745,"Food Factory, Changchun",,43.919094,125.329521,173,166,7,33,11,10,1,-4,1023,70,1,20141005190000
746,"Bus Factory, Changchun",,43.912337,125.293431,177,116,5,27,7,9,1,-4,1023,70,1,20141005190000
747,"Institute of Posts and Telecommunications, Changchun",,43.842368,125.285005,154,77,4,35,11,9,1,-4,1023,70,1,20141005190000
748,"Laodong Park, Changchun",,43.877293,125.371519,160,113,4,35,12,8,1,-4,1023,70,1,20141005190000
749,"Forest area, Changchun",,43.871825,125.331519,168,92,7,27,12,9,1,-4,1023,70,1,20141005190000
750,"Jinyuetan, Changchun",,43.79031,125.460561,176,103,14,31,5,9,1,-4,1023,70,1,20141005190000
751,"Shuaiwanzi, Changchun",,43.552321,125.639086,195,136,15,24,3,10,1,-4,1023,70,1,20141005190000
752,"Economic Development Zone Sanitation Department, Changchun",,43.869221,125.42365,197,72,7,31,7,10,1,-4,1023,70,1,20141005190000
753,"High-tech Zone Administrative Committee, Changchun",,43.819064,125.256375,212,290,9,25,4,9,4,-4,1023,56,1,20141005190000
754,"Daishan Park, Changchun",,43.852365,125.223399,161,128,2,30,8,8,1,-4,1023,70,1,20141005190000
755,Changchun,,43.819415,125.329977,160,113,4,35,12,9,-,-,0,-,-,20141005190000
756,"Hadawan, Jilin",,43.888081,126.545727,183,126,21,28,55,19,2,-7,0,49,2,20141005190000
757,"Fengman, Jilin",,43.768169,126.678802,160,81,29,23,13,5,2,-7,0,49,2,20141005190000
758,"Electric Power College, Jilin",,43.827403,126.502281,166,98,17,24,17,7,2,-7,0,49,2,20141005190000
759,"Jiangnan Park, Jilin",,43.83531,126.556519,191,118,9,32,54,10,2,-7,0,49,2,20141005190000
760,"Dongjuzi, Jilin",,43.838597,126.590068,161,97,12,31,13,6,2,-7,0,49,2,20141005190000
763,Jilin,,43.840137,126.555262,191,126,31,32,55,19,2,-7,0,49,2,20141005190000
764,"Lingbei, Haerbin",,45.756979,126.548008,144,65,20,38,11,9,-2,-4,1023,86,1,20141005190000
765,"Songbei Commercial University, Haerbin",,45.818624,126.566963,152,70,3,29,8,9,-2,-4,1023,86,1,20141005190000
766,"Acheng huining, Haerbin",,45.544286,126.985183,156,128,19,11,4,10,-2,-4,1023,86,1,20141005190000
767,"Nangang College Street, Haerbin",,45.724121,126.604906,159,79,21,30,5,11,-2,-4,1023,86,1,20141005190000
768,"Taiping Hongwei Park, Haerbin",,45.775332,126.695101,187,77,22,32,2,11,-2,-4,1023,86,1,20141005190000
769,"Daowai Chengde Square, Haerbin",,45.768637,126.640955,127,71,29,31,8,8,-2,-4,1023,86,1,20141005190000
770,"Xiangfang Hongqi Street, Haerbin",,45.733936,126.691083,102,62,23,5,5,9,-2,-4,1023,86,1,20141005190000
771,"Dongli Heping Road, Haerbin",,45.727765,126.651974,149,68,23,39,7,8,-2,-4,1023,86,1,20141005190000
772,"Daoli Jianguo Road, Haerbin",,45.749715,126.59891,153,89,24,44,11,10,-2,-4,1023,86,1,20141005190000
773,"Pingfang Light Factory, Haerbin",,45.611951,126.620898,175,68,3,38,7,13,-2,-4,1023,86,1,20141005190000
774,"Hulan Normal College, Haerbin",,45.983745,126.616553,158,58,29,20,7,10,-2,-4,1023,86,1,20141005190000
775,"Provincial Academy of Agricultural Sciences, Haerbin",,45.686141,126.626517,114,63,17,-,12,7,-2,-4,1023,86,1,20141005190000
776,Haerbin,,45.805757,126.541007,152,70,20,38,8,9,-,-,0,-,-,20141005190000
777,"Anju Compound, Qiqihaer",,47.365672,123.937016,93,37,30,11,3,20,3,-2,1024,60,1,20141005190000
778,"Farming Vehicule Factory, Qiqihaer",,47.326793,123.961427,89,35,32,19,3,18,3,-2,1024,60,1,20141005190000
779,"Fuqu EPA, Qiqihaer",,47.1853,123.62322,72,46,37,7,1,14,3,-2,1024,60,1,20141005190000
780,"City Center Square, Qiqihaer",,47.343096,123.96192,89,37,23,7,5,14,3,-2,1024,60,1,20141005190000
1217,"City Environmental Monitoring Station, Qiqihaer",,47.303639,123.957551,151,71,26,17,8,14,3,-2,1024,60,1,20141005190000
781,Qiqihaer,,47.356387,123.924736,151,71,37,19,8,20,3,-2,1024,60,1,20141005190000
782,"Saertu District, Daqing",,46.582368,125.152904,160,86,30,22,8,10,0,-2,1024,85,0,20141005190000
783,"Datong District, Daqing",,46.036786,124.842115,167,73,34,9,6,14,0,-2,1024,85,0,20141005190000
784,"Honggang District, Daqing",,46.418381,124.88973,142,64,31,24,5,9,0,-2,1024,85,0,20141005190000
785,"Longfeng District, Daqing",,46.535426,125.107043,162,75,77,38,9,19,0,-2,1024,85,0,20141005190000
786,"Ranghulu District, Daqing",,46.635123,124.85648,147,83,37,27,7,8,0,-2,1024,85,0,20141005190000
787,Daqing,,46.591414,125.110838,167,86,77,38,9,19,0,-2,1024,85,0,20141005190000
788,"Locomotive Factory, Mudanjiang",,44.610589,129.652672,59,40,48,16,3,4,4,0,1022,70,1,20141005190000
789,"No. 1 hospital, Mudanjiang",,44.567775,129.617043,91,48,40,19,18,3,4,0,1022,70,1,20141005190000
1220,"EPA building, Mudanjiang",,44.567777,129.620658,89,44,20,4,2,3,4,0,1022,70,1,20141005190000
1221,"Cultural Square, Mudanjiang",,44.586388,129.623164,82,38,9,14,6,4,4,0,1022,70,1,20141005190000
790,Mudanjiang,,44.553619,129.640246,91,76,48,19,18,4,4,0,1022,70,1,20141005190000
791,"Mingzhu Plaza, Hefei",,31.782847,117.201512,162,81,99,17,15,6,16,11,1023,72,4,20141005190000
792,"Sanli Street, Hefei",,31.874637,117.312573,172,92,78,16,14,7,16,11,1023,72,4,20141005190000
793,"Hupo Compound, Hefei",,31.868583,117.264491,171,77,44,6,16,7,16,11,1023,72,4,20141005190000
794,"Dongpu Reservoir, Hefei",,31.90319,117.165584,183,109,67,8,6,7,16,11,1023,72,4,20141005190000
795,"Changjiang middle road, Hefei",,31.855185,117.255484,170,88,8,6,20,9,16,11,1023,72,4,20141005190000
796,"Luyang District, Hefei",,31.941771,117.271504,178,100,38,1,18,9,16,11,1023,72,4,20141005190000
797,"Yaohai District, Hefei",,31.856595,117.341644,181,114,46,1,11,17,16,11,1023,72,4,20141005190000
798,"Baohe District, Hefei",,31.793644,117.307554,165,100,5,3,2,10,16,11,1023,72,4,20141005190000
799,"Lake district, Hefei",,31.736619,117.283501,160,88,16,12,12,9,16,11,1023,72,4,20141005190000
800,"High-tech zone, Hefei",,31.849755,117.129624,181,110,12,11,9,7,16,11,1023,72,4,20141005190000
801,Hefei,,31.819449,117.232753,170,88,99,17,20,9,-,-,0,-,-,20141005190000
802,"Hudong Road No.4 Elementary School, Maanshan",,31.684121,118.511017,177,92,54,29,9,9,16,16,1021,100,1,20141005190000
803,"Tianping Garment Factory, Maanshan",,31.64197,118.488043,160,89,149,34,9,13,16,16,1021,100,1,20141005190000
804,"City education base, Maanshan",,31.711216,118.648913,151,60,40,4,2,3,16,16,1021,100,1,20141005190000
805,"Cihu No.2 elementary school, Maanshan",,31.748546,118.515729,197,100,46,34,7,8,16,16,1021,100,1,20141005190000
806,"Maanshan steel factory power plant, Maanshan",,31.690864,118.48528,171,110,27,37,11,13,16,16,1021,100,1,20141005190000
807,Maanshan,,31.668461,118.511939,197,110,149,37,11,13,16,16,1021,100,1,20141005190000
808,"Science Innovation Center, Wuhu",,31.417056,118.375406,165,75,54,19,5,12,16,16,1021,100,1,20141005190000
809,"No.4 Water Plant, Wuhu",,31.315914,118.376231,152,63,14,9,7,16,16,16,1021,100,1,20141005190000
810,"Monitoring station, Wuhu",,31.348955,118.358154,156,91,20,11,2,21,16,16,1021,100,1,20141005190000
811,"Wuqierling Factory, Wuhu",,31.382068,118.407639,152,85,7,2,7,9,16,16,1021,100,1,20141005190000
812,Wuhu,,31.351007,118.438322,165,91,54,19,7,21,16,16,1021,100,1,20141005190000
813,"Jiangxi Foreign Affairs Office, Nanchang",,28.678027,115.903436,161,97,46,29,35,10,23,15,1020,52,3,20141005190000
814,"Provincial forestry company, Nanchang",,28.69065,115.898546,166,80,32,17,38,8,22,14,1020,54,2,20141005200000
815,"Institute of Forestry, Nanchang",,28.731518,115.82478,122,73,44,6,18,10,22,14,1020,54,2,20141005200000
816,"Jingdong town government, Nanchang",,28.680659,115.972736,119,67,41,9,15,6,22,14,1020,54,2,20141005200000
817,"Contruction Industry College, Nanchang",,28.684018,115.865891,127,62,41,15,24,11,22,14,1020,54,2,20141005200000
818,"Xianghu, Nanchang",,28.637831,115.9033,158,73,45,18,22,15,22,14,1020,54,2,20141005200000
819,"Martial Arts School, Nanchang",,28.794538,115.752876,85,54,26,6,7,7,22,14,1020,54,2,20141005200000
820,"Petrifaction Company, Nanchang",,28.608634,115.912999,117,69,45,13,17,7,22,14,1020,54,2,20141005200000
821,"Provincial Station, Nanchang",,28.677155,115.941896,99,72,40,13,19,12,22,14,1020,54,2,20141005200000
822,Nanchang,,28.679883,115.863022,166,80,45,18,38,15,22,14,1020,54,2,20141005200000
939,Sanya,,18.251142,109.515993,87,40,40,3,2,7,26,22,1012,78,4,20141005200000
823,"Lushan Mountain Observatory, Jiujiang",,29.5751,115.998926,82,52,108,4,7,5,13,11,1022,86,10,20141005200000
824,"Shili, Jiujiang",,29.668119,115.992381,155,74,35,14,25,3,13,11,1022,86,10,20141005200000
825,"Maoshantou, Jiujiang",,29.700819,115.967192,114,74,38,9,7,5,13,11,1022,86,10,20141005200000
826,"Xiyuan, Jiujiang",,29.723929,115.998206,117,80,29,12,7,6,13,11,1022,86,10,20141005200000
827,"Wuqierling Factory, Jiujiang",,29.640802,116.022713,132,82,44,12,24,7,13,11,1022,86,10,20141005200000
828,"Water Scientific Research Institute, Jiujiang",,29.679179,116.068081,151,79,23,13,21,7,13,11,1022,86,10,20141005200000
829,"Zonghe Industrial Park, Jiujiang",,29.592047,115.916335,134,80,39,22,23,5,13,11,1022,86,10,20141005200000
830,"Petrochemical General Plant, Jiujiang",,29.738832,116.09463,114,58,30,16,1,4,13,11,1022,86,10,20141005200000
831,Jiujiang,,29.70254,116.007025,155,82,108,22,25,7,13,11,1022,86,10,20141005200000
1332,"Feiyu, Xinyu",,27.844697,115.000136,127,72,48,3,16,,17,,1020,81,3,20141005200000
1333,"Beigang, Xinyu",,27.932491,115.103767,139,77,36,6,25,,17,,1020,81,3,20141005200000
1334,"No.2 water factory, Xinyu",,27.839577,114.933915,124,71,22,4,12,,17,,1020,81,3,20141005200000
1335,"Bureau of Meteorology, Xinyu",,27.81048,114.936507,119,82,41,4,10,,17,,1020,81,3,20141005200000
1336,Xinyu,,27.814351,114.922194,139,82,48,8,25,15,17,14,1020,81,3,20141005200000
832,"Tobacco Factory, Zhengzhou",,34.753419,113.687131,196,96,23,18,7,17,16,7,1026,55,3,20141005200000
833,"Textile Machinery Factory, Zhengzhou",,34.773366,113.647067,197,88,21,18,9,24,16,7,1026,55,3,20141005200000
834,"Banking College, Zhengzhou",,34.800856,113.681126,198,120,17,25,13,14,16,7,1026,55,3,20141005200000
835,"Water Supply Company, Zhengzhou",,34.807188,113.571089,189,124,33,27,11,21,16,7,1026,55,3,20141005200000
836,"Economic Development Zone Management Committee, Zhengzhou",,34.717652,113.733182,187,88,15,2,24,12,16,7,1026,55,3,20141005200000
837,"No. 47 middle school, Zhengzhou",,34.772211,113.74009,218,93,23,20,8,8,16,7,1026,55,3,20141005200000
838,"City Monitoring Station, Zhengzhou",,34.748404,113.60514,185,107,11,19,7,16,16,7,1026,55,3,20141005200000
839,"Henan Medical University, Zhengzhou",,34.752637,113.641658,181,87,16,17,15,12,16,7,1026,55,3,20141005200000
840,"Gangli Reservoir, Zhengzhou",,34.952652,113.64248,189,107,13,26,17,13,16,7,1026,55,3,20141005200000
841,Zhengzhou,,34.745417,113.631415,185,107,16,19,15,16,-,-,0,-,-,20141005200000
842,"Henan University No.1 Hospital, Kaifeng",,34.799302,114.352706,175,87,5,10,25,10,16,7,1026,55,3,20141005200000
843,"Maternity And Child Hospital, Kaifeng",,34.795803,114.386103,165,78,18,13,24,11,16,7,1026,55,3,20141005200000
844,"Cancer Hospital, Kaifeng",,34.775428,114.350292,165,93,23,8,24,10,16,7,1026,55,3,20141005200000
845,"Yellow River Conservancy Institute, Kaifeng",,34.826066,114.324772,196,119,41,9,36,12,16,7,1026,55,3,20141005200000
846,"Shijixing Kindergarden, Kaifeng",,34.793606,114.302744,260,137,15,16,33,13,16,7,1026,55,3,20141005200000
847,Kaifeng,,34.796346,114.313426,260,100,15,16,33,13,16,7,1026,55,3,20141005200000
852,Jiaozuo,,35.215381,113.248188,152,66,27,23,38,16,16,7,1026,55,3,20141005200000
853,"Cotton Research Institute, Anyang",,36.081435,114.486451,85,62,5,17,13,10,12,9,1028,72,2,20141005200000
854,"Hongmiao Street, Anyang",,36.086733,114.326,147,62,12,12,9,12,12,9,1028,72,2,20141005200000
855,"Yinxing Compound, Anyang",,36.056519,114.36495,124,69,18,15,5,9,12,9,1028,72,2,20141005200000
856,"Tiefo Temple, Anyang",,36.110041,114.309309,159,60,6,15,8,12,12,9,1028,72,2,20141005200000
857,Anyang,,36.097767,114.398846,159,69,18,15,9,12,12,9,1028,72,2,20141005200000
858,"City Monitoring Station, Luoyang",,34.669055,112.439633,132,73,11,11,21,5,16,,1025,76,6,20141005200000
859,"BDA Management Committee, Luoyang",,34.622084,112.390759,147,64,11,13,21,8,16,,1025,76,6,20141005200000
860,"New municipal office, Luoyang",,34.623745,112.432973,149,63,23,16,20,11,16,,1025,76,6,20141005200000
861,"City committee communist party school, Luoyang",,34.650169,112.400212,157,70,17,22,18,8,22,,1024,52,5,20141005200000
862,"Henan Forestry College, Luoyang",,34.685566,112.509429,151,64,14,16,57,7,22,,1024,52,5,20141005200000
863,"CITIC No.2 Elementary School, Luoyang",,34.668212,112.36907,155,69,11,20,11,9,16,,1025,76,6,20141005200000
864,"Yuxi Hotel, Luoyang",,34.685949,112.472611,119,79,12,12,18,12,16,,1025,76,6,20141005200000
865,Luoyang,,34.617424,112.46054,157,70,23,22,57,11,22,8,1024,52,5,20141005200000
866,"City Planning Design Institute, Pingdingshan",,33.7352,113.297916,176,84,32,18,32,18,16,7,1026,55,3,20141005200000
867,"Xinhua Hotel, Pingdingshan",,33.737754,113.328814,168,92,27,20,30,15,16,7,1026,55,3,20141005200000
868,"Engineering College, Pingdingshan",,33.772474,113.188235,173,88,39,17,32,11,16,7,1026,55,3,20141005200000
869,"High Voltage Switchgear Factory, Pingdingshan",,33.719941,113.312665,13,105,20,24,60,16,16,7,1026,55,3,20141005200000
