locationid,stationname,chinesename,latitude,longitude,pm25,pm10,o3,no2,so2,co,temperature,dewpoint,pressure,humidity,wind,est_time
1,Dongcheng Dongsi,,39.9304,116.423239,34,22,27,25,9,6,5,-14,1020,24,2,20141230170000
2,"Temple of Heaven, Dongcheng",,39.887403,116.41324,34,16,25,31,7,11,4,-13,1020,28,2,20141230170000
3,West Park officials,,39.930333,116.345162,42,74,22,18,5,17,-2,-14,1017,40,3,20141230170000
4,West Wanshou Nishinomiya,,39.879354,116.358183,36,23,24,24,9,9,5,-14,1020,24,2,20141230170000
5,Chaoyang Olympic Sports Center,,39.983406,116.403253,160,103,19,30,19,8,-8,-15,1029,58,1,20141230170000
6,Chaoyang Agricultural Exhibition Hall,,39.938331,116.46715,62,39,28,33,17,8,4,-13,1020,28,2,20141230170000
7,Haidian Wanliu,,39.988245,116.293062,34,30,18,33,7,15,-1,-12,1019,44,1,20141230170000
8,The Haidian northern New Area,,40.091313,116.180194,164,84,1,30,25,35,0,-14,1018,35,4,20141230170000
9,Haidian Beijing Botanical Garden,,40.003252,116.213097,115,51,23,34,19,8,-4,-13,1016,50,3,20141230170000
10,Fengtai garden,,39.86423,116.285037,66,37,1,28,7,30,-5,-13,1017,54,5,20141230170000
11,Fengtai Yungang,,39.82535,116.152237,137,89,13,19,16,14,5,-8,1020,39,3,20141230170000
12,Shijingshan city,,39.915286,116.190144,81,35,28,34,11,24,-2,-13,1017,43,5,20141230170000
13,"Fangshan, Liangxiang",,39.743357,116.14225,159,61,8,29,14,26,6,-14,1017,23,2,20141230170000
14,"Huangcunzhen, Daxing",,39.719389,116.410219,163,90,5,31,22,17,7,-14,1018,21,2,20141230170000
15,BDA,,39.796197,116.51197,116,70,4,38,28,20,-1,-12,1019,44,1,20141230170000
16,Tongzhou New Town,,39.887113,116.6689,174,93,10,36,27,16,5,-8,1020,39,3,20141230170000
17,Shunyi New Town ,,40.128111,116.660908,63,70,21,22,12,12,5,-8,1020,39,3,20141230170000
18,Changping Town,,40.218245,116.236084,55,147,24,8,2,4,4,-12,1023,31,9,20141230170000
19,"Mentougou, Longquan Town",,39.938397,116.112323,161,103,6,32,35,21,4,-13,1020,28,2,20141230170000
20,Pinggu town,,40.144433,117.106563,59,47,15,11,10,15,6,-14,1017,23,3,20141230170000
21,Huairou town,,40.329104,116.63387,63,37,25,15,8,5,4,-13,1020,28,2,20141230170000
22,The town of Miyun,,40.371186,116.838053,34,23,26,8,15,8,5,-14,1020,24,2,20141230170000
23,Yanqing town,,40.454217,115.978106,45,18,22,1,2,5,-4,-13,1016,50,3,20141230170000
24,Changping Dingling,,40.293269,116.226108,70,34,31,9,29,3,-3,-13,1017,47,4,20141230170000
25,Badaling Northwest,,40.36623,115.994146,133,69,7,20,45,8,6,-14,1018,23,1,20141230170000
26,Miyun Reservoir,,40.500157,116.91701,30,27,23,4,4,3,4,-13,1020,28,2,20141230170000
27,"Donggaocun Zhen, Pinggu",,40.10142,117.126556,108,71,22,19,21,6,5,-14,1020,24,2,20141230170000
28,"Yongledianzhen, Tongzhou",,39.713192,116.78905,197,105,7,43,26,18,5,-9,1021,36,5,20141230170000
29,"Yufazhen, Daxing",,39.521203,116.306026,36,108,15,3,7,14,0,-22,1026,18,7,20141230170000
30,"Liulihezhen, Fangshan",,39.581169,116.006089,153,89,4,35,22,53,7,-14,1018,21,2,20141230170000
31,"Qianmen E St, Dongcheng",,39.900402,116.401242,63,19,7,22,4,10,4,-13,1020,28,2,20141230170000
32,Yongdingmen Inner St,,39.877401,116.400238,51,112,3,26,9,33,0,-14,1018,35,4,20141230170000
33,Xizhimen N St,,39.955352,116.355187,194,133,9,54,27,26,-3,-12,1015,51,3,20141230170000
34,South Ring Road,,39.857377,116.37421,-,-,-,-,-,-,-,-,0,-,-,20141230170000
35,East Fourth Ring Road,,39.940273,116.489075,13,140,8,7,2,11,0,-22,1026,18,7,20141230170000
36,Beijing,,39.955906,116.474246,34,107,13,6,3,11,4,-12,1023,31,9,20141230170000
37,Putuo,,31.232979,121.415378,241,133,32,76,23,15,8,2,1019,66,2,20141230170000
38,Yangpu Sipiao,,31.263795,121.540311,181,93,22,50,23,17,7,2,1019,71,0,20141230170000
39,Shanghai Normal College Primary Division,,31.199031,121.487719,196,107,27,57,25,17,7,2,1019,71,0,20141230170000
40,Dianshan Lake,,31.091338,120.982293,181,94,31,77,24,9,14,1,1018,41,1,20141230170000
41,Hongkou Liangcheng,,31.298906,121.47155,183,110,27,42,19,14,13,0,1018,41,3,20141230170000
42,Jingan,,31.224251,121.429637,178,106,19,49,32,14,7,2,1019,71,0,20141230170000
43,Shanghai Normal University,,31.163531,121.416643,195,107,35,53,33,12,12,2,1022,51,3,20141230170000
44,Chuansha,,31.188626,121.707342,219,136,72,31,19,14,5,2,1019,81,1,20141230170000
45,Zhangjiang,,31.204896,121.581215,177,106,32,65,20,10,14,1,1018,41,1,20141230170000
46,Lingshan Road,,31.226286,121.537317,174,90,31,46,35,14,12,2,1022,51,3,20141230170000
1080,City average,,31.228451,121.478227,187,130,18,78,20,12,10,2,1019,58,1,20141230170000
47,Shanghai,,31.202842,121.453493,180,91,19,76,19,11,10,2,1019,58,1,20141230170000
48,Guangzhou,,23.138517,113.263701,168,92,9,45,10,14,14,7,1019,63,0,20141230170000
49,"Huadu town, Guangzhou",,23.389121,113.220062,160,117,43,28,30,19,10,7,1020,82,0,20141230170000
50,"Luogang Zhenlong, Guangzhou",,23.308027,113.567032,174,97,43,24,8,13,12,8,1020,77,0,20141230170000
51,"LuHu, Guangzhou",,23.151743,113.281842,175,109,50,59,5,14,21,0,1017,25,1,20141230170000
52,"Tianhu, Guangzhou",,23.647433,113.629715,102,58,49,5,3,6,21,0,1017,25,2,20141230170000
53,"Zhudong, Guangzhou",,23.418406,113.078552,167,89,46,20,26,12,17,12,1021,72,2,20141230170000
54,"Modiesha station, Guangzhou",,23.103814,113.338238,180,121,3,67,14,19,9,6,1019,82,0,20141230170000
55,Zhuhai,,22.2677,113.581765,122,59,45,29,3,9,15,10,1020,72,3,20141230170000
1075,"Huicai technical school, Foshan",,23.039667,113.105492,230,141,42,48,20,19,7,5,1021,87,2,20141230170000
56,"Sanshuiyun donghai, Foshan",,23.185788,112.865368,151,64,31,22,13,7,8,4,1024,76,4,20141230170000
57,"Nanhai Bureau of Meteorology, Foshan",,23.046836,113.145764,162,90,36,86,19,12,14,6,1018,59,0,20141230170000
58,"Sanshui Monitoring Station, Foshan",,23.163551,112.890843,107,53,19,25,9,10,13,12,1023,94,3,20141230170000
1087,Foshan,,23.018995,113.126899,187,119,40,68,31,17,9,7,1019,87,0,20141230170000
59,"Ronggui street committee, Shunde",,22.762729,113.258356,155,62,33,20,12,11,18,2,1017,34,1,20141230170000
60,Shunde,,22.80246,113.298701,158,81,36,49,10,12,-,-,0,-,-,20141230170000
61,"Donghu, Jiangmen",,22.590411,113.087351,89,58,38,26,19,8,11,7,1023,76,9,20141230170000
62,"Taoyuan Atmosphere Premier Station, Jiangmen",,22.72489,112.93404,154,79,16,23,15,9,15,8,1018,63,2,20141230170000
63,Jiangmen,,22.576047,113.087351,190,104,40,24,12,23,12,9,1019,82,1,20141230170000
64,"Kengkouzi station, Zhaoqing",,23.158865,112.570287,38,20,36,8,5,9,11,6,1024,71,4,20141230170000
65,"Mugangzi station, Zhaoqing",,23.067961,112.431934,46,30,36,21,6,7,19,1,1018,30,2,20141230170000
67,Zhaoqing,,23.044571,112.470346,42,41,36,19,7,7,8,5,1020,81,1,20141230170000
68,"Jinguo Bay, Huizhou",,22.937223,114.385567,93,51,33,11,4,6,13,4,1019,54,1,20141230170000
1091,"Xiabu, Huizhou",,23.077493,114.410275,46,24,30,17,3,11,14,13,1022,94,4,20141230170000
69,"Xijiao, Huizhou",,23.338178,114.112867,156,49,26,8,12,7,15,14,1021,94,3,20141230170000
70,"Jiangbei, Huizhou",,23.111706,114.415274,82,47,35,5,8,7,18,1,1018,32,5,20141230170000
71,"Huiyang chuanhu, Huizhou",,22.814485,114.329292,82,40,13,8,5,12,13,10,1025,82,5,20141230170000
72,"Daya bay management committee, Huizhou",,22.739283,114.53631,74,47,38,8,7,8,18,5,1017,42,3,20141230170000
73,Huizhou,,23.109349,114.421164,151,95,38,28,6,11,10,5,1019,71,2,20141230170000
74,"Guancheng No.2 water plant, Dongguan",,23.057294,113.753254,154,69,32,44,8,9,14,2,1019,44,3,20141230170000
75,"Dongcheng Shijing, Dongguan",,23.010039,113.799529,107,50,31,16,9,11,18,1,1018,32,4,20141230170000
76,"Nancheng Xiping, Dongguan",,22.963051,113.743494,117,58,27,25,5,12,14,13,1024,94,3,20141230170000
77,"Nancheng Yuanling, Dongguan",,23.025058,113.751308,152,73,42,17,7,11,15,12,1022,82,5,20141230170000
78,Dongguan,,23.017813,113.756958,174,118,50,63,11,15,12,4,1019,58,2,20141230170000
79,"Zimaling, Zhongshan",,22.505112,113.407183,119,52,17,4,9,15,14,8,1022,67,9,20141230170000
80,"Yangtze River tourist area, Zhongshan",,22.48589,113.439054,153,61,13,25,5,15,15,14,1020,94,7,20141230170000
81,"Huabai Park, Zhongshan",,22.51839,113.374362,159,78,28,23,8,24,12,8,1019,77,2,20141230170000
82,Zhongshan,,22.513997,113.398277,165,87,35,32,9,25,11,8,1019,82,2,20141230170000
83,"No.8 middle school, Shaoguan",,24.767777,113.583537,76,39,42,15,26,6,12,4,1025,49,2,20141230170000
83,"No.8 middle school, Shaoguan",,24.767777,113.583537,76,39,42,15,26,6,12,4,1025,49,2,20141230170000
84,"Forest area, Shaoguan",,24.796107,113.612131,85,45,45,15,16,7,12,4,1025,49,2,20141230170000
84,"Forest area, Shaoguan",,24.796106,113.612131,85,45,45,15,16,7,12,4,1025,49,2,20141230170000
86,"Shaoguan University, Shaoguan",,24.790864,113.646598,149,59,49,12,19,8,12,4,1025,49,2,20141230170000
86,"Shaoguan University, Shaoguan",,24.790864,113.646599,149,59,49,12,19,8,12,4,1025,49,2,20141230170000
88,"Qujiang Monitoring Station, Shaoguan",,24.683042,113.60157,42,34,33,17,22,13,17,1,1019,23,1,20141230170000
88,"Qujiang Monitoring Station, Shaoguan",,24.683042,113.60157,42,34,33,17,22,13,17,1,1019,23,1,20141230170000
89,Shaoguan,,24.807342,113.602712,80,33,28,29,16,20,6,5,1022,91,3,20141230170000
90,"Chaonanzi Station, Shantou",,23.251174,116.406606,139,57,50,12,9,10,19,4,1017,37,3,20141230170000
90,"Chaonanzi Station, Shantou",,23.251213,116.406762,139,57,50,12,9,10,19,4,1017,37,3,20141230170000
91,Shantou,,23.350642,116.686306,156,60,48,29,36,23,6,6,1020,100,0,20141230170000
92,"City Environmental Monitoring Station, Zhanjiang",,21.220431,110.397317,114,62,79,22,5,17,12,8,1019,71,2,20141230170000
93,"EPB Dormitory, Zhanjiang",,21.197376,110.406487,97,53,40,14,14,11,9,6,1019,71,1,20141230170000
94,"Xiashan Swimming Park, Zhanjiang",,21.200431,110.415655,149,58,82,12,12,16,12,8,1019,71,2,20141230170000
95,"Zhanjiang Theatre, Zhanjiang",,21.268177,110.366445,170,81,46,20,15,24,11,8,1020,77,4,20141230170000
96,"Mazhang EPA, Zhanjiang",,21.265486,110.335993,132,56,20,9,13,19,10,6,1023,65,4,20141230170000
97,"Potou District EPB, Zhanjiang",,21.247604,110.454508,122,52,36,19,4,18,16,15,1019,88,6,20141230170000
98,Zhanjiang,,21.26832,110.363883,134,58,93,15,8,5,12,8,1019,71,2,20141230170000
99,"Maogang sub-office EPB, Maoming",,21.466435,111.033462,137,59,70,3,6,3,18,6,0,44,3,20141230170000
100,"Petrochemical No. 7 elementaty school, Maoming",,21.648905,110.937861,158,71,120,20,8,8,15,7,0,57,3,20141230170000
101,"Jiankang road, Maoming",,21.662211,110.909482,159,78,21,12,14,11,17,14,0,84,4,20141230170000
102,"Gaoling, Maoming",,21.690558,110.871146,119,53,47,9,8,8,18,6,0,44,3,20141230170000
1094,Maoming,,21.660223,110.929968,170,75,46,26,22,14,13,5,0,57,3,20141230170000
103,"Jiaying University, Meizhou",,24.325415,116.12816,154,74,32,10,8,8,15,13,1024,88,3,20141230170000
104,"Mexian new town, Meizhou",,24.269283,116.084546,134,46,31,13,5,13,18,12,1020,68,4,20141230170000
105,"Environmental Monitoring Center, Meizhou",,24.262778,116.129621,149,58,27,16,10,9,15,13,1024,88,3,20141230170000
1095,Meizhou,,24.285988,116.127065,102,33,34,11,7,9,6,6,1020,100,0,20141230170000
106,"City EPA, Shanwei",,22.772349,115.370227,129,55,47,17,4,10,9,7,1020,85,0,20141230170000
107,"City government, Shanwei",,22.787161,115.375536,82,25,34,7,7,9,16,13,1023,81,2,20141230170000
108,"Xincheng Middle School, Shanwei",,22.789851,115.367124,104,43,33,9,4,10,13,8,1020,66,1,20141230170000
1099,Shanwei,,22.783576,115.38022,112,45,34,9,4,10,9,7,1020,85,0,20141230170000
109,"No.3 elementary school, Heyuan",,23.75435,114.703514,97,51,33,12,7,7,17,0,1019,22,1,20141230170000
109,"No.3 elementary school, Heyuan",,23.755946,114.699091,97,51,33,12,7,7,17,0,1019,22,1,20141230170000
111,"City water company, Heyuan",,23.688709,114.954652,139,56,36,11,9,7,12,4,1025,46,2,20141230170000
111,"City water company, Heyuan",,23.754246,114.682459,139,56,36,11,9,7,12,4,1025,46,2,20141230170000
113,"Heyuan high school, Heyuan",,23.720037,114.699563,99,40,46,13,5,11,11,10,1024,93,2,20141230170000
113,"Heyuan high school, Heyuan",,23.720666,114.693879,99,40,46,13,5,11,11,10,1024,93,2,20141230170000
115,Heyuan,,23.740888,114.705147,114,68,40,22,10,9,6,4,1020,78,2,20141230170000
116,"Yuanyang Lake, Yangjiang",,21.855869,111.983676,147,67,50,12,10,10,19,2,1018,21,3,20141230170000
1100,Yangjiang,,21.855227,111.987308,154,73,41,30,7,10,11,5,1020,57,1,20141230170000
118,"Town governement, Qingyuan",,23.708005,113.026215,34,11,30,15,5,16,13,12,1023,94,3,20141230170000
119,"Fupin district, Qingyuan",,23.624781,113.067713,85,26,36,32,23,15,9,6,1020,82,1,20141230170000
121,"Environment protection office, Qingyuan",,23.685931,113.053239,30,34,33,7,8,9,8,4,1023,76,3,20141230170000
121,"Environment protection office, Qingyuan",,23.691109,113.047948,30,34,33,7,8,9,8,4,1023,76,3,20141230170000
123,"Fengcheng Subdistrict, Qingyuan",,23.695447,113.068189,34,14,34,4,7,9,8,4,1023,76,3,20141230170000
124,Qingyuan,,23.679304,113.061513,55,36,35,12,12,11,20,2,1018,30,2,20141230170000
125,"Xiyuan Road, Chaozhou",,23.668654,116.638272,169,99,42,14,4,11,15,13,1024,88,3,20141230170000
126,"Archives Bureau, Chaozhou",,23.667881,116.649104,156,81,153,27,6,12,12,9,1021,82,2,20141230170000
127,"Municipal Corporation, Chaozhou",,23.65035,116.621859,139,66,43,15,11,11,19,4,1017,37,3,20141230170000
1101,Chaozhou,,23.654204,116.626969,127,59,35,20,16,17,8,7,1020,93,0,20141230170000
128,"Donghu Park, Jieyang",,23.532877,116.374427,91,29,29,9,8,8,14,14,1022,100,1,20141230170000
129,"Yuhu Middle School, Jieyang",,23.52682,116.414123,180,94,44,31,22,11,8,7,1020,93,1,20141230170000
219,"BDA, Panjin",,41.157144,122.06645,78,35,14,4,19,15,-3,-15,0,39,3,20141230170000
130,"Experimental Primary School, Jieyang",,23.571473,116.364137,91,44,13,13,13,11,14,12,1024,88,2,20141230170000
1102,Jieyang,,23.547596,116.37754,142,56,92,17,28,9,17,4,1020,42,2,20141230170000
131,"City Environmental Monitoring Station, Yunfu",,22.936779,112.042248,82,30,22,14,26,13,9,5,1025,76,3,20141230170000
132,"The new city government headquarters, Yunfu",,22.914275,112.044475,82,67,30,16,9,10,16,9,1022,63,3,20141230170000
133,"Muyang police sub-station, Yunfu",,22.951267,112.05923,46,32,24,7,12,11,18,1,1018,32,2,20141230170000
1103,Yunfu,,22.912436,112.049811,55,23,32,6,3,6,10,7,1020,82,0,20141230170000
134,Yantian,,22.587949,114.266899,97,43,22,4,6,13,10,6,1019,76,1,20141230170000
135,Kwai Chung,,22.572837,113.867166,159,137,51,67,10,15,17,8,1018,55,4,20141230170000
135,Kwai Chung,,22.354168,114.134558,159,137,51,67,10,15,17,8,1018,55,4,20141230170000
137,Nanyou,,22.513802,113.928051,144,69,121,8,7,11,10,6,1019,76,1,20141230170000
138,Meisha,,22.59611,114.318345,93,42,40,25,2,13,13,6,1022,63,4,20141230170000
139,Xi xiang,,22.717524,114.252304,114,54,46,8,4,9,17,8,1018,55,4,20141230170000
140,Liyuan,,22.54732,114.101205,97,51,24,13,6,12,18,1,1018,32,5,20141230170000
1072,Kwai Chung,,22.627947,114.428875,97,45,36,13,2,11,16,13,1022,82,3,20141230170000
1072,Kwai Chung,,22.354168,114.134558,97,45,36,13,2,11,16,13,1022,82,3,20141230170000
141,OCT,,22.539549,113.992458,142,106,22,18,3,19,18,6,1018,45,4,20141230170000
142,Honghu,,22.559647,114.121976,117,56,22,28,4,9,18,1,1018,32,4,20141230170000
143,Mission Hills,,22.694131,114.050496,164,71,46,30,12,11,19,3,1020,35,3,20141230170000
144,Shenzhen,,22.540382,114.062982,168,128,128,95,6,15,-,-,0,-,-,20141230170000
145,Chengdu,,30.622581,104.069564,210,117,19,28,6,10,5,2,1020,81,1,20141230170000
146,"Jinquan lianghe, Chengdu",,30.710359,103.974209,204,139,53,39,8,20,12,2,1019,51,1,20141230170000
147,"Shilidian, Chengdu",,30.684718,104.17845,219,145,28,33,5,10,11,2,1019,54,1,20141230170000
148,"Sanwayao, Chengdu",,30.568159,104.081524,176,120,20,56,8,15,7,2,1022,71,0,20141230170000
149,"Shahepu, Chengdu",,30.633685,104.120536,162,101,29,17,4,15,4,2,1024,87,3,20141230170000
150,"Liang Lane, Chengdu",,30.682601,104.076522,195,107,20,28,4,10,5,2,1020,81,0,20141230170000
151,"Caotang Temple, Chengdu",,30.651891,104.0284,187,119,22,31,4,11,5,2,1020,81,1,20141230170000
152,"Lingyansi, Chengdu",,31.025729,103.615022,197,158,67,22,6,9,11,1,1020,50,1,20141230170000
153,"Fuleshan, Mianyang",,31.472493,104.7806,158,57,31,18,5,9,7,3,1020,71,2,20141230170000
154,"High-tech Zone Water Company, Mianyang",,31.463309,104.674293,129,44,18,17,4,8,7,6,1025,85,0,20141230170000
155,"No.3 water company, Mianyang",,31.505002,104.731054,134,58,34,19,4,10,2,2,1024,99,2,20141230170000
156,Mianyang,,31.465174,104.681731,167,77,34,19,8,16,2,2,1021,97,1,20141230170000
157,"Dongshan Park, Deyang",,31.118648,104.424587,159,61,8,37,6,13,4,2,1032,87,0,20141230170000
158,"Xixiaoqu, Deyang",,31.131159,104.390972,129,53,4,12,2,17,3,2,1023,93,1,20141230170000
159,"City Procuratorate, Deyang",,31.114554,104.407986,173,82,45,32,8,12,12,0,1019,44,1,20141230170000
160,"Refractory Factory, Deyang",,31.108606,104.356506,93,49,23,14,9,11,15,-1,1026,34,2,20141230170000
161,Deyang,,31.124715,104.400703,165,73,120,27,4,12,4,2,1025,87,0,20141230170000
162,"Nongnongping, Panzhihua",,26.566698,101.695438,187,108,42,30,79,19,1,0,0,89,1,20141230170000
163,"Hemenkou, Panzhihua",,26.589072,101.578312,171,110,32,16,43,16,1,-1,0,83,0,20141230170000
164,"Bingcaogang, Panzhihua",,26.58143,101.718473,163,89,29,42,9,20,9,2,0,47,2,20141230170000
165,"Renhe, Panzhihua",,26.498166,101.746887,152,94,31,22,21,14,1,-1,0,83,0,20141230170000
166,"Jinjina, Panzhihua",,26.553226,101.84862,124,72,23,23,42,14,16,3,0,29,4,20141230170000
167,Panzhihua,,26.578779,101.720211,174,105,42,30,22,19,1,0,0,89,1,20141230170000
168,"Shima Middle School, Yibin",,28.815979,104.599199,164,79,19,20,10,10,5,4,1024,89,1,20141230170000
169,"Municipal party committee, Yibin",,28.762654,104.624834,253,129,24,21,24,15,8,6,1024,82,0,20141230170000
170,"No. 4 middle school, Yibin",,28.783257,104.608407,300,156,33,22,17,12,8,6,1024,82,0,20141230170000
171,"City government, Yibin",,28.760477,104.644079,155,71,7,17,9,12,6,5,1021,87,2,20141230170000
172,"Huangjinzui, Yibin",,28.712319,104.578389,274,157,46,25,27,13,8,6,1024,82,0,20141230170000
173,"Shaping Middle School, Yibin",,28.795569,104.681393,241,121,8,22,9,14,9,7,1030,90,1,20141230170000
174,Yibin,,28.748384,104.645766,171,89,15,18,12,16,7,5,1022,83,0,20141230170000
175,"Datang Hill, Zigong",,29.359969,104.757388,194,110,26,11,22,20,7,0,0,56,2,20141230170000
176,"Yanma Road, Zigong",,29.355752,104.724036,197,97,34,16,4,12,14,0,0,39,1,20141230170000
177,"Tanmulin Street, Zigong",,29.353555,104.777397,164,73,21,18,11,8,10,5,0,66,1,20141230170000
178,"Chunhua Road, Zigong",,29.33825,104.771895,162,81,34,10,15,18,7,3,0,78,2,20141230170000
179,Zigong,,29.33617,104.781138,191,104,54,12,9,20,6,0,0,60,2,20141230170000
180,"Jiushi Hill, Luzhou",,28.955347,105.434207,195,110,45,18,13,9,9,6,0,78,1,20141230170000
181,"Xiaoshishang Port, Luzhou",,28.899583,105.447192,173,102,31,20,8,9,6,0,0,63,2,20141230170000
182,"Lantianxian Bridge, Luzhou",,28.852766,105.4358,181,123,32,25,17,7,9,6,0,78,1,20141230170000
183,"City Environment Monitoring Station, Luzhou",,28.895898,105.435802,192,111,3,21,27,5,10,4,1001,65,1,20141230170000
184,Luzhou,,28.868782,105.445938,191,104,29,14,24,10,7,0,0,59,1,20141230170000
185,"City Committee, Nanchong",,30.799993,106.082906,173,88,31,12,12,10,8,8,1024,98,1,20141230170000
186,"Refinery Factory, Nanchong",,30.819412,106.10712,194,113,12,31,8,9,6,5,1022,85,2,20141230170000
187,"Gaoping District Monitoring Station, Nanchong",,30.783291,106.110417,180,97,13,8,25,13,4,4,1028,99,2,20141230170000
188,"Jialing District EPB, Nanchong",,30.761255,106.06818,175,89,18,26,5,12,8,8,1024,98,1,20141230170000
189,"City Environmental Monitoring Station, Nanchong",,30.836519,106.11272,193,99,7,16,18,14,6,6,1033,100,1,20141230170000
190,Nanchong,,30.835511,106.114717,208,124,20,50,14,13,7,5,1026,84,0,20141230170000
1249,"City Monitoring Station, Neijiang",,29.592673,105.036234,177,86,18,20,13,4,12,0,0,43,2,20141230170000
1250,"Dongxing District Government , Neijiang",,29.592148,105.074966,192,101,8,29,11,3,9,4,0,72,1,20141230170000
1251,"No 2 middle school, Neijiang",,29.579135,105.068548,264,141,11,18,13,11,10,6,0,73,1,20141230170000
1252,Neijiang,,29.577653,105.06166,211,109,11,25,22,6,8,1,0,59,1,20141230170000
1253,"City Monitoring Station, Suining",,30.517431,105.564623,180,112,6,16,2,7,9,5,0,72,2,20141230170000
1254,"Administrative center , Suining",,30.530907,105.593309,173,93,12,32,10,8,10,2,0,56,1,20141230170000
1255,Suining,,30.530053,105.596307,198,135,23,30,5,8,9,0,0,53,0,20141230170000
1256,"City Monitoring Station, Leshan",,29.560651,103.759211,173,81,10,15,6,13,5,-2,0,57,1,20141230170000
1257,"Leshan Giant Buddha Scenic Area , Leshan",,29.543938,103.772706,180,93,9,19,3,10,8,0,0,50,2,20141230170000
1258,Leshan,,29.54935,103.767777,198,105,8,36,10,13,7,0,0,61,2,20141230170000
1259,"Heilongtan , Meishan",,30.047726,103.900649,168,72,35,1,2,3,4,2,1025,87,0,20141230170000
1260,"Bureau of Meteorology, Meishan",,30.084591,103.843715,198,116,3,25,13,10,8,5,1024,81,0,20141230170000
1261,"Xuguang Community , Meishan",,30.066277,103.8516,195,129,3,30,13,15,8,5,1024,81,0,20141230170000
1262,"City Monitoring Station, Meishan",,30.059205,103.836229,200,107,5,12,4,12,5,2,1020,81,0,20141230170000
1263,Meishan,,30.072618,103.85064,192,107,13,15,6,9,4,2,1021,87,0,20141230170000
1264,"Ziyang middle school, Ziyang",,30.147763,104.638024,197,120,11,6,34,9,10,6,0,73,1,20141230170000
1265,Ziyang,,30.126054,104.63004,178,98,24,15,44,11,7,0,0,56,2,20141230170000
1377,"Dazhou Technical College, Dazhou",,31.277414,107.531672,166,78,4,20,8,7,7,,1024,88,3,20141230170000
1378,"City Environmental Monitoring Station, Dazhou",,31.212692,107.529474,176,85,5,4,3,12,3,,1028,96,3,20141230170000
1379,"Civic Center, Dazhou",,31.203669,107.465774,159,60,7,23,6,9,7,,1025,92,1,20141230170000
191,Shenyang US Consulate,,41.785668,123.432865,169,82,,19,45,,-9,-12,1016,79,2,20141230170000
192,"Huishan, Shenyang",,41.835421,123.647773,144,52,27,14,22,7,-12,-13,1020,92,2,20141230170000
193,"Hunnan, Shenyang",,41.758263,123.540809,114,49,13,15,25,8,-4,-12,1019,54,3,20141230170000
194,"Zhangshi, Shenyang",,41.771679,123.289859,172,101,14,36,56,10,-13,-17,1020,73,2,20141230170000
195,"Artillery College, Shenyang",,41.835749,123.547799,169,158,14,33,69,35,-9,-13,1032,73,3,20141230170000
196,"Beiling, Shenyang",,41.849633,123.434146,142,54,7,28,45,6,-14,-16,1019,85,1,20141230170000
197,"Wenyi Road, Shenyang",,41.767444,123.416144,132,63,19,30,53,8,-7,-13,1019,63,2,20141230170000
198,"Xiaoheyan, Shenyang",,41.779828,123.484015,127,56,10,29,79,7,-8,-11,1020,79,2,20141230170000
199,"Taiyuan Street, Shenyang",,41.799646,123.406146,122,55,10,38,71,7,-7,-13,1019,63,2,20141230170000
200,"Ermao, Shenyang",,41.783011,123.366679,291,177,23,51,130,25,-9,-13,1032,73,3,20141230170000
201,"Liaoning University, Shenyang",,41.830704,123.361071,68,27,14,6,14,7,-5,-12,1019,59,3,20141230170000
202,Shenyang,,41.808126,123.437611,164,80,4,28,51,10,-13,-14,1018,92,3,20141230170000
1104,"wenhua street, Shenyang , Shenyang",,41.774139,123.441839,428,292,8,58,57,25,-1,-7,1008,64,1,20141230170000
1105,"Tanglin Road , Shenyang , Shenyang",,41.823665,123.562317,205,345,3,45,58,40,-5,-7,1011,86,2,20141230170000
203,"Ganjingzi, Dalian",,38.9747,121.616893,171,108,6,36,13,19,1,-4,1016,70,2,20141230170000
204,"Zhoushuizi, Dalian",,38.951928,121.569981,112,57,10,29,55,18,-1,-11,1019,47,2,20141230170000
205,"Xinghai No 3 station, Dalian",,38.885779,121.568864,89,51,11,19,83,13,0,-13,1021,38,3,20141230170000
206,"Qingniwa Bridge, Dalian",,38.91274,121.638018,114,69,17,14,20,15,-3,-7,1018,74,1,20141230170000
207,"Fujiazhuang, Dalian",,38.864647,121.629947,215,141,8,89,37,19,8,-8,1009,32,8,20141230170000
208,"Qixianling, Dalian",,38.856978,121.523169,89,63,22,82,25,12,1,-13,1020,35,3,20141230170000
209,"Lushun, Dalian",,38.808946,121.264063,190,126,8,42,23,17,1,-4,1016,70,2,20141230170000
210,"Jinzhou, Dalian",,39.132192,121.753259,76,37,13,6,10,5,0,-13,1021,38,3,20141230170000
211,"BDA, Dalian",,39.05213,121.782022,25,17,30,23,11,9,0,-14,1019,35,3,20141230170000
212,"D&D Port, Dalian",,39.064087,121.981874,63,17,13,6,7,4,2,-14,1018,30,3,20141230170000
213,Dalian,,38.91478,121.619625,87,51,18,13,29,5,1,-15,1020,30,2,20141230170000
214,"Bearing Factory, Dandong",,40.068929,124.345703,359,345,11,27,52,42,-4,-6,1018,89,0,20141230170000
215,"Financial school, Dandong",,40.158723,124.432593,277,173,9,31,43,28,-4,-6,1018,89,0,20141230170000
216,"Yuanbaoshan water, Dandong",,40.149431,124.391698,165,40,23,12,32,11,-4,-15,1032,28,4,20141230170000
217,"Experimental Primary School, Dandong",,39.887343,124.158056,249,172,20,38,90,23,-4,-6,1022,78,1,20141230170000
218,Dandong,,40.002046,124.360479,82,38,14,13,28,11,-3,-13,1020,30,2,20141230170000
1106,"minzhu bridge, Dandong , Dandong",,40.112974,124.373604,139,62,10,11,21,10,-1,-9,1029,39,2,20141230170000
1107,"yuanbaoshan, Dandong , Dandong",,40.146298,124.399081,80,74,11,6,18,16,-2,-14,1031,27,5,20141230170000
1108,"linjiang houjie, Dandong , Dandong",,40.152757,124.431745,222,129,1,24,45,27,-7,-8,1016,96,2,20141230170000
220,"Xinglongtai, Panjin",,41.140948,122.111343,72,30,17,6,21,10,-1,-16,0,31,4,20141230170000
221,"Dingxiang, Panjin",,41.16139,121.928781,76,23,31,18,14,7,-4,-16,0,36,3,20141230170000
222,Panjin,,41.122089,122.076206,155,81,10,32,35,36,-5,-14,0,49,3,20141230170000
223,"No.3 water company, Yingkou",,40.682052,122.385352,178,96,28,44,56,9,3,-2,1026,55,8,20141230170000
224,"Yingkou University, Yingkou",,40.683689,122.388285,97,40,31,35,45,6,-5,-10,1021,58,1,20141230170000
225,"Botanical garden, Yingkou",,40.711674,122.281568,164,76,22,29,52,9,3,-2,1026,55,8,20141230170000
226,Yingkou,,40.668578,122.24059,153,66,12,27,16,33,-3,-9,1016,50,3,20141230170000
1109,"jinghu west street, Yingkou , Yingkou",,40.653831,122.221943,609,739,10,57,29,53,-4,-4,1017,97,1,20141230170000
1110,"Daqing Road , Yingkou , Yingkou",,40.709181,122.28243,149,76,4,26,53,31,-6,-12,1033,47,3,20141230170000
227,"Xishanpo, Huludao",,40.724078,120.921974,99,55,21,18,82,9,,,0,,,20141230170000
228,"Huagong hospital, Huludao",,40.755662,120.848435,201,174,21,32,72,30,,,0,,,20141230170000
229,"New district park, Huludao",,40.723415,120.853801,154,82,20,21,34,16,,,0,,,20141230170000
230,"Lianshan district governement, Huludao",,40.775488,120.872292,280,220,23,37,66,15,,,0,,,20141230170000
231,Huludao,,40.712501,120.842107,142,91,32,25,101,27,,,0,,,20141230170000
1111,"Dongcheng District , Huludao , Huludao",,40.775362,120.871706,183,131,2,25,53,39,,,0,,,20141230170000
1112,"huagong street, Huludao , Huludao",,40.758901,120.842935,168,99,9,27,57,30,,,0,,,20141230170000
232,Anshan,,41.110466,123.000147,152,68,26,20,47,15,-8,-15,1021,58,2,20141230170000
233,"Qianshan Park, Anshan",,41.033486,123.143897,-,-,-,-,-,-,-,-,0,-,-,20141230170000
234,"Tiexi, Anshan",,41.121636,122.97506,89,50,18,22,48,16,-5,-13,1019,54,2,20141230170000
235,"Taiping Station, Anshan",,41.153322,123.052433,142,61,16,14,52,14,-9,-13,1032,73,3,20141230170000
236,"Central Station, Anshan",,41.106731,123.002736,163,80,14,19,49,16,-7,-13,1014,63,3,20141230170000
237,"Shengou Temple, Anshan",,41.137157,123.031901,264,156,15,49,36,16,-6,-8,1010,86,1,20141230170000
1113,"Qianshan , Anshan , Anshan",,41.014521,123.122538,119,53,15,23,51,7,-5,-12,1031,59,3,20141230170000
1114,"Tiexi Sandao jie, Anshan",,41.103264,122.978613,222,159,7,30,57,21,-16,-18,1033,85,1,20141230170000
1115,"Taiyang, Anshan",,41.094946,123.019037,320,193,5,42,58,25,-4,-5,1020,93,2,20141230170000
238,Fushun,,41.883028,123.962984,174,96,8,35,39,18,-12,-16,1020,73,2,20141230170000
239,"Shenfu new town, Fushun",,41.804638,123.631684,175,102,10,19,26,27,-10,-12,1016,86,3,20141230170000
240,"Reservoir, Fushun",,41.8464,123.802857,153,80,22,32,29,25,-15,-18,1032,78,0,20141230170000
241,"Train Station, Fushun",,41.89726,124.017604,271,205,18,45,55,37,-4,-7,1012,80,3,20141230170000
242,"Dongzhou, Fushun",,41.855578,124.044738,158,80,16,14,29,13,-9,-13,1032,73,3,20141230170000
243,"Xinhua, Fushun",,41.888598,123.932932,129,92,13,26,68,16,-5,-12,1019,59,3,20141230170000
244,"Wanghua, Fushun",,41.888825,123.093723,132,85,9,22,50,13,-4,-12,1019,54,3,20141230170000
1367,"Dongzhou district, Fushun , Fushun",,41.864885,124.044353,158,80,5,14,29,13,-9,-13,1032,73,3,20141230170000
1368,"Wanghua district, Fushun , Fushun",,41.849112,123.815882,184,104,2,31,51,16,-9,-13,1032,73,3,20141230170000
245,Benxi,,41.296267,123.772371,169,84,36,98,55,33,-7,-13,1019,63,2,20141230170000
246,"Weining, Benxi",,41.349663,123.826071,185,57,38,42,4,4,-9,-13,1032,73,3,20141230170000
247,"Occupational disease hospital, Benxi",,41.305432,123.74645,99,43,15,9,22,24,2,-6,1025,56,3,20141230170000
248,"Dongming, Benxi",,41.292369,123.765058,152,50,13,31,25,34,-3,-8,1024,69,2,20141230170000
249,"Caitun, Benxi",,41.301591,123.746039,99,50,13,17,19,10,-6,-13,1019,58,2,20141230170000
250,"Xihu, Benxi",,41.331332,123.773537,186,134,21,8,86,47,-9,-13,1032,73,3,20141230170000
251,"Dayu, Benxi",,41.308091,123.818442,74,36,33,23,55,19,0,-12,1017,41,1,20141230170000
1116,"Xinlitun , Benxi , Benxi",,41.264104,123.811523,200,113,2,30,57,32,-9,-13,1032,73,3,20141230170000
252,Jinzhou,,41.097169,121.132647,50,33,19,20,41,21,-3,-17,1023,18,5,20141230170000
253,"Beihu Park, Jinzhou",,41.141447,121.137339,17,5,19,8,57,8,4,-15,1031,12,6,20141230170000
254,"Monitoring station, Jinzhou",,41.113441,121.140911,182,109,20,55,89,28,0,-10,1013,35,2,20141230170000
1369,"Baigu Water Plant, Jinzhou",,41.123847,121.206296,65,52,16,15,12,33,-4,-15,1018,25,1,20141230170000
255,"Nanshan, Jinzhou",,41.570689,122.046753,149,132,24,43,52,45,-7,-8,1012,87,2,20141230170000
1118,"BDA, Jinzhou",,40.853915,121.061756,212,194,6,51,72,66,-5,-8,1022,71,2,20141230170000
1119,"tianan street, Jinzhou , Jinzhou",,41.124468,121.126119,170,97,5,33,63,13,-8,-16,1033,38,1,20141230170000
1120,"baigu street, Jinzhou, Jinzhou",,41.12214,121.21027,172,122,9,24,53,20,-8,-16,1033,38,1,20141230170000
1121,Chaoyang,,41.576022,120.456053,65,37,17,16,51,24,-,-,0,-,-,20141230170000
1122,"Agricultural Area, Chaoyang",,43.93968,125.247371,169,82,6,10,19,50,-1,-12,1027,29,4,20141230170000
1123,Tieling,,42.225197,123.732174,153,71,20,25,37,5,-,-,0,-,-,20141230170000
260,"Waterpark, Tieling",,42.297031,123.880748,207,168,5,29,51,29,-7,-10,1014,80,4,20141230170000
1124,"Huigong Street West , Tieling , Tieling",,42.311115,123.845614,320,188,2,47,34,43,-5,-7,1011,86,1,20141230170000
1125,Liaoyang,,41.269312,123.24268,153,74,8,14,17,47,-,-,0,-,-,20141230170000
1126,"Riverside Road , Liaoyang , Liaoyang",,41.176884,123.419859,144,66,18,14,30,21,2,-6,1025,56,3,20141230170000
1127,Fuxin,,42.02373,121.675733,46,49,12,5,15,15,-,-,0,-,-,20141230170000
266,"Agricultural Area, Fuxin",,42.071291,121.696445,59,31,8,12,16,18,-9,-14,0,63,3,20141230170000
267,"Industrial Area, Fuxin",,42.041052,121.715554,454,497,7,39,87,35,-4,-16,0,39,2,20141230170000
1128,"Yulong Metro , Fuxin , Fuxin",,42.035091,121.666531,21,16,20,4,8,6,-5,-16,0,39,4,20141230170000
1129,"Dongyuan , Fuxin , Fuxin",,42.029119,121.681553,203,256,8,46,104,42,0,-15,0,29,1,20141230170000
268,"City Monitoring Station, Jinan",,36.662614,117.054645,38,91,23,30,45,8,9,-12,1016,11,5,20141230170000
269,"Shandong Institute of Economics, Jinan",,36.63819,117.074975,149,75,16,42,51,5,5,-13,1016,14,3,20141230170000
270,"Quancheng Plaza, Jinan",,36.661711,117.027043,165,91,15,25,43,12,6,-6,1029,28,3,20141230170000
271,"Kegansuo, Jinan",,36.611582,116.99384,181,109,32,15,31,0,3,-5,1023,40,4,20141230170000
272,"Agriculture Science Institute, Jinan",,36.663115,116.95063,178,162,25,38,55,25,-2,-11,1033,39,2,20141230170000
273,"Lanxiang technical school, Jinan",,36.700421,116.95342,166,103,5,32,60,14,7,-11,1016,14,3,20141230170000
274,"Chemical factory, Jinan",,36.687463,116.994406,210,148,7,55,81,11,14,-10,1015,10,4,20141230170000
275,"Provincial Seed Warehouse, Jinan",,36.685706,117.066348,167,124,15,80,65,13,5,-13,1016,14,3,20141230170000
276,"Shandong Architecture University, Jinan",,36.681732,117.191868,155,74,24,13,32,10,5,-6,1028,32,3,20141230170000
277,"Baosheng cable company, Jinan",,36.724638,117.130855,185,145,5,5,53,27,6,-12,1031,14,3,20141230170000
278,"Paomaling, Jinan",,36.47869,117.219027,85,34,34,5,29,7,9,-12,1016,11,5,20141230170000
279,"Changqing District Communist Party School, Jinan",,36.548797,116.770859,190,153,16,40,59,14,10,-12,1017,9,3,20141230170000
280,"BDA, Jinan",,36.685835,117.130851,95,60,22,12,27,6,7,-11,1016,14,3,20141230170000
281,Jinan,,36.651426,117.126625,222,160,23,70,79,13,10,-7,1016,18,3,20141230170000
282,"Shinan district No. 1, Qingdao",,36.065534,120.40839,219,173,17,12,18,13,11,2,1015,54,6,20141230170000
283,"Shibei district No. 1, Qingdao",,36.069919,120.341264,177,62,3,28,42,19,13,-12,1016,17,7,20141230170000
284,"Shibei district No. 2, Qingdao",,36.104146,120.36637,5,228,4,73,54,29,-4,-5,1018,93,1,20141230170000
285,"Huangdao District No. 1, Qingdao",,35.958935,120.191041,240,165,9,24,36,16,13,-12,1016,17,7,20141230170000
286,"Huangdao District No. 2, Qingdao",,35.970487,120.160339,299,190,7,27,36,30,9,2,1015,62,6,20141230170000
287,"Laoshan District No. 1, Qingdao",,36.085881,120.451839,175,96,13,38,62,18,13,-12,1016,17,7,20141230170000
288,"Laoshan District No. 2, Qingdao",,36.091075,120.490388,165,102,6,32,46,17,0,-8,1019,55,1,20141230170000
289,"Licang District No. 1, Qingdao",,36.184872,120.38533,254,392,7,89,40,42,3,-4,1019,60,0,20141230170000
290,"Licang District No. 2, Qingdao",,36.154369,120.432287,274,176,4,46,54,15,8,-9,1015,29,3,20141230170000
291,"Chengyang District No. 1, Qingdao",,36.308502,120.40008,200,158,16,41,52,21,11,2,1015,54,6,20141230170000
292,"Chengyang District No. 2, Qingdao",,36.308429,120.465806,278,28,17,7,42,13,13,-12,1016,17,7,20141230170000
293,Qingdao,,36.067358,120.387773,200,158,12,43,55,14,13,-12,1016,17,7,20141230170000
294,"Zichuan Meteo. Stations, Zibo",,36.637916,117.960222,68,69,32,13,13,12,11,3,0,55,4,20141230170000
295,"Dongfeng Chemical factory, Zibo",,36.838576,118.050785,289,198,16,45,70,31,6,-6,0,37,2,20141230170000
296,"Boshan shuangshan, Zibo",,36.497278,117.853581,326,275,8,61,92,34,1,-1,0,80,4,20141230170000
297,"Linzi Putian Park, Zibo",,36.820171,118.315022,183,140,18,32,54,19,0,-5,0,60,2,20141230170000
298,"Qilu Petrochemical, Zibo",,36.765907,118.254967,158,94,1,36,53,50,4,-8,0,36,4,20141230170000
299,"Zhoucun sanjin Group, Zibo",,36.8044,117.85694,170,123,7,49,65,40,3,-9,0,39,3,20141230170000
300,"Vocational College, Zibo",,36.825208,117.926305,-,-,-,-,-,-,-,-,0,-,-,20141230170000
301,"BDA, Zibo",,36.905214,118.021824,-,-,-,-,-,-,-,-,0,-,-,20141230170000
302,Zibo,,36.813618,118.060948,332,327,14,67,97,40,2,-4,0,63,4,20141230170000
303,"Shizhong District Government, Zaozhuang",,34.850397,117.569545,495,674,17,37,70,37,-3,-6,1019,72,1,20141230170000
304,"Sewage treatment plant, Zaozhuang",,34.818951,117.595345,319,350,5,29,41,51,-3,-7,1034,69,1,20141230170000
305,"Xuecheng EPA, Zaozhuang",,34.790214,117.272455,380,278,17,38,54,13,-3,-6,1019,70,1,20141230170000
306,"Yicheng District government, Zaozhuang",,34.772806,117.57647,244,180,31,41,50,11,-3,-7,1034,69,1,20141230170000
307,"Taierzhuang EPA, Zaozhuang",,34.579462,117.741067,269,199,24,63,52,18,-3,-7,1034,69,1,20141230170000
308,"Shanting EPA, Zaozhuang",,35.070373,117.457691,226,193,25,90,57,14,10,0,1016,38,2,20141230170000
309,"City EPA, Zaozhuang",,34.809466,117.320608,190,116,13,31,56,6,1,-7,1033,38,0,20141230170000
310,"High-tech zone, Zaozhuang",,34.821779,117.363495,422,374,8,28,77,23,-3,-6,1019,72,1,20141230170000
311,Zaozhuang,,34.809693,117.329634,307,196,37,41,53,18,12,-1,1016,29,1,20141230170000
312,"City EPA, Dongying",,37.432052,118.672871,342,300,8,43,64,37,5,-7,0,36,5,20141230170000
313,"Vocational College, Dongying",,37.438653,118.630567,416,423,3,48,61,44,5,-7,0,36,5,20141230170000
314,"Xianhe Oil Production Plant, Dongying",,37.442419,118.510222,85,57,16,16,21,17,4,0,0,78,7,20141230170000
315,"Gengjin village, Dongying",,37.445072,118.55839,432,343,34,43,42,21,1,-6,0,56,5,20141230170000
316,"City environmental company, Dongying",,37.466599,118.508012,410,368,8,76,102,33,1,-8,0,44,5,20141230170000
317,"Hekou  district, Dongying",,37.883786,118.522171,199,138,10,22,27,20,6,-1,0,53,2,20141230170000
318,"BDA, Dongying",,37.435162,118.701827,375,218,215,48,61,45,7,-7,0,34,6,20141230170000
319,Dongying,,37.435429,118.680434,70,46,18,10,14,16,4,1,0,79,6,20141230170000
320,"Bearing Factory, Yantai",,37.544126,121.376956,171,95,17,54,49,26,,,0,,,20141230170000
321,"Xijiao Chemical Station, Yantai",,37.547148,121.323695,124,61,32,11,8,9,,,0,,,20141230170000
322,"Fushan Monitoring Stations, Yantai",,37.472245,121.260116,122,35,15,20,11,15,,,0,,,20141230170000
323,"Mouping EPA, Yantai",,37.376681,121.586509,144,92,15,22,23,29,,,0,,,20141230170000
324,"Laishan EPA, Yantai",,37.478422,121.44829,188,151,3,21,40,18,,,0,,,20141230170000
325,"Laishan Shengquan Industrial Park, Yantai",,37.4271,121.408386,352,314,4,43,32,32,,,0,,,20141230170000
326,"China Agricultural University, Yantai",,37.423568,121.511838,181,118,5,37,38,16,,,0,,,20141230170000
327,"BDA EPA, Yantai",,37.560827,121.257954,155,59,3,24,26,25,,,0,,,20141230170000
329,"Dajijia, Yantai",,37.673849,121.071465,179,113,12,33,41,14,,,0,,,20141230170000
330,Yantai,,37.464793,121.453142,91,50,33,21,16,26,,,0,,,20141230170000
331,"BDA, Weifang",,36.720022,119.054064,233,187,7,42,60,19,,,0,,,20141230170000
332,"Business School, Weifang",,36.682442,119.105909,223,140,4,20,53,21,,,0,,,20141230170000
333,"Hanting District, Weifang",,36.773484,119.199705,168,107,17,22,32,35,,,0,,,20141230170000
334,"Gongda Company, Weifang",,36.657635,119.167266,192,134,32,32,37,28,,,0,,,20141230170000
335,"City EPA, Weifang",,36.701272,119.16838,217,166,10,35,49,24,,,0,,,20141230170000
336,"City Arbitration Committee, Weifang",,36.702422,119.145927,112,59,29,27,19,7,,,0,,,20141230170000
337,"Xinhui Group, Weifang",,36.641581,119.11679,241,173,21,54,62,14,,,0,,,20141230170000
338,"Jincheng Middle School, Weifang",,36.773611,119.115539,396,364,11,46,65,32,,,0,,,20141230170000
339,Weifang,,36.707217,119.167638,239,163,22,53,50,14,,,0,,,20141230170000
340,"City Monitoring Station, Jining",,35.408443,116.623917,187,149,7,37,65,21,-6,-8,1034,86,1,20141230170000
1090,"Shengdi Hollidays Resort, Jining",,35.424746,116.699093,188,162,3,39,73,20,-6,-8,1034,86,1,20141230170000
341,"Sewage treatment plant, Jining",,35.364286,116.609177,180,142,2,25,63,21,-6,-8,1034,86,1,20141230170000
342,"Electrochemical Factory, Jining",,35.390473,116.552956,180,153,23,37,67,26,-6,-8,1034,86,1,20141230170000
343,"Rencheng BDA, Jining",,35.390484,116.662995,220,143,6,26,42,23,8,1,1019,52,2,20141230170000
344,"Agricultural School, Jining",,35.44235,116.601682,160,382,2,33,63,28,-6,-8,1034,86,1,20141230170000
345,"BDA Huojucheng, Jining",,35.436377,116.642953,211,167,5,32,67,18,-4,-5,1018,92,0,20141230170000
346,Jining,,35.414473,116.59239,251,152,8,51,60,23,1,-1,1018,80,0,20141230170000
347,"Taishan monitoring station, Taian",,36.194362,117.159648,338,322,10,78,62,23,1,-17,0,13,12,20141230170000
348,"Shandong Electric Power School, Taian",,36.176071,117.12413,339,472,35,59,55,39,0,-16,0,16,6,20141230170000
349,"Population Education school, Taian",,36.194417,117.104131,207,141,18,24,38,3,-2,-14,0,27,7,20141230170000
350,"Houfeng company, Taian",,36.204863,117.19015,244,197,3,35,41,24,-7,-16,0,34,7,20141230170000
351,"Nongda new campus, Taian",,36.170179,117.165191,269,255,3,46,56,34,0,-16,0,16,6,20141230170000
352,"Transportation technical school, Taian",,36.202126,117.047068,277,185,2,34,51,38,0,-10,0,33,11,20141230170000
353,"ICT Technology, Taian",,36.116621,117.107458,263,163,5,26,56,16,3,-15,0,12,9,20141230170000
354,Taian,,36.200502,117.093682,260,198,10,58,57,26,3,-15,0,12,9,20141230170000
355,"City Environmental Monitoring Station, Weihai",,37.513939,122.067058,165,106,16,31,34,12,6,0,0,60,4,20141230170000
356,"Woodworking Factory, Weihai",,37.325455,122.160777,193,130,10,38,38,16,6,0,0,60,9,20141230170000
357,"Lantian Hotel, Weihai",,37.514641,122.146276,165,102,13,22,41,12,6,-1,0,57,5,20141230170000
358,"Zhang village government, Weihai",,37.485561,122.049436,177,75,12,38,33,17,6,0,0,61,4,20141230170000
359,"Gao District Bank, Weihai",,37.534919,122.056294,50,26,27,6,14,3,3,-4,0,53,2,20141230170000
360,"Huxia technical school, Weihai",,37.427951,122.130811,182,116,33,21,13,9,6,0,0,61,5,20141230170000
361,Weihai,,37.5141,122.125477,50,51,31,18,7,13,4,0,0,73,7,20141230170000
560,Wanli University,,29.821314,121.574364,132,59,35,17,9,7,18,-3,1019,24,1,20141230170000
362,"City governement square, Rizhao",,35.4075,119.526008,237,155,13,53,30,15,6,1,1019,58,0,20141230170000
363,"Port Authority, Rizhao",,35.381297,119.55396,197,117,23,33,12,0,2,-2,1025,69,2,20141230170000
364,"City Monitoring Station, Rizhao",,35.388683,119.496405,325,380,4,55,63,44,8,2,1019,56,1,20141230170000
365,"Professor Garden, Rizhao",,35.462161,119.574193,-,-,-,-,-,-,-,-,0,-,-,20141230170000
366,"Vocational and Technical College, Rizhao",,35.441939,119.538187,272,170,4,27,57,19,2,-6,1019,43,2,20141230170000
367,"Lanshan EPA branch, Rizhao",,35.293405,119.345716,238,175,14,42,48,19,7,-5,1017,29,1,20141230170000
368,"Jinma Industrial Park, Rizhao",,35.373339,119.514108,319,463,4,63,68,27,8,2,1019,56,1,20141230170000
369,Rizhao,,35.416089,119.532316,280,174,20,50,48,19,6,2,1017,68,1,20141230170000
370,"Vegetable oil factory, Laiwu",,36.205028,117.700917,250,147,20,45,74,0,2,-3,1023,58,0,20141230170000
371,"Nursing home, Laiwu",,36.266067,117.652769,221,153,12,31,58,29,13,-5,1016,16,4,20141230170000
372,"Xinyi middle school, Laiwu",,36.245086,117.739025,199,104,1,37,60,18,-2,-9,1031,45,0,20141230170000
373,"Risheng International School, Laiwu",,36.208125,117.730959,-,-,-,-,-,-,-,-,0,-,-,20141230170000
374,"Gangcheng EPA, Laiwu",,36.066836,117.871823,291,171,6,57,69,19,5,-4,1018,40,1,20141230170000
375,"City EPA, Laiwu",,36.228913,117.694797,192,127,2,38,64,27,-6,-10,1035,63,1,20141230170000
376,Laiwu,,36.213688,117.682612,364,184,25,45,55,34,-,-,0,-,-,20141230170000
377,"Lunan Pharmaceutical Factory, Linyi",,35.061671,118.299527,299,429,19,67,68,43,1,-8,0,47,2,20141230170000
378,"Yihe compound, Linyi",,35.056752,118.34739,499,811,27,101,71,50,10,1,0,50,4,20141230170000
379,"Linyi University, Linyi",,35.114777,118.293414,526,776,8,69,52,66,2,-5,0,54,2,20141230170000
380,City EPA,Nanfang,35.104871,118.353518,176,124,3,36,50,27,4,-7,0,41,1,20141230170000
381,"Xinguang woolen factory, Linyi",,34.981004,118.282,245,212,29,53,57,25,4,-7,0,41,1,20141230170000
382,"Hongfu Baijiu Factory, Linyi",,34.998788,118.257275,227,206,11,36,54,60,8,2,0,64,4,20141230170000
384,"Hedong insurance company, Linyi",,35.089354,118.40812,668,935,18,101,53,45,9,0,0,47,3,20141230170000
385,"Jianghua vehicule center, Linyi",,35.010082,118.435749,163,89,7,26,40,26,3,-4,0,53,2,20141230170000
386,Linyi,,35.10428,118.362202,256,182,24,45,55,50,6,2,0,70,4,20141230170000
387,"Heima group, Dezhou",,37.466063,116.314134,213,145,48,49,54,25,-4,-10,1033,50,0,20141230170000
388,"Monitoring station, Dezhou",,37.433107,116.377312,277,219,9,40,64,24,9,-6,1015,21,1,20141230170000
389,"Supervision Station, Dezhou",,37.449689,116.324709,179,125,49,44,33,16,4,-12,1032,17,1,20141230170000
390,"Huayu technical school, Dezhou",,37.462809,116.357559,242,142,6,46,51,17,1,-6,1016,47,1,20141230170000
391,"Shuangyi group, Dezhou",,37.478848,116.316362,253,148,2,37,60,20,-4,-10,1033,50,0,20141230170000
392,Dezhou,,37.434959,116.363366,354,403,19,72,62,23,7,-7,1016,24,1,20141230170000
393,"Dongchang District Government, Liaocheng",,36.444473,115.971733,224,137,21,41,58,40,-3,-10,1033,46,2,20141230170000
394,"Light Machinery Factory No. 2, Liaocheng",,36.456788,116.002383,230,149,28,45,50,16,2,-6,1016,40,2,20141230170000
395,"City committee communist party school, Liaocheng",,36.479537,115.989288,203,133,8,40,51,30,-2,-6,1032,60,2,20141230170000
396,"Customs, Liaocheng",,36.431933,115.956974,249,175,5,44,45,14,2,-6,1016,40,2,20141230170000
397,"Hongshun Garden, Liaocheng",,36.471124,115.960319,192,144,7,31,51,23,14,-7,1016,12,1,20141230170000
398,"BDA, Liaocheng",,36.459407,116.043621,270,657,7,38,36,26,7,-5,1016,30,1,20141230170000
399,Liaocheng,,36.456792,115.991051,178,120,24,38,54,15,14,-7,1016,12,1,20141230170000
400,"City EPA, Binzhou",,37.38024,118.026895,347,265,34,98,113,5,-4,-8,1034,70,2,20141230170000
401,"Beizhong new school, Binzhou",,37.38374,117.988996,229,134,26,43,67,41,8,-8,1016,20,5,20141230170000
402,"No.2 water factory, Binzhou",,37.36155,118.002648,373,377,12,102,100,24,-4,-8,1034,70,2,20141230170000
403,"Keling Chemical factory, Binzhou",,37.396138,117.943609,170,83,24,58,54,35,5,-5,1028,34,2,20141230170000
404,"Yinhe logistics company, Binzhou",,37.356122,117.943326,201,112,13,25,35,21,5,-5,1028,34,2,20141230170000
405,"Bilin compond, Binzhou",,37.36815,117.978964,179,115,12,42,48,22,-2,-10,1034,37,1,20141230170000
406,Binzhou,,37.382639,117.976606,220,158,28,46,51,25,6,-6,1016,28,3,20141230170000
407,"Bureau of Meteorology, Heze",,35.248625,115.428775,224,186,30,35,59,30,4,-10,0,32,3,20141230170000
408,"Sewage treatment plant, Heze",,35.222517,115.531511,153,94,16,24,36,21,10,-9,0,24,2,20141230170000
409,"Municipal CPPCC, Heze",,35.237125,115.480591,205,142,22,32,47,21,1,-13,0,32,4,20141230170000
410,"Huarun Pharmaceutical Company, Heze",,35.261463,115.524873,-,-,-,-,-,-,-,-,0,-,-,20141230170000
411,"Heze University, Heze",,35.269706,115.460934,149,81,33,18,32,20,8,-8,0,28,1,20141230170000
412,Heze,,35.233354,115.486503,190,137,90,33,47,25,4,-7,0,41,2,20141230170000
413,"Shiji Park, Shijiazhuang",,38.03155,114.547873,163,87,19,49,41,30,1,-14,1020,32,2,20141230170000
414,"Xinan College, Shijiazhuang",,38.012764,114.473163,97,93,20,36,36,12,1,-14,1020,32,2,20141230170000
415,"Chemical College, Shijiazhuang",,38.055503,114.569816,165,107,22,46,62,19,1,-14,1020,32,2,20141230170000
416,"Worker hospital, Shijiazhuang",,38.051784,114.461209,171,96,54,35,27,12,1,-14,1020,32,2,20141230170000
417,"Northwest Water Company, Shijiazhuang",,38.140638,114.508038,266,173,28,47,56,18,1,-14,1020,32,2,20141230170000
418,"High-tech zone, Shijiazhuang",,38.040482,114.610775,188,117,8,28,29,25,9,-14,1017,19,3,20141230170000
419,"Fenglong Montain, Shijiazhuang",,37.910829,114.360264,156,95,35,31,42,11,1,-14,1020,32,2,20141230170000
1130,"Zhengding Unicom, Shijiazhuang",,38.159458,114.59879,194,149,2,43,53,25,-1,-10,1015,51,3,20141230170000
1131,"Luancheng Communications, Shijiazhuang",,37.906534,114.638785,189,127,17,58,58,21,1,-14,1020,32,2,20141230170000
1132,"Gaocheng Experimental School, Shijiazhuang",,38.039518,114.867812,154,120,3,46,65,32,-1,-10,1015,51,3,20141230170000
1133,"Wuji EPA, Shijiazhuang",,38.17862,114.997012,285,193,6,43,63,32,-1,-10,1015,51,3,20141230170000
1134,"Shenze Power Supply Bureau, Shijiazhuang",,38.197674,115.219126,354,368,8,46,76,46,-1,-10,1015,51,3,20141230170000
1135,"Zhaoxian EPA, Shijiazhuang",,37.77171,114.775957,258,189,5,44,74,25,-1,-10,1015,51,3,20141230170000
1136,"Gaoyi County City Hall, Shijiazhuang",,37.623535,114.612729,215,123,4,39,67,36,-1,-10,1015,51,3,20141230170000
1137,"Zanhuang County City Hall, Shijiazhuang",,37.672898,114.398269,137,60,15,12,51,13,-1,-10,1015,51,3,20141230170000
1138,"Jingxing Bureau of Meteorology, Shijiazhuang",,38.038788,114.158406,198,132,14,34,62,18,1,-14,1020,32,2,20141230170000
1139,"Pingshan Ye River, Shijiazhuang",,38.266657,114.210275,152,71,15,16,27,13,5,-15,1017,23,1,20141230170000
420,Shijiazhuang,,38.042926,114.520834,308,192,12,38,56,11,5,-10,1020,33,3,20141230170000
421,"No. 12 middle school, Tangshan",,39.659306,118.190271,,,,,,,-,-,0,-,-,20141230170000
422,"Ceramics Company, Tangshan",,39.669255,118.225185,142,69,27,29,27,27,2,-3,1018,70,4,20141230170000
423,"Commodities Bureau, Tangshan",,39.642301,118.191265,104,67,14,20,13,28,2,-3,1018,70,4,20141230170000
424,"Leidazhanzi Station, Tangshan",,39.644375,118.150383,132,81,27,30,54,38,7,-4,1018,46,6,20141230170000
425,"Supply and marketing cooperatives, Tangshan",,39.632334,118.17232,134,82,22,37,40,16,1,-3,1020,75,2,20141230170000
1140,"Guye District City Hall, Tangshan",,39.741379,118.460246,163,110,2,39,49,25,-3,-9,1017,64,1,20141230170000
1141,"Kaiping Stations, Tangshan",,39.675246,118.275149,107,61,18,26,17,11,2,-3,1018,70,4,20141230170000
1142,"Fengnan District City Hall, Tangshan",,39.5834,118.097454,215,175,3,19,75,46,-2,-9,1018,59,2,20141230170000
1143,"Fengrun City Hall, Tangshan",,39.840355,118.175338,174,119,5,29,35,32,-2,-8,1017,64,1,20141230170000
1144,"Qianxi EPA, Tangshan",,40.153339,118.317265,65,40,22,9,11,12,-2,-8,1016,64,1,20141230170000
1145,"Caofeidian Xinli  Primary School, Tangshan",,39.291232,118.462182,282,256,4,78,59,32,-4,-8,1016,74,0,20141230170000
1146,"Zunhua EPA, Tangshan",,40.206249,117.997315,104,45,13,10,9,15,6,-4,1019,49,6,20141230170000
1147,"Qianan No.1 middle school, Tangshan",,40.004248,118.717055,151,64,21,17,17,7,3,-5,1024,56,4,20141230170000
1266,"Luannan County , Tangshan",,39.511132,118.686928,114,48,11,11,20,19,6,-4,1019,49,6,20141230170000
1267,"Yutian County , Tangshan",,39.908249,117.751417,21,50,10,11,12,22,6,-4,1019,49,6,20141230170000
426,Tangshan,,39.632175,118.186472,151,65,27,35,43,13,-,-,0,-,-,20141230170000
427,"City Monitoring Station, Qinhuangdao",,39.958109,119.607773,186,173,12,36,46,54,,,0,,,20141230170000
428,"Beidaihe, Qinhuangdao",,39.829209,119.53194,127,73,8,28,53,17,,,0,,,20141230170000
429,"Shanhai Pass, Qinhuangdao",,40.019298,119.767898,82,60,51,1,33,6,,,0,,,20141230170000
430,"Contruction Plazz, Qinhuangdao",,39.943187,119.542912,159,158,2,36,37,38,,,0,,,20141230170000
431,"City government, Qinhuangdao",,39.93711,119.612769,85,42,19,17,20,5,,,0,,,20141230170000
1148,"Qinglong EPA, Qinhuangdao",,40.419223,118.958002,117,45,10,1,30,11,,,0,,,20141230170000
1149,"Changli EPA, Qinhuangdao",,39.714369,119.173237,97,52,6,11,24,5,,,0,,,20141230170000
1268,"Lulong County Bureau of Meteorology , Qinhuangdao",,39.901091,118.904857,202,134,5,32,53,32,,,0,,,20141230170000
432,Qinhuangdao,,39.936485,119.606263,235,193,12,32,42,42,,,0,,,20141230170000
433,"CongTai Park, Handan",,36.620197,114.501891,206,142,25,20,74,38,,,0,,,20141230170000
434,"City EPA, Handan",,36.618145,114.518822,192,139,29,54,58,21,,,0,,,20141230170000
435,"East Sewage Factory, Handan",,36.616064,114.548714,256,175,20,21,71,41,,,0,,,20141230170000
436,"Mine Hospital, Handan",,36.578149,114.509854,174,343,21,38,67,84,,,0,,,20141230170000
1150,"Fengfeng mine Inland Revenue Department, Handan",,36.423085,114.245994,211,170,3,33,90,58,,,0,,,20141230170000
1151,"Shexian EPA, Handan",,36.589084,113.692341,122,56,8,15,46,28,,,0,,,20141230170000
1152,"Ci County Vocational Education Center, Handan",,36.380247,114.390119,194,133,2,38,101,12,,,0,,,20141230170000
1153,"Yongnian government guesthouse, Handan",,36.783297,114.502905,255,186,2,46,82,53,,,0,,,20141230170000
1154,"Wuan BDA, Handan",,36.686223,114.269009,198,166,3,34,71,47,,,0,,,20141230170000
1085,Handan,,36.625683,114.544812,199,142,18,22,68,26,,,0,,,20141230170000
437,"Road and Bridge Corporation, Xingtai",,37.096415,114.538799,213,118,21,38,75,38,1,-9,1018,34,1,20141230170000
438,"Dahuo fontain, Xingtai",,37.097563,114.488001,167,125,29,25,47,26,1,-9,1018,34,1,20141230170000
439,"Xingtai Normal College, Xingtai",,37.053404,114.531819,252,190,15,41,81,48,1,-9,1018,34,1,20141230170000
440,"Environment protection office, Xingtai",,37.06253,114.490985,192,164,23,30,52,20,6,-12,1021,13,2,20141230170000
1155,"Cultural centers within the mound, Xingtai",,37.293569,114.524873,170,83,6,16,39,27,4,-10,1016,22,1,20141230170000
801,Hefei,,31.819449,117.232753,178,63,4,16,8,8,2,1,1018,93,4,20141230170000
383,Xingtai,,37.071066,114.510749,291,245,29,33,62,22,10,-10,1016,12,2,20141230170000
441,"City Monitoring Station, Baoding",,38.871737,115.527103,154,83,27,28,45,27,7,-14,1020,11,4,20141230170000
442,"Surface water Company, Baoding",,38.842891,115.467326,268,196,13,42,86,38,1,-10,1017,30,3,20141230170000
443,"Huadian II, Baoding",,38.896748,115.528102,153,56,26,16,2,20,7,-14,1020,11,4,20141230170000
444,"Reception Center, Baoding",,38.911905,115.477301,222,162,15,46,45,39,4,-10,1022,23,3,20141230170000
445,"Film Factory, Baoding",,38.876949,115.448383,107,70,23,17,29,30,7,-14,1020,11,4,20141230170000
446,"Natatorium, Baoding",,38.863815,115.499212,142,91,19,29,34,26,7,-14,1020,11,4,20141230170000
1156,"Qingyuan City Hall, Baoding",,38.771758,115.502189,522,567,3,44,67,55,1,-12,1015,25,1,20141230170000
1157,"Xushui EPA, Baoding",,39.025781,115.668023,189,109,6,40,61,28,6,-13,1018,13,2,20141230170000
1158,"Zhuozhou Monitoring Stations, Baoding",,39.493241,116.040187,78,37,11,2,38,9,4,-10,1022,23,3,20141230170000
1159,"Gaobeidian EPA, Baoding",,39.3329,115.885891,172,108,9,37,55,27,9,-14,1017,8,2,20141230170000
447,Baoding,,38.874791,115.471124,188,146,19,27,38,32,4,-10,1022,23,3,20141230170000
448,"Century Compound, Zhangjiakou",,40.770279,114.909106,95,57,31,23,49,6,-4,-16,1019,26,4,20141230170000
449,"North Pumping Station, Zhangjiakou",,40.874362,114.910119,21,46,34,1,9,11,1,-13,1020,22,6,20141230170000
450,"Hardware Warehouse, Zhangjiakou",,40.81232,114.887119,50,65,32,7,26,20,1,-13,1020,22,6,20141230170000
451,"Tanji Chang, Zhangjiakou",,40.796301,114.89811,95,61,33,10,17,5,1,-13,1020,22,6,20141230170000
1160,"Xiahuayuan EPA, Zhangjiakou",,40.509345,115.302442,109,68,13,12,51,9,1,-13,1020,22,6,20141230170000
1161,"Huaian EPA, Zhangjiakou",,40.68157,114.398646,87,131,25,2,7,9,-7,-21,1031,17,5,20141230170000
1162,"Huailai Fuqian Primary School, Zhangjiakou",,40.422204,115.530285,122,52,7,26,60,8,-4,-16,1019,26,4,20141230170000
1269,"Zhangbei EPA , Zhangjiakou",,41.166775,114.732369,82,53,10,4,7,7,1,-13,1020,22,6,20141230170000
1270,"Kangbao County Environmental Protection Agency , Zhangjiakou",,41.837866,114.591246,65,46,14,2,5,6,1,-13,1020,22,6,20141230170000
1271,"Guyuan County welfare , Zhangjiakou",,41.669984,115.687401,80,34,17,6,8,7,-4,-16,1019,26,4,20141230170000
1272,"Shangyi County Environmental Protection Bureau , Zhangjiakou",,41.086638,113.984688,72,81,14,4,10,9,1,-13,1020,22,6,20141230170000
1273,"Yuxian Secondary School , Zhangjiakou",,39.84699,114.601986,87,90,24,7,2,5,-8,-18,1033,31,4,20141230170000
1274,"Yang County Vocational Education Center , Zhangjiakou",,40.106343,114.134732,129,69,30,2,5,2,-8,-18,1033,31,4,20141230170000
1275,"Wan county Environmental Protection Agency , Zhangjiakou",,40.770459,114.75033,61,28,23,2,5,3,-4,-16,1019,26,4,20141230170000
1276,"Zhuolu County Environmental Protection Agency , Zhangjiakou",,40.374273,115.221393,112,41,21,14,7,9,-4,-16,1019,26,4,20141230170000
452,Zhangjiakou,,40.825744,114.893659,70,57,34,2,20,2,-3,-14,1025,29,9,20141230170000
453,"Railway, Chengde",,40.917557,117.972331,109,63,30,8,9,9,-1,-13,1022,25,1,20141230170000
454,"Cultural Center, Chengde",,40.974625,117.824437,157,89,35,33,20,7,-1,-11,1023,30,3,20141230170000
455,"Bank of China, Chengde",,40.985582,117.958304,104,86,29,37,37,5,-1,-11,1023,30,3,20141230170000
456,"BDA, Chengde",,40.937567,117.969325,63,36,31,19,10,12,0,-15,1018,18,5,20141230170000
457,"Ligong, Chengde",,41.012579,117.94428,114,40,32,20,11,3,-1,-11,1023,30,3,20141230170000
1163,"Chengde County EPA, Chengde",,40.776643,118.17646,87,51,12,14,16,6,-4,-14,1019,29,0,20141230170000
1164,"Xinglong County City Hall, Chengde",,40.424301,117.513488,65,37,13,13,13,16,1,-15,1019,17,2,20141230170000
1165,"Luanping EPA, Chengde",,40.950792,117.350715,467,999,29,1,4,3,-3,-14,1025,26,4,20141230170000
1166,"Fengning County City Hall, Chengde",,41.216739,116.658037,46,19,14,1,21,19,1,-15,1019,17,2,20141230170000
1277,"Longhua EPA , Chengde",,41.311956,117.739605,124,44,22,15,38,5,-1,-11,1023,30,3,20141230170000
458,Chengde,,40.955652,117.968737,34,26,33,6,6,15,-3,-14,1025,26,4,20141230180000
459,"Municipal EPB, Cangzhou",,38.323507,116.876746,165,82,15,29,28,12,0,-3,1021,80,2,20141230180000
460,"Cangxian Urban Construction Bureau, Cangzhou",,38.299495,116.890734,163,74,14,26,38,18,0,-3,1022,80,3,20141230180000
461,"TV Broadcast Station, Cangzhou",,38.325525,116.863761,153,74,17,23,27,19,0,-3,1021,80,2,20141230180000
1167,"Qing County City Hall, Cangzhou",,38.589643,116.815876,153,59,10,19,32,13,0,-3,1021,80,2,20141230180000
1168,"Poyoushi City Hall, Cangzhou",,38.089516,116.590575,181,70,6,22,51,18,0,-3,1021,80,2,20141230180000
1169,"Huanghua Finance Bureau Training Center, Cangzhou",,38.377793,117.343356,264,176,6,30,51,31,-4,-7,1016,80,1,20141230180000
462,Cangzhou,,38.305035,116.844625,153,71,16,24,19,17,0,-3,1022,80,3,20141230180000
463,"Environmental Monitoring Supervision Center, Langfang",,39.558157,116.720995,161,88,14,27,11,11,0,-3,1021,80,1,20141230180000
464,"TCM Medical Material Company, Langfang",,39.519096,116.689914,227,134,11,25,27,17,-4,-8,1016,74,0,20141230180000
465,"BDA, Langfang",,39.576175,116.779041,151,59,6,24,14,13,-2,-9,1018,59,2,20141230180000
466,"North China Institute of Aerospace, Langfang",,39.53517,116.743027,107,58,4,9,9,15,6,-4,1019,49,6,20141230180000
1170,"Guan Party School, Langfang",,39.446185,116.311026,172,96,4,45,23,48,-3,-8,1016,69,1,20141230180000
1171,"Xianghe EPA, Langfang",,39.76725,117.015252,158,81,3,38,32,31,-2,-9,1018,59,2,20141230180000
1172,"Wenan County EPA, Langfang",,38.880927,116.47001,281,183,12,48,67,34,-2,-9,1018,59,2,20141230180000
1173,"Three Rivers Department of Transportation, Langfang",,39.989419,117.091528,80,28,13,17,22,12,-3,-8,1016,69,1,20141230180000
1278,"Yongqing EPA , Langfang",,39.329071,116.510917,152,86,16,28,38,20,1,-3,1019,75,3,20141230180000
1279,"Dacheng EPA, Langfang",,38.712628,116.665751,161,77,15,31,46,15,1,-3,1021,75,1,20141230180000
467,Langfang,,39.539148,116.689668,55,171,13,1,6,7,3,-11,1024,36,10,20141230180000
468,"Hengshui City EPB, Hengshui",,37.739679,115.695929,229,170,14,40,7,21,1,-11,0,37,1,20141230180000
469,"Environmental Monitoring Station, Hengshui",,37.738593,115.648837,187,118,15,29,15,26,2,-9,0,41,5,20141230180000
470,"Electrical Machine North Factory, Hengshui",,37.758686,115.70094,191,163,16,34,34,26,2,-9,0,41,5,20141230180000
1174,"Anping EPA, Hengshui",,38.238559,115.537988,232,154,6,35,47,19,1,-11,0,37,1,20141230180000
1175,"Jizhou EPA, Hengshui",,37.548552,115.58679,297,163,8,45,46,33,2,-9,0,41,5,20141230180000
1280,"Zaoqiang EPA, Hengshui",,37.520698,115.714936,253,174,41,33,51,23,1,-11,0,37,1,20141230180000
1281,"Wuyi EPA, Hengshui",,37.801554,115.898697,246,178,8,34,3,14,1,-11,0,37,1,20141230180000
1282,"Wuqiang EPA , Hengshui",,38.03557,115.959767,338,296,1,39,2,31,8,-11,0,23,4,20141230180000
1283,"Raoyang EPA , Hengshui",,38.230652,115.741041,284,199,3,43,16,40,8,-11,0,23,4,20141230180000
1284,"Gucheng County , Hengshui",,37.347569,115.966707,327,194,20,32,49,24,6,-10,0,27,3,20141230180000
471,Hengshui,,37.739562,115.676066,314,337,18,50,54,33,3,-9,0,38,3,20141230180000
1176,"Xinji City Hall, Xinji",,37.949711,115.230084,245,161,4,43,70,27,1,-11,0,37,1,20141230180000
472,"Fukang road, Tianjin",,39.098136,117.157621,127,82,15,22,21,27,7,-3,1017,49,5,20141230180000
473,"Nankou road, Tianjin",,39.174022,117.199688,124,66,20,26,25,27,2,-3,1018,70,4,20141230180000
474,"Qinjian street, Tianjin",,39.166588,117.15104,334,190,23,79,53,20,1,-8,1015,52,3,20141230180000
475,"Nanjing Road, Tianjin",,39.120958,117.195112,119,66,44,30,29,15,0,-3,1021,80,1,20141230180000
476,"Dazhigu No.8 road, Tianjin",,39.111811,117.25147,102,65,14,36,29,13,0,-3,1021,80,1,20141230180000
477,"Qianjin street, Tianjin",,39.09371,117.207981,102,57,13,35,27,11,1,-3,1019,75,3,20141230180000
478,"Huaihe street, Tianjin",,39.227167,117.191293,99,40,18,19,16,22,1,-3,1019,75,3,20141230180000
479,"Xiangshan street, Tianjin",,39.134752,117.275125,119,61,17,21,17,15,0,-3,1022,80,3,20141230180000
480,"Yuejin Road, Tianjin",,39.088177,117.320884,93,62,12,39,30,9,1,-3,1021,75,1,20141230180000
482,"No.4 street, Tianjin",,39.035228,117.713424,170,92,10,24,19,39,7,-4,1018,46,6,20141230180000
483,"Yongming road, Tianjin",,38.840392,117.463805,291,339,25,65,52,32,0,-9,1016,51,0,20141230180000
484,"Xinhua street, Tianjin",,39.138671,117.010083,183,89,-,40,51,39,6,-4,1019,49,6,20141230180000
485,"Jingu Road, Tianjin",,38.985659,117.381254,129,54,9,31,13,12,0,-3,1021,80,1,20141230180000
486,"Tanggu Yingkou street, Tianjin",,39.021768,117.656454,317,190,6,91,55,45,2,-9,1014,44,1,20141230180000
487,"Hexi Yijing road, Tianjin",,39.248392,117.798043,129,50,10,19,33,29,6,-3,1017,53,5,20141230180000
488,"Jianshe Road, Tianjin",,39.720075,117.310588,278,177,7,64,51,39,1,-8,1015,52,3,20141230180000
489,"Quanzhou South road, Tianjin",,39.373857,117.050329,122,73,14,31,15,12,0,-3,1021,80,1,20141230180000
490,"Donghuan road, Tianjin",,40.043144,117.451062,160,134,8,20,37,23,1,-8,1015,52,3,20141230180000
491,"Tuanpowa, Tianjin",,38.920418,117.16299,158,61,21,13,34,31,6,-3,1017,53,5,20141230180000
493,"Beiwei No.2 road, Tianjin",,38.943857,116.920624,277,222,14,73,58,48,2,-9,1014,44,1,20141230180000
494,"Haitai fazhan No.2 road, Tianjin",,39.079608,117.096583,162,67,9,33,24,18,1,-3,1020,75,2,20141230180000
495,"Hangtian road, Tianjin",,39.152244,117.381309,104,50,17,25,16,19,4,-2,1018,65,4,20141230180000
496,"Hanbei road, Tianjin",,39.159768,117.770477,299,175,18,50,33,55,-2,-9,1018,59,2,20141230180000
497,"Baobai highway, Tianjin",,39.51757,117.349635,151,70,14,17,15,22,1,-3,1020,75,2,20141230180000
498,Tianjin,,39.085164,117.207281,127,61,14,26,31,14,4,-2,1018,65,4,20141230180000
499,"Wolong bridge, Hangzhou",,30.24371,120.132762,112,58,37,19,5,6,6,0,1020,66,1,20141230180000
500,"Hemu primary school, Hangzhou",,30.309669,120.124507,184,116,30,43,6,15,5,1,1022,76,2,20141230180000
501,"Zhejiang Agricultural University, Hangzhou",,30.265601,120.197583,175,133,36,54,13,5,9,1,1019,58,1,20141230180000
502,"Xiasha, Hangzhou",,30.303516,120.352618,134,69,34,18,9,7,18,-4,1018,22,1,20141230180000
503,"Yunqi, Hangzhou",,30.178555,120.093142,119,50,36,17,2,5,4,0,1020,75,2,20141230180000
504,"Xixi, Hangzhou",,30.272425,120.068144,158,77,36,32,4,9,9,1,1019,58,1,20141230180000
505,"Chengxiang town, Hangzhou",,30.179493,120.274184,162,85,25,39,11,10,6,0,1020,66,1,20141230180000
506,"Qiandao lake, Hangzhou",,29.638139,119.031092,132,51,47,4,4,5,14,-1,1021,36,3,20141230180000
507,"Linping town, Hangzhou",,30.415948,120.305059,166,100,33,38,15,10,8,2,1022,66,3,20141230180000
508,"Fuyang monitoring station, Hangzhou",,30.048419,119.963469,158,73,42,24,14,10,6,0,1020,66,2,20141230180000
509,"No.2 Middle School, Hangzhou",,30.044303,119.956356,112,68,25,20,13,7,11,2,1029,54,2,20141230180000
510,"City Hall, Hangzhou",,30.234185,119.723503,164,92,88,38,14,8,7,0,1022,61,0,20141230180000
511,"No. 4 middle school, Hangzhou",,30.229428,119.699591,161,96,1,42,6,10,7,0,1029,61,2,20141230180000
512,Hangzhou,,30.271756,120.159765,122,64,32,23,11,10,18,-4,1018,22,0,20141230180000
513,"City Station, Wenzhou",,28.009715,120.679129,147,62,36,26,9,12,5,0,0,67,1,20141230180000
514,"Ouhai, Wenzhou",,28.001846,120.641982,160,82,10,23,20,7,11,2,0,52,2,20141230180000
515,"Longwan, Wenzhou",,27.968122,120.768393,170,97,38,48,12,23,5,0,0,67,1,20141230180000
516,"Nanpu, Wenzhou",,27.981763,120.683685,104,51,19,12,9,15,12,0,0,42,1,20141230180000
517,Wenzhou,,27.990985,120.703425,158,84,38,38,24,14,10,2,0,54,2,20141230180000
518,"Monitoring station, Jiaxing",,30.75437,120.767373,165,98,41,59,15,7,10,2,1019,58,1,20141230180000
519,"Jiaxing University, Jiaxing",,30.745099,120.735004,170,94,41,46,13,7,10,2,1019,58,1,20141230180000
520,"Qinghe Primary School, Jiaxing",,30.775685,120.747969,165,93,40,74,15,11,10,2,1019,58,1,20141230180000
521,Jiaxing,,30.751627,120.762862,158,76,40,26,20,10,15,1,1020,39,3,20141230180000
522,"Chengbei water plant, Huzhou",,30.891155,120.096593,166,84,34,58,12,13,6,1,1019,70,1,20141230180000
523,"Jishan new village, Huzhou",,30.859939,120.120168,157,74,45,45,10,13,6,1,1019,70,1,20141230180000
524,"Town west water plant, Huzhou",,30.862371,120.084577,155,105,33,54,5,13,9,2,1019,62,2,20141230180000
525,Huzhou,,30.892304,120.091694,162,63,45,28,17,12,16,1,1019,36,4,20141230180000
526,"Donghu middle school, Shaoxing",,29.990447,120.647547,151,64,25,17,10,6,5,0,1020,70,1,20141230180000
527,"City EPA station, Shaoxing",,30.001695,120.584318,144,80,30,15,14,7,14,-1,1019,36,4,20141230180000
528,"Chengdong BDA committee, Shaoxing",,29.986643,120.613578,156,68,34,23,8,7,4,0,1020,75,2,20141230180000
529,"Paojiang station, Shaoxing",,30.07574,120.62154,161,75,30,14,30,13,13,-1,1019,38,5,20141230180000
530,"Shaoxing technical school, Shaoxing",,29.930983,120.577131,155,65,23,12,19,6,13,-1,1019,38,5,20141230180000
531,"Library, Shaoxing",,29.706266,120.253183,162,83,18,22,36,15,15,-2,1018,31,3,20141230180000
532,"Transporation management station, Shaoxing",,29.726405,120.221602,167,80,40,20,10,29,4,0,1020,75,2,20141230180000
533,"Dongpu Town Governement, Shaoxing",,30.049601,120.539893,151,62,29,28,16,7,18,-4,1018,22,0,20141230180000
534,Shaoxing,,29.993122,120.590182,165,93,37,29,51,8,-,-,0,-,-,20141230180000
535,"City Monitoring Station, Jinhua",,29.100031,119.690373,139,57,46,17,12,7,5,-1,0,63,1,20141230180000
536,"No.15 middle school, Jinhua",,29.074022,119.652121,162,120,42,35,43,13,16,-1,0,27,1,20141230180000
537,"No.4 middle school, Jinhua",,29.110109,119.653654,151,74,39,33,19,12,3,0,0,79,1,20141230180000
538,"Beiyuan, Jinhua",,29.332898,120.083351,117,60,17,18,18,5,8,0,0,57,2,20141230180000
539,"Jiangdong, Jinhua",,29.302486,120.095291,109,55,27,14,10,13,8,0,0,57,2,20141230180000
540,Jinhua,,29.076083,119.65215,152,83,42,25,27,13,14,-1,0,33,0,20141230180000
541,"EPA building, Quzhou",,28.937291,118.876081,153,78,37,20,22,10,3,2,1022,91,2,20141230180000
542,"Experimental school, Quzhou",,28.961502,118.880916,158,79,44,30,34,11,3,2,1022,91,2,20141230180000
543,"Quzhou University, Quzhou",,28.971452,118.860052,161,75,39,32,26,12,3,2,1022,91,2,20141230180000
544,Quzhou,,28.966994,118.864252,155,76,42,21,24,15,10,1,1024,41,1,20141230180000
545,"Putuo east port, Zhoushan",,29.951412,122.317679,155,72,54,17,12,16,1,0,1020,93,0,20141230180000
546,"Dinghai tanfeng, Zhoushan",,30.018014,122.126566,157,80,48,14,2,9,1,0,1020,93,0,20141230180000
547,Zhoushan,,29.983049,122.210763,147,68,47,33,12,11,18,-3,1019,24,2,20141230180000
548,"Taizhou EPA building, Taizhou",,28.651216,121.42331,157,73,44,21,11,10,3,0,0,79,1,20141230180000
549,"Luqiao Tian Yang Wang, Taizhou",,28.574364,121.381194,178,109,41,22,3,17,3,0,0,79,1,20141230180000
550,"Huangyan EPA building, Taizhou",,28.656151,121.285064,151,57,48,22,6,8,8,0,0,58,1,20141230180000
551,"Yu Zhuang Qian, Lishui",,28.419638,119.883884,129,55,45,29,8,6,15,1,1020,27,0,20141230180000
552,"Monitoring station building, Lishui",,28.444379,119.923103,132,56,38,18,6,7,3,1,1023,78,1,20141230180000
553,"Liandu primary school, Lishui",,28.450912,119.939332,129,59,40,34,18,8,15,1,1020,26,1,20141230180000
554,Lishui,,28.464224,119.927201,165,97,35,53,40,13,15,1,1020,27,0,20141230180000
1248,Jingningxian,,27.977454,119.634837,155,68,16,16,4,8,,,,,,20141230180000
555,Taigu Primary School,,29.864178,121.60022,186,128,4,44,11,18,2,-1,1020,81,1,20141230180000
556,Qianhu shuihan,,29.862459,121.5328,160,84,17,65,10,7,10,1,1020,54,2,20141230180000
557,Sanjiang secondary schools,,29.891563,121.568427,185,127,3,47,15,18,1,0,1020,93,0,20141230180000
558,Longsai Hospital,,29.957301,121.726734,172,82,3,44,18,20,0,-1,1021,93,0,20141230180000
559,Beilun District EPB,,29.911633,121.850773,152,67,38,40,12,11,10,1,1020,54,2,20141230180000
561,Qianhu water plant,,29.774416,121.648136,180,89,10,22,13,11,10,3,1022,62,1,20141230180000
562,Municipal management station,,29.899182,121.626691,211,157,2,50,10,19,1,0,1020,93,0,20141230180000
1177,Daxie Literary Museum,,29.9027,121.986447,154,62,30,18,7,8,10,1,1020,54,2,20141230180000
1178,Cixi EPB,,30.165807,121.248991,172,78,15,16,17,12,12,0,1021,44,2,20141230180000
1179,Cixi Experimently Primary School,,30.179808,121.268672,164,82,17,17,21,8,12,2,1022,51,4,20141230180000
1180,"Yongsan Park, Yuyao",,30.050842,121.162477,169,76,17,10,15,11,12,0,1021,44,2,20141230180000
1181,"Qilupu Water Company, Yuyao",,30.039112,121.133416,155,75,23,30,13,6,7,3,1029,76,2,20141230180000
1182,Fenghua EPB,,29.666557,121.42069,157,72,14,19,15,10,12,-4,1019,33,2,20141230180000
1183,"Yuelong station, Ninghai",,29.296505,121.445872,144,61,35,14,10,4,15,-1,1019,34,1,20141230180000
1184,"Wenfeng Primary School, Xiangshan",,29.470908,121.889544,152,71,23,20,5,11,17,-2,1019,27,2,20141230180000
1185,"Chengnan Primary School, Ninghai",,29.293812,121.43666,173,83,7,18,8,9,2,1,1020,93,1,20141230180000
1186,"Xingang Primary School, Xiangshan",,29.203878,121.952514,208,72,37,27,8,7,15,-1,1019,34,1,20141230180000
1356,Haishu City Monitoring Center,,29.86835,121.539341,190,123,3,40,22,11,10,3,1022,62,1,20141230180000
1357,Fenghua Xikou government,,29.693164,121.29331,93,53,17,18,10,7,10,4,1029,66,3,20141230180000
1294,Ningbo,,29.865766,121.548164,156,84,26,49,10,14,5,1,1020,76,1,20141230180000
1187,Fuyang,,30.046157,119.96468,177,124,41,32,12,15,-,-,0,-,-,20141230180000
1188,Yiwu,,29.304353,120.079794,186,131,44,54,32,17,-,-,0,-,-,20141230180000
1189,Zhuji,,29.711185,120.240748,175,126,42,48,23,32,7,0,1019,61,0,20141230180000
563,"Shanxi Road , Nanjing",,32.06795,118.779216,167,91,35,31,9,1,8,0,1019,57,4,20141230180000
564,"Ruijin Road , Nanjing",,32.029321,118.80817,180,101,14,48,17,1,8,0,1019,57,4,20141230180000
565,"Xuanwu Lake, Nanjing",,32.075423,118.800188,180,121,27,49,42,0,13,2,1021,47,5,20141230180000
566,"Olympic Center, Nanjing",,32.007171,118.742217,187,127,26,24,6,0,8,4,1021,76,1,20141230180000
567,"Xianlin University Town , Nanjing",,32.106958,118.919882,167,94,29,39,18,0,3,2,1021,93,1,20141230180000
568,Nanjing,,32.058179,118.802061,165,116,25,55,23,0,7,2,1018,71,0,20141230180000
569,"Shangfang hill , Suzhou",,31.24502,120.565211,195,184,39,38,7,0,4,1,1021,81,1,20141230180000
570,"Wuzhong District , Suzhou",,31.268105,120.61717,181,106,35,36,22,2,10,0,1021,50,4,20141230180000
571,"Suzhou New District , Suzhou",,31.297277,120.547262,182,80,24,43,16,0,3,1,1020,87,1,20141230180000
572,"Suzhou Industrial Area, Suzhou",,31.307603,120.673257,199,122,42,55,25,0,13,1,1021,44,3,20141230180000
573,"Xiangcheng district, Suzhou",,31.368674,120.645209,197,116,26,44,39,2,7,2,1022,71,3,20141230180000
574,Suzhou,,31.296701,120.589493,206,238,48,102,19,0,11,1,1019,50,0,20141230180000
575,"South suburb , Nantong",,31.957836,120.917218,297,168,34,50,62,1,10,-1,0,41,4,20141230180000
576,"Xinghu park, Nantong",,31.927873,120.944254,248,151,31,49,61,0,6,2,0,79,2,20141230180000
577,"Zilang school, Nantong",,32.039638,120.814358,151,66,31,16,13,0,8,0,0,53,3,20141230180000
578,Nantong,,31.978005,120.898555,213,140,27,66,55,0,9,1,0,56,4,20141230180000
579,Lianyungang,,34.595509,119.226814,152,84,21,27,10,7,8,8,1016,96,0,20141230180000
580,"Hongmen police substation, Lianyungang",,34.588692,119.146693,326,193,33,36,36,0,7,0,1019,49,1,20141230180000
581,"Xugou Nuclear Expert Village , Lianyungang",,34.749957,119.373707,305,210,20,27,28,0,2,-2,1018,68,1,20141230180000
582,"Hengrui pharmaceutical company, BDA, Lianyungang",,34.697574,119.353668,175,118,39,22,31,3,12,-5,1015,19,3,20141230180000
583,"City Monitoring Station, Lianyungang",,34.586791,119.186929,511,476,33,38,52,1,0,-3,1019,75,1,20141230180000
584,"Yellow river new village , Xuzhou",,34.271542,117.177241,129,95,23,24,32,0,-3,-7,1034,69,1,20141230180000
585,"Tongshan Veterinary Hospital , Xuzhou",,34.307086,117.197766,152,119,21,23,29,0,-3,-7,1034,69,1,20141230180000
586,"New Town , Xuzhou",,34.213992,117.261718,172,92,35,45,12,0,6,-2,1029,46,0,20141230180000
587,"Taoyuan road, Xuzhou",,34.289822,117.249721,213,133,33,19,22,3,2,0,1018,76,0,20141230180000
588,"Agricultural Science Academy , Xuzhou",,34.27655,117.299079,187,121,14,44,29,0,10,0,1016,38,2,20141230180000
589,"Tongshan EPA, Xuzhou",,34.179384,117.171798,169,104,34,9,41,0,14,1,1016,28,2,20141230180000
590,Xuzhou,,34.20346,117.289825,294,188,31,45,23,0,-1,-2,1018,89,0,20141230180000
591,Yangzhou,,32.39233,119.418446,159,69,10,19,10,5,11,9,0,90,6,20141230180000
592,"Hanjiang Monitoring Station, Yangzhou",,32.374218,119.394484,178,123,43,13,12,0,6,2,0,75,2,20141230180000
593,"No. 4 Hospital, Yangzhou",,32.401394,119.44444,203,153,44,45,28,2,5,-2,0,56,4,20141230180000
594,"City Monitoring Station, Yangzhou",,32.406588,119.41591,192,138,22,37,28,0,9,2,0,62,4,20141230180000
595,"University Town , Wuxi",,31.484752,120.273571,183,111,44,24,12,0,6,1,1019,70,1,20141230180000
596,"Shibei High School , Wuxi",,31.619969,120.279584,107,60,35,17,25,0,11,0,1029,47,3,20141230180000
597,"Yuhong Elementary School , Wuxi",,31.561155,120.249588,194,123,27,22,38,0,6,1,1020,70,4,20141230180000
598,Wuxi,,31.488746,120.31575,180,127,46,63,21,0,11,1,1019,50,0,20141230180000
599,Changzhou,,31.808037,119.979205,172,86,6,22,36,13,11,9,0,88,5,20141230180000
600,"Chengjian School, Changzhou",,31.776476,119.937681,139,63,29,9,17,0,8,0,0,57,4,20141230180000
601,"Changzhou Engineering Institute , Changzhou",,31.806828,119.966724,93,57,31,12,7,0,6,-1,0,57,4,20141230180000
602,"Wujin Monitoring Station, Changzhou",,31.701788,119.939676,202,111,41,38,22,0,9,1,0,57,4,20141230180000
603,"City Monitoring Station, Changzhou",,31.777201,119.979426,159,73,43,20,20,0,11,2,0,50,2,20141230180000
604,Zhenjiang,,32.18597,119.431281,170,79,4,39,15,13,9,8,0,93,5,20141230180000
605,"New District Administrative office , Zhenjiang",,32.186174,119.685021,180,116,31,43,12,0,3,2,1021,93,1,20141230180000
606,"Vocational Education Center , Zhenjiang",,32.212973,119.496253,170,99,43,44,38,0,3,2,1019,93,1,20141230180000
607,"Dantu Monitoring Station , Zhenjiang",,32.130026,119.435432,176,94,31,28,51,0,15,3,1020,45,4,20141230180000
608,"City Monitoring Station, Zhenjiang",,32.202178,119.439766,168,83,38,36,9,2,8,0,1019,57,5,20141230180000
609,"Gaogang Adminstrative office , Taizhoushi",,32.300768,119.886757,186,114,44,12,44,4,13,0,0,42,5,20141230180000
610,"Students Innovation Park , Taizhoushi",,32.461672,119.892761,178,-,21,21,52,0,6,2,0,78,3,20141230180000
611,Taizhoushi,,32.453555,119.927852,188,129,28,47,44,0,6,2,0,74,3,20141230180000
612,"Yancheng power station , Yancheng",,33.400859,120.123067,199,144,62,5,26,0,,,0,,,20141230180000
613,Yancheng,,33.345939,120.168504,144,52,30,5,3,7,11,10,1016,95,4,20141230180000
614,"Wenfeng Middle School , Yancheng",,33.370531,120.134041,180,125,99,10,45,0,,,0,,,20141230180000
615,"BDA Management Committe, Yancheng",,33.393191,120.22978,173,84,40,19,15,1,,,0,,,20141230180000
616,"City Monitoring Station, Yancheng",,33.390623,120.164423,260,166,37,24,19,0,,,0,,,20141230180000
617,Suqian,,33.960666,118.281004,160,87,24,7,5,7,11,10,0,91,6,20141230180000
618,"Suqian College , Suqian",,33.951472,118.298523,114,64,27,25,23,0,0,-5,0,64,3,20141230180000
619,"Suqian Middle School , Suqian",,33.95784,118.249505,127,61,19,22,24,0,5,-4,0,50,3,20141230180000
620,"Suyu District Environmental Protection Agency , Suqian",,33.94932,118.326569,345,135,40,38,3,0,4,1,0,82,3,20141230180000
621,"City Monitoring Station, Suqian",,33.956982,118.277022,180,92,20,12,23,0,11,2,0,52,4,20141230180000
622,Taizhou,,28.653436,121.425185,189,129,79,32,7,10,8,3,0,69,2,20141230180000
623,Donghu Liyuan,,30.572324,114.377844,161,89,8,26,15,11,14,5,1020,55,3,20141230180000
624,Yuehu Lake,,30.554662,114.256937,176,174,21,60,5,9,11,4,1019,62,3,20141230180000
625,Hankou Huaqiao ,,30.61724,114.287652,168,77,10,1,18,12,14,5,1020,55,3,20141230180000
626,Wuchang Ziyang ,,30.530801,114.309438,162,84,13,20,14,8,14,5,1020,55,3,20141230180000
627,Qingshan Ganghua,,30.622435,114.375599,291,505,10,109,40,30,7,3,1021,76,1,20141230180000
628,Dunkou Xinou,,30.480091,114.162176,253,153,15,76,19,16,6,3,1022,81,2,20141230180000
629,Donghu Gaoxin,,30.48095,114.40724,174,95,119,32,95,30,6,4,1019,87,5,20141230180000
630,Wujianshan,,30.63114,114.135907,211,218,19,79,15,24,11,2,1020,54,2,20141230180000
631,Yuanshun Road,,30.297142,113.858587,160,68,19,28,8,11,6,3,1019,81,6,20141230180000
632,Wuhan,,30.590689,114.310838,210,149,9,97,36,26,7,3,1021,76,1,20141230180000
1190,"Silingsan Factory, Yichang",,30.713288,111.306585,212,109,14,28,60,11,6,0,1031,53,1,20141230180000
1190,"Silingsan Factory, Yichang",,30.713288,111.306585,212,109,14,28,60,11,6,0,1031,53,1,20141230180000
633,Yichang,,30.689528,111.292131,1,1,20,0,0,11,8,0,1017,49,2,20141230180000
1191,"City Library , Jingzhou",,30.31494,112.260844,215,134,22,22,36,16,5,0,1030,61,2,20141230180000
1191,"City Library , Jingzhou",,30.31494,112.260844,215,134,22,22,36,16,5,0,1030,61,2,20141230180000
1192,"City committee communist party school, Jingzhou",,30.349004,112.212531,264,188,35,29,20,15,7,6,1021,87,0,20141230180000
1192,"City committee communist party school, Jingzhou",,30.35054,112.20743,264,188,35,29,20,15,7,6,1021,87,0,20141230180000
1193,"kerong EPA, Jingzhou",,30.302965,112.29443,155,1,37,10,0,14,5,3,1023,85,1,20141230180000
1193,"kerong EPA, Jingzhou",,30.302965,112.29443,155,1,37,10,0,14,5,3,1023,85,1,20141230180000
634,Jingzhou,,30.332608,112.245451,175,87,31,22,29,15,6,4,1018,85,1,20141230180000
634,Jingzhou,,30.332608,112.245451,175,87,31,22,29,15,6,4,1018,85,1,20141230180000
635,Huangshi,,30.19723,115.043908,178,113,3,24,28,25,3,,1024,98,1,20141230180000
635,Huangshi,,30.19723,115.043908,178,113,3,24,28,25,3,,1024,98,1,20141230180000
1194,"Chenjiaying, Huangshi",,30.232823,115.067923,181,117,5,28,58,16,15,,1022,80,2,20141230180000
1195,"Chenjiawan , Huangshi",,30.200422,115.082138,201,150,4,29,57,32,15,,1022,80,2,20141230180000
1196,"Xinxialu, Huangshi",,30.17332,114.954357,182,116,12,29,31,15,15,,1022,80,2,20141230180000
1197,"Tie montian, Huangshi",,30.203885,114.906439,190,114,7,37,2,13,7,,1032,94,2,20141230180000
1198,"BDA, Huangshi",,30.207491,115.031739,200,129,4,49,51,23,15,,1022,80,2,20141230180000
636,Shiyan,,32.627208,110.803311,155,71,12,29,16,9,-4,,0,72,2,20141230180000
636,Shiyan,,32.627208,110.803311,155,71,12,29,16,9,-4,,0,72,2,20141230180000
1199,"Wudang Mountain , Shiyan",,32.392921,111.047655,78,26,19,3,6,3,-5,,0,75,1,20141230180000
1200,"Riverside Village , Shiyan",,32.647286,110.785335,191,114,15,60,36,8,1,,960,78,1,20141230180000
1201,"Liujiagou , Shiyan",,32.636732,110.731129,152,64,18,19,14,-,-4,,0,73,2,20141230180000
637,Xiangyang,,32.007029,112.128496,189,95,13,21,13,11,-1,,1020,75,1,20141230180000
638,Ezhou,,30.389244,114.899884,175,107,7,35,14,16,8,,1036,100,6,20141230180000
638,Ezhou,,30.389244,114.899884,175,107,7,35,14,16,8,,1036,100,6,20141230180000
1203,"City government, Ezhou",,30.391836,114.892822,178,93,9,38,14,16,8,,1036,100,6,20141230180000
1204,"Zhaojiaba, Ezhou",,30.368966,114.90365,170,93,8,33,16,18,8,,1036,100,6,20141230180000
1205,"Fankou BDA, Ezhou",,30.410759,114.818225,179,136,4,34,11,15,7,,1035,93,3,20141230180000
639,Jingmen,,31.033208,112.205093,221,236,8,24,20,19,7,,1021,49,4,20141230180000
639,Jingmen,,31.033208,112.205093,221,236,8,24,20,19,7,,1021,49,4,20141230180000
1372,"Zhuyuan primary school, Jingmen",,31.046123,112.207214,204,340,7,15,8,13,7,,1021,49,4,20141230180000
1373,"City government, Jingmen",,31.035297,112.198897,194,288,8,19,23,14,7,,1021,49,4,20141230180000
640,Xiaogan,,30.922089,113.922387,214,161,11,32,13,31,4,,1035,78,2,20141230180000
640,Xiaogan,,30.922089,113.922387,214,161,11,32,13,31,4,,1035,78,2,20141230180000
1206,"wenhua street, Shenyang , Xiaogan",,30.925856,113.92104,214,145,8,31,15,41,4,,1035,78,2,20141230180000
1207,"Dongcheng District , Huludao , Xiaogan",,30.917963,113.943904,214,177,11,33,12,20,4,,1035,78,2,20141230180000
641,Huanggang,,30.45124,114.877378,173,95,13,24,8,13,8,,1036,100,6,20141230180000
641,Huanggang,,30.45124,114.877378,173,95,13,24,8,13,8,,1036,100,6,20141230180000
1208,"Dazhou Island, Huanggang",,30.446205,114.900323,172,103,14,24,9,13,8,,1036,100,6,20141230180000
1209,"Workers Center , Huanggang",,30.469244,114.912504,174,87,13,24,7,13,8,,1036,100,6,20141230180000
642,Xianning,,29.838978,114.327898,157,88,14,13,6,16,-2,,998,68,1,20141230180000
642,Xianning,,29.838978,114.327898,157,88,14,13,6,16,-2,,998,68,1,20141230180000
1210,"Municipal Development and Reform Commission , Xianning",,29.818645,114.328461,155,76,9,8,2,9,-2,,998,68,1,20141230180000
1211,"Xianan District Governement, Xianning",,29.51107,114.181864,149,77,12,8,9,24,0,,1007,73,1,20141230180000
1212,"Yangtze River Industrial Park , Xianning",,29.883098,114.32909,160,87,10,22,9,14,-2,,998,68,1,20141230180000
1213,"Qianshan Park, Xianning",,29.815351,114.328689,164,110,24,13,4,16,-2,,998,68,1,20141230180000
643,Suizhou,,31.688342,113.388675,221,145,5,19,8,34,3,,1021,71,4,20141230180000
643,Suizhou,,31.688342,113.388675,221,145,5,19,8,34,3,,1021,71,4,20141230180000
1338,"City committee communist party school, Suizhou",,31.725316,113.3648,199,141,12,14,5,24,3,,1021,71,4,20141230180000
1339,"Forestry Bureau, Suizhou",,31.690065,113.383157,204,112,8,17,9,47,3,,1021,71,4,20141230180000
644,Enshi,,30.292138,109.484562,198,132,2,16,6,15,-6,,,67,0,20141230180000
644,Enshi,,30.269587,109.493042,198,132,2,16,6,15,-6,,,67,0,20141230180000
1374,"State Power Company, Enshi",,30.296275,109.508711,191,137,2,12,10,17,-6,,,67,0,20141230180000
645,Xiantao,,30.360228,113.460616,159,110,5,28,15,15,4,,1035,78,2,20141230180000
645,Xiantao,,30.360228,113.460616,159,110,5,28,15,15,4,,1035,78,2,20141230180000
646,Qianjiang,,30.399387,112.905661,270,175,7,27,21,29,7,,1036,66,6,20141230180000
646,Qianjiang,,30.399387,112.905661,270,175,7,27,21,29,7,,1036,66,6,20141230180000
647,Tianmen,,30.661027,113.172549,177,106,19,17,11,15,4,,1035,78,2,20141230180000
647,Tianmen,,30.661027,113.172549,177,106,19,17,11,15,4,,1035,78,2,20141230180000
1088,Shennongjia,,31.741307,110.685554,137,52,12,5,5,9,-6,,,60,1,20141230180000
1088,Shennongjia,,31.741307,110.685554,137,52,12,5,5,9,-6,,,60,1,20141230180000
1214,"Xiangcheng Yundong Street, Xiangfan",,32.017716,112.16102,231,125,3,28,14,18,3,,1029,46,5,20141230180000
1359,"Fancheng Xinhua Road , Xiangfan",,32.0544,112.145224,250,142,3,28,16,24,3,,1029,46,5,20141230180000
655,"City Environmental Monitoring Station, Baotou",,40.657201,109.886738,68,53,20,5,5,16,,,0,,,20141230180000
656,"Donghe EPB, Baotou",,40.586213,110.002224,53,50,21,3,7,5,,,0,,,20141230180000
657,"Baotou shopping mall, Baotou",,40.508334,109.819085,53,37,23,6,8,10,,,0,,,20141230180000
658,"Huilong logistics, Baotou",,40.633436,109.879821,61,39,26,7,14,6,,,0,,,20141230180000
659,Baotou,,40.658597,109.846051,68,53,20,5,5,16,,,0,,,20141230180000
660,"Huatai Automobile Mall, Eerduosi",,39.837048,109.972209,55,46,37,2,3,4,-14,-21,1041,42,2,20141230180000
661,"Olympus Garden, Eerduosi",,39.789171,109.987742,53,54,18,2,2,5,-14,-21,1041,42,2,20141230180000
662,Eerduosi,,39.609284,109.78704,57,64,18,7,26,8,-14,-21,1041,42,2,20141230180000
663,"Tianyi Road, Chifeng",,42.275552,118.88507,34,12,21,1,10,7,-10,-19,1028,30,3,20141230180000
664,"Songshan No.1 Middle School, Chifeng",,42.329307,118.793045,55,15,14,2,2,9,-10,-19,1028,30,3,20141230180000
665,"Hada Street, Chifeng",,42.280714,118.988235,42,14,17,1,8,7,-10,-19,1028,30,3,20141230180000
666,"Songshan Road, Chifeng",,42.171487,118.89501,57,33,16,3,9,4,-10,-19,1028,30,3,20141230180000
667,Chifeng,,42.259752,118.893027,57,33,21,3,10,7,-10,-19,1028,30,3,20141230180000
674,Fuzhou,,26.071406,119.301294,132,71,38,30,3,9,9,4,1021,71,3,20141230180000
675,"Xidong, Xiamen",,24.815345,118.161848,109,50,31,2,4,5,9,7,1021,87,1,20141230180000
676,"Hongwen, Xiamen",,24.473969,118.156281,157,91,40,53,9,6,9,7,1021,87,1,20141230180000
677,"Gulangyu, Xiamen",,24.443168,118.068571,162,86,46,58,23,6,9,7,1021,87,1,20141230180000
678,"Huli, Xiamen",,24.51235,118.099146,168,85,36,57,10,6,9,7,1021,87,1,20141230180000
679,Xiamen,,24.477187,118.094402,168,85,36,57,10,6,9,7,1021,87,1,20141230180000
680,"Qingyuan Montain, Quanzhou",,24.939503,118.598337,80,52,78,6,5,5,9,7,1021,87,1,20141230180000
681,"Tushan Street, Quanzhou",,24.90867,118.586397,157,90,53,30,12,7,9,7,1021,87,1,20141230180000
682,"Wanan, Quanzhou",,24.304154,118.070903,124,50,110,13,4,6,9,7,1021,87,1,20141230180000
683,Quanzhou,,24.87179,118.68001,162,95,110,39,12,9,9,7,1021,87,1,20141230180000
687,"Jiancaoping, Taiyuan",,37.887889,112.528383,253,191,17,22,69,28,-5,-14,1016,50,2,20141230180000
688,"Jianhe, Taiyuan",,37.910779,112.579258,196,198,17,22,74,28,-8,-15,1017,58,2,20141230180000
689,"Shanglan, Taiyuan",,38.011589,112.440679,57,37,13,116,37,13,-8,-15,1017,58,2,20141230180000
690,"Jinyuan, Taiyuan",,37.713164,112.475552,230,138,18,17,75,32,-6,-15,1016,50,2,20141230180000
691,"Xiaodian, Taiyuan",,37.782137,112.483533,161,78,11,16,76,27,-8,-15,1017,58,2,20141230180000
692,"Taoyuan, Taiyuan",,37.869752,112.543332,185,126,8,32,58,31,-6,-15,1016,50,2,20141230180000
693,"Wucheng, Taiyuan",,37.819998,112.576252,195,142,6,14,94,23,-5,-14,1016,50,2,20141230180000
694,"Nanzhai, Taiyuan",,37.985902,112.555312,134,66,17,13,45,16,-8,-15,1017,58,2,20141230180000
695,"Jinsheng, Taiyuan",,37.781205,112.494494,144,74,21,13,56,24,-8,-15,1017,58,2,20141230180000
696,Taiyuan,,37.871115,112.555178,55,51,22,6,18,25,6,-20,1018,14,9,20141230180000
697,"Monitoring station, Changzhi",,36.194062,113.10389,182,75,21,17,69,26,,,0,,,20141230180000
698,"Auditing bureau, Changzhi",,36.212787,113.095221,180,88,34,45,7,40,,,0,,,20141230180000
699,"Qinghua station, Changzhi",,36.154328,113.116385,168,84,14,34,55,35,,,0,,,20141230180000
700,"No.8 middle school, Changzhi",,36.185451,113.099481,170,85,38,38,73,19,,,0,,,20141230180000
701,Changzhi,,36.195553,113.12292,152,81,100,11,18,32,,,0,,,20141230180000
702,"Yungang Hotel, Datong",,40.076997,113.278079,87,66,48,8,12,14,-3,-15,1026,26,2,20141230180000
703,"college of education, Datong",,40.085608,113.27808,157,66,19,17,48,19,-10,-16,1020,42,1,20141230180000
704,Datong,,40.078016,113.307143,72,54,48,6,7,21,-4,-11,1026,46,7,20141230180000
705,"Technical Schools, Linfen",,36.07131,111.509046,97,90,27,2,3,31,-7,-23,0,27,7,20141230180000
706,"Municipal party committee, Linfen",,36.087425,111.508771,222,128,10,18,51,55,-4,-15,0,40,3,20141230180000
1073,"City Monitoring Station, Linfen",,36.097676,111.518739,306,229,4,17,59,69,-4,-15,0,40,3,20141230180000
707,"South Airport, Linfen",,36.041614,111.497968,159,64,18,35,65,61,0,-16,0,27,6,20141230180000
708,Linfen,,36.087944,111.525098,177,100,28,27,80,54,-5,-18,0,34,8,20141230180000
709,"City center, Yangquan",,37.848012,113.578636,155,94,34,29,75,10,-7,-14,1017,58,2,20141230180000
710,Yangquan,,37.857475,113.586921,222,140,29,42,119,39,-5,-13,1019,54,2,20141230180000
711,"Water Company, Jincheng",,35.504787,112.857245,168,104,7,15,54,23,-2,-13,1020,29,0,20141230180000
712,"Baiyun shopping mall, Jincheng",,35.492858,112.841566,139,85,12,13,63,21,0,-15,1024,31,4,20141230180000
713,"City EPA, Jincheng",,35.488422,112.858528,175,92,2,11,37,8,0,-10,1029,35,1,20141230180000
714,"Institute of Technology, Jincheng",,35.484844,112.878073,164,117,14,12,56,8,5,-15,1024,11,2,20141230180000
715,"No.1 middle school, Jincheng",,35.478725,112.838636,155,87,9,16,56,7,-2,-13,1020,29,0,20141230180000
716,Jincheng,,35.490287,112.85794,172,132,20,16,53,20,5,-14,1024,13,4,20141230180000
718,"District Government, Shuozhou",,39.320857,112.430641,59,55,6,9,23,5,-4,-16,1025,23,1,20141230180000
719,"City EPA, Shuozhou",,39.331495,112.407997,61,60,16,4,20,5,-4,-16,1025,23,1,20141230180000
720,"No.2 middle school, Shuozhou",,39.377963,112.432877,107,57,18,28,66,14,0,-16,1020,18,1,20141230180000
721,Shuozhou,,39.332756,112.439672,95,82,5,27,54,14,-7,-17,1019,30,2,20141230180000
722,"Jinlun compound, Jinzhong",,37.697891,112.771017,154,88,7,13,52,20,-7,-14,1017,58,2,20141230180000
723,"Hydraulic Component Factory, Jinzhong",,37.688355,112.725844,159,89,9,23,51,21,-7,-14,1017,58,2,20141230180000
724,"Nandu compound, Jinzhong",,37.713148,112.732036,155,91,4,26,72,26,-7,-14,1017,58,2,20141230180000
725,"Yuci district government, Jinzhong",,37.698228,112.714167,152,72,3,19,52,26,-7,-14,1017,58,2,20141230180000
726,Jinzhong,,37.687705,112.759187,55,135,24,6,28,12,-5,-21,1029,28,7,20141230180000
727,"Yuncheng Middle School, Yuncheng",,35.012345,111.003215,187,128,13,17,37,63,-2,-10,1020,41,0,20141230180000
728,"Yudou BDA, Yuncheng",,35.05065,111.029571,208,181,18,22,53,40,-2,-10,1020,41,0,20141230180000
729,"Yuncheng college, Yuncheng",,35.038753,111.051992,154,80,19,11,11,15,9,-11,1024,13,1,20141230180000
730,"Regional Technical School, Yuncheng",,35.028727,110.974076,277,176,19,21,54,49,0,-12,1022,28,1,20141230180000
731,"Airport new district, Yuncheng",,35.084515,111.05339,178,123,24,23,48,38,0,-12,1022,28,1,20141230180000
732,Yuncheng,,35.025675,111.013344,324,193,19,22,55,58,-1,-10,1021,33,1,20141230180000
733,"Jiyin, Xinzhou",,38.413292,112.742432,163,108,9,35,70,38,-1,-12,1022,44,1,20141230180000
734,"BDA, Xinzhou",,38.450069,112.736723,-,83,9,32,54,14,-7,-14,1017,58,2,20141230180000
735,"Convention Center, Xinzhou",,38.492043,112.709772,189,118,14,18,27,55,-7,-14,1017,58,2,20141230180000
736,Xinzhou,,38.417244,112.740742,82,71,27,7,27,16,6,-19,1017,15,6,20141230180000
737,"City EPA, Luliang",,37.522189,111.144365,-,-,-,-,-,-,-,-,0,-,-,20141230180000
738,"Soybean factory, Luliang",,37.51689,111.135101,233,56,10,16,92,25,-6,-14,1023,40,2,20141230180000
739,"Water Company, Luliang",,37.53394,111.138834,169,102,-,12,74,-,-9,-14,1028,51,2,20141230180000
740,Luliang,,37.519091,111.150681,304,84,10,14,88,26,-8,-14,1024,48,2,20141230180000
741,"City government, Sanmenxia",,34.776251,111.198781,149,53,31,37,31,21,-2,-10,1021,44,1,20141230180000
743,"BDA, Sanmenxia",,34.800434,111.204332,144,57,32,29,28,13,-2,-10,1021,44,1,20141230180000
744,Sanmenxia,,34.771506,111.206129,178,80,32,62,52,29,9,-8,1022,18,1,20141230180000
745,"Food Factory, Changchun",,43.919094,125.329521,174,91,26,28,48,11,-15,-18,1014,78,2,20141230180000
746,"Bus Factory, Changchun",,43.912337,125.293431,205,89,16,25,29,14,-13,-16,1012,79,3,20141230180000
747,"Institute of Posts and Telecommunications, Changchun",,43.842368,125.285005,174,100,18,32,52,14,-8,-12,1017,73,4,20141230180000
748,"Laodong Park, Changchun",,43.877293,125.371519,167,84,15,33,73,14,-8,-12,1017,73,4,20141230180000
749,"Forest area, Changchun",,43.871825,125.331519,292,186,10,45,92,17,-15,-18,1016,78,2,20141230180000
750,"Jinyuetan, Changchun",,43.79031,125.460561,280,143,30,38,54,15,-15,-18,1016,78,2,20141230180000
751,"Shuaiwanzi, Changchun",,43.552321,125.639086,168,93,32,17,26,15,-15,-18,1013,78,2,20141230180000
752,"Economic Development Zone Sanitation Department, Changchun",,43.869221,125.42365,165,89,25,26,11,12,-15,-18,1014,78,2,20141230180000
753,"High-tech Zone Administrative Committee, Changchun",,43.819064,125.256375,273,138,40,33,16,13,-13,-15,1017,85,2,20141230180000
754,"Daishan Park, Changchun",,43.852365,125.223399,169,77,45,33,21,13,-15,-18,1014,78,2,20141230180000
755,Changchun,,43.819415,125.329977,215,124,13,22,16,14,-13,-16,1017,79,2,20141230180000
756,"Hadawan, Jilin",,43.888081,126.545727,176,94,21,20,5,11,-13,-14,0,92,2,20141230180000
757,"Fengman, Jilin",,43.768169,126.678802,99,46,37,6,6,5,-13,-14,0,92,2,20141230180000
758,"Electric Power College, Jilin",,43.827403,126.502281,157,70,36,16,9,10,-13,-14,0,92,2,20141230180000
759,"Jiangnan Park, Jilin",,43.83531,126.556519,142,60,29,20,15,8,-13,-14,0,92,2,20141230180000
760,"Dongjuzi, Jilin",,43.838597,126.590068,139,57,28,17,8,6,-13,-14,0,92,2,20141230180000
763,Jilin,,43.840137,126.555262,195,122,24,32,68,27,-10,-12,0,87,3,20141230180000
764,"Lingbei, Haerbin",,45.756979,126.548008,187,85,19,36,35,6,-14,-15,1016,92,4,20141230180000
765,"Songbei Commercial University, Haerbin",,45.818624,126.566963,188,103,16,28,30,19,-21,-23,1013,84,2,20141230180000
766,"Acheng huining, Haerbin",,45.544286,126.985183,163,104,12,19,6,13,-21,-23,1013,84,2,20141230180000
767,"Nangang College Street, Haerbin",,45.724121,126.604906,239,128,16,31,50,9,-21,-23,1013,84,2,20141230180000
768,"Taiping Hongwei Park, Haerbin",,45.775332,126.695101,187,106,7,31,24,15,-21,-23,1013,84,2,20141230180000
769,"Daowai Chengde Square, Haerbin",,45.768637,126.640955,204,115,10,36,42,12,-21,-23,1013,84,2,20141230180000
770,"Xiangfang Hongqi Street, Haerbin",,45.733936,126.691083,193,115,10,31,56,14,-21,-23,1013,84,2,20141230180000
771,"Dongli Heping Road, Haerbin",,45.727765,126.651974,198,108,7,36,51,7,-21,-23,1013,84,2,20141230180000
772,"Daoli Jianguo Road, Haerbin",,45.749715,126.59891,179,96,16,39,51,9,-13,-15,1016,85,3,20141230180000
773,"Pingfang Light Factory, Haerbin",,45.611951,126.620898,222,174,2,35,33,26,-21,-23,1013,84,2,20141230180000
774,"Hulan Normal College, Haerbin",,45.983745,126.616553,221,127,20,29,12,17,-21,-23,1013,84,2,20141230180000
775,"Provincial Academy of Agricultural Sciences, Haerbin",,45.686141,126.626517,192,96,10,33,43,9,-14,-16,1016,85,3,20141230180000
776,Haerbin,,45.805757,126.541007,200,117,16,32,33,19,-19,-21,1013,85,2,20141230180000
777,"Anju Compound, Qiqihaer",,47.365672,123.937016,157,71,23,6,5,14,-10,-14,1017,67,1,20141230180000
778,"Farming Vehicule Factory, Qiqihaer",,47.326793,123.961427,107,48,15,11,10,11,-10,-14,1017,67,1,20141230180000
779,"Fuqu EPA, Qiqihaer",,47.1853,123.62322,152,61,20,20,1,12,-10,-14,1017,67,1,20141230180000
780,"City Center Square, Qiqihaer",,47.343096,123.96192,152,61,15,17,37,13,-10,-14,1017,67,1,20141230180000
1217,"City Environmental Monitoring Station, Qiqihaer",,47.303639,123.957551,183,82,10,5,18,15,-10,-14,1017,67,1,20141230180000
781,Qiqihaer,,47.356387,123.924736,165,61,23,20,13,14,-10,-14,1017,67,1,20141230180000
782,"Saertu District, Daqing",,46.582368,125.152904,165,73,22,3,19,7,-12,-14,1017,78,2,20141230180000
783,"Datong District, Daqing",,46.036786,124.842115,163,68,20,7,14,13,-12,-14,1017,78,2,20141230180000
784,"Honggang District, Daqing",,46.418381,124.88973,169,72,27,17,10,8,-12,-14,1017,78,2,20141230180000
785,"Longfeng District, Daqing",,46.535426,125.107043,170,81,19,25,29,5,-12,-14,1017,78,2,20141230180000
786,"Ranghulu District, Daqing",,46.635123,124.85648,151,67,21,8,9,7,-12,-14,1017,78,2,20141230180000
787,Daqing,,46.591414,125.110838,225,123,28,20,18,15,-16,-18,1015,80,1,20141230180000
788,"Locomotive Factory, Mudanjiang",,44.610589,129.652672,250,155,23,32,37,25,-11,-15,1026,58,0,20141230190000
789,"No. 1 hospital, Mudanjiang",,44.567775,129.617043,187,113,27,30,55,24,-12,-14,1020,74,1,20141230190000
1220,"EPA building, Mudanjiang",,44.567777,129.620658,0,57,21,12,10,6,-14,-20,1027,52,2,20141230190000
1221,"Cultural Square, Mudanjiang",,44.586388,129.623164,134,57,13,20,29,9,-11,-17,1028,47,3,20141230190000
790,Mudanjiang,,44.553619,129.640246,188,110,42,26,34,27,-15,-17,1012,77,0,20141230190000
791,"Mingzhu Plaza, Hefei",,31.782847,117.201512,157,74,28,52,8,13,10,2,1019,58,2,20141230190000
792,"Sanli Street, Hefei",,31.874637,117.312573,74,78,21,62,10,12,9,1,1019,58,3,20141230190000
793,"Hupo Compound, Hefei",,31.868583,117.264491,173,91,38,19,25,14,13,0,1017,41,3,20141230190000
794,"Dongpu Reservoir, Hefei",,31.90319,117.165584,185,111,57,26,14,5,9,3,1017,66,3,20141230190000
795,"Changjiang middle road, Hefei",,31.855185,117.255484,193,109,5,24,7,12,7,1,1021,66,3,20141230190000
796,"Luyang District, Hefei",,31.941771,117.271504,159,70,6,1,18,9,13,-2,1022,36,6,20141230190000
797,"Yaohai District, Hefei",,31.856595,117.341644,104,61,34,21,11,11,1,-2,1021,81,2,20141230190000
798,"Baohe District, Hefei",,31.793644,117.307554,124,54,37,6,18,8,2,1,1018,93,4,20141230190000
799,"Lake district, Hefei",,31.736619,117.283501,117,62,3,10,6,7,7,-3,1021,49,4,20141230190000
800,"High-tech zone, Hefei",,31.849755,117.129624,151,90,17,19,12,8,11,1,1018,50,2,20141230190000
802,"Hudong Road No.4 Elementary School, Maanshan",,31.684121,118.511017,163,74,28,15,19,12,11,3,1020,58,5,20141230190000
803,"Tianping Garment Factory, Maanshan",,31.64197,118.488043,161,69,36,24,23,16,16,1,1017,36,5,20141230190000
804,"City education base, Maanshan",,31.711216,118.648913,173,92,10,8,5,8,8,2,1026,66,4,20141230190000
805,"Cihu No.2 elementary school, Maanshan",,31.748546,118.515729,139,63,21,31,34,16,12,-1,1022,41,5,20141230190000
806,"Maanshan steel factory power plant, Maanshan",,31.690864,118.48528,163,85,23,26,9,13,0,0,1026,100,1,20141230190000
807,Maanshan,,31.668461,118.511939,164,79,24,52,10,12,4,1,1019,81,1,20141230190000
808,"Science Innovation Center, Wuhu",,31.417056,118.375406,127,43,18,16,7,13,-1,-3,1032,86,2,20141230190000
809,"No.4 Water Plant, Wuhu",,31.315914,118.376231,119,53,17,20,12,13,5,-2,1032,61,5,20141230190000
810,"Monitoring station, Wuhu",,31.348955,118.358154,155,97,11,5,21,13,15,2,1017,42,6,20141230190000
811,"Wuqierling Factory, Wuhu",,31.382068,118.407639,243,87,31,92,28,14,16,1,1017,36,5,20141230190000
812,Wuhu,,31.351007,118.438322,157,74,174,8,31,13,6,0,1019,66,1,20141230190000
1331,Chuzhou,,32.299549,118.322508,169,84,19,8,7,16,7,,1015,61,5,20141230190000
813,"Jiangxi Foreign Affairs Office, Nanchang",,28.678027,115.903436,165,95,20,43,9,13,8,3,1021,63,1,20141230190000
814,"Provincial forestry company, Nanchang",,28.69065,115.898546,154,76,22,14,29,12,16,3,1020,30,2,20141230190000
815,"Institute of Forestry, Nanchang",,28.731518,115.82478,139,65,23,13,17,4,8,2,1022,59,1,20141230190000
816,"Jingdong town government, Nanchang",,28.680659,115.972736,147,67,19,12,16,6,6,-1,1029,54,1,20141230190000
817,"Contruction Industry College, Nanchang",,28.684018,115.865891,104,57,21,24,15,18,5,3,1021,88,1,20141230190000
818,"Xianghu, Nanchang",,28.637831,115.9033,156,42,24,25,25,11,7,-1,1028,47,2,20141230190000
819,"Martial Arts School, Nanchang",,28.794538,115.752876,137,37,21,22,25,7,6,-1,1029,54,1,20141230190000
820,"Petrifaction Company, Nanchang",,28.608634,115.912999,177,113,23,22,12,9,5,3,1021,88,1,20141230190000
821,"Provincial Station, Nanchang",,28.677155,115.941896,182,64,33,28,15,13,12,0,1025,30,4,20141230190000
822,Nanchang,,28.679883,115.863022,158,140,33,19,35,13,16,3,1020,30,2,20141230190000
823,"Lushan Mountain Observatory, Jiujiang",,29.5751,115.998926,30,21,31,2,1,2,7,-19,1023,6,3,20141230190000
824,"Shili, Jiujiang",,29.668119,115.992381,80,49,27,20,20,13,0,-11,1030,30,2,20141230190000
825,"Maoshantou, Jiujiang",,29.700819,115.967192,102,41,10,14,13,7,2,-5,1030,49,1,20141230190000
826,"Xiyuan, Jiujiang",,29.723929,115.998206,158,71,12,36,46,10,1,-6,1029,48,1,20141230190000
827,"Wuqierling Factory, Jiujiang",,29.640802,116.022713,95,46,37,12,141,9,1,-8,1030,39,6,20141230190000
828,"Water Scientific Research Institute, Jiujiang",,29.679179,116.068081,68,57,23,18,22,13,7,-18,1020,6,1,20141230190000
829,"Zonghe Industrial Park, Jiujiang",,29.592047,115.916335,59,54,23,22,19,3,2,-5,1030,49,1,20141230190000
830,"Petrochemical General Plant, Jiujiang",,29.738832,116.09463,68,31,18,17,15,8,6,-4,1028,36,1,20141230190000
831,Jiujiang,,29.70254,116.007025,188,152,34,53,64,13,9,-10,1020,14,3,20141230190000
1332,"Feiyu, Xinyu",,27.844697,115.000136,76,40,16,4,10,,9,,1023,63,1,20141230190000
1333,"Beigang, Xinyu",,27.932491,115.103767,38,17,32,10,1,,9,,1023,63,1,20141230190000
1334,"No.2 water factory, Xinyu",,27.839577,114.933915,99,52,3,22,35,,6,,1028,73,3,20141230190000
1335,"Bureau of Meteorology, Xinyu",,27.81048,114.936507,93,50,15,36,34,,12,,1027,43,3,20141230190000
1336,Xinyu,,27.814351,114.922194,157,89,13,52,102,,9,,1023,63,1,20141230190000
832,"Tobacco Factory, Zhengzhou",,34.753419,113.687131,173,153,26,53,51,14,3,-9,1016,41,1,20141230190000
833,"Textile Machinery Factory, Zhengzhou",,34.773366,113.647067,177,81,15,17,33,19,18,-14,1014,10,4,20141230190000
834,"Banking College, Zhengzhou",,34.800856,113.681126,165,115,20,19,50,10,9,-14,1024,19,6,20141230190000
835,"Water Supply Company, Zhengzhou",,34.807188,113.571089,176,111,38,34,63,19,13,-13,1019,15,3,20141230190000
836,"Economic Development Zone Management Committee, Zhengzhou",,34.717652,113.733182,142,125,29,10,28,16,13,-11,1015,18,2,20141230190000
881,Changsha,,28.224701,112.944264,159,60,31,21,13,8,1,0,1020,93,1,20141230190000
