locationid,stationname,chinesename,latitude,longitude,pm25,pm10,o3,no2,so2,co,temperature,dewpoint,pressure,humidity,wind,est_time
1,Dongcheng Dongsi,,39.9304,116.423239,184,77,34,24,11,12,22,19,1007,83,1,20140724170000
2,"Temple of Heaven, Dongcheng",,39.887403,116.41324,169,74,36,24,2,11,22,19,1007,83,1,20140724170000
3,West Park officials,,39.930333,116.345162,163,72,38,32,6,10,22,19,1007,83,1,20140724170000
4,West Wanshou Nishinomiya,,39.879354,116.358183,161,66,38,36,3,11,22,19,1007,83,1,20140724170000
5,Chaoyang Olympic Sports Center,,39.983406,116.403253,177,68,33,39,2,9,22,19,1007,83,1,20140724170000
6,Chaoyang Agricultural Exhibition Hall,,39.938331,116.46715,184,95,39,32,8,12,22,19,1007,83,1,20140724170000
7,Haidian Wanliu,,39.988245,116.293062,158,71,32,34,5,8,22,19,1007,83,1,20140724170000
8,The Haidian northern New Area,,40.091313,116.180194,142,76,29,34,2,7,22,19,1007,83,1,20140724170000
9,Haidian Beijing Botanical Garden,,40.003252,116.213097,125,82,47,12,2,24,22,19,1007,83,1,20140724170000
10,Fengtai garden,,39.86423,116.285037,158,66,33,39,2,8,22,19,1007,83,1,20140724170000
11,Fengtai Yungang,,39.82535,116.152237,158,61,40,23,2,8,22,19,1007,83,1,20140724170000
12,Shijingshan city,,39.915286,116.190144,160,80,39,33,2,9,22,19,1007,83,1,20140724170000
13,"Fangshan, Liangxiang",,39.743357,116.14225,156,75,30,39,4,9,22,19,1007,83,1,20140724170000
14,"Huangcunzhen, Daxing",,39.719389,116.410219,-,72,34,47,2,9,22,19,1007,83,1,20140724170000
15,BDA,,39.796197,116.51197,170,78,35,39,3,11,22,19,1007,83,1,20140724170000
16,Tongzhou New Town,,39.887113,116.6689,176,95,26,43,4,10,22,19,1007,83,1,20140724170000
17,Shunyi New Town ,,40.128111,116.660908,166,88,35,33,3,9,22,19,1007,83,1,20140724170000
18,Changping Town,,40.218245,116.236084,149,62,42,22,3,7,22,19,1007,83,1,20140724170000
19,"Mentougou, Longquan Town",,39.938397,116.112323,108,64,38,35,2,8,22,19,1007,83,1,20140724170000
20,Pinggu town,,40.144433,117.106563,181,-,27,30,7,18,22,19,1007,83,1,20140724170000
21,Huairou town,,40.329104,116.63387,122,52,42,16,2,7,22,19,1007,83,1,20140724170000
22,The town of Miyun,,40.371186,116.838053,169,74,44,19,7,11,22,19,1007,83,1,20140724170000
23,Yanqing town,,40.454217,115.978106,144,62,45,22,3,5,22,19,1007,83,1,20140724170000
24,Changping Dingling,,40.293269,116.226108,115,37,-,7,2,6,22,19,1007,83,1,20140724170000
25,Badaling Northwest,,40.36623,115.994146,168,62,36,59,3,7,22,19,1007,83,1,20140724170000
26,Miyun Reservoir,,40.500157,116.91701,162,-,48,7,7,8,22,19,1007,83,1,20140724170000
27,"Donggaocun Zhen, Pinggu",,40.10142,117.126556,187,81,30,15,4,16,22,19,1007,83,1,20140724170000
28,"Yongledianzhen, Tongzhou",,39.713192,116.78905,165,69,25,38,3,9,22,19,1007,83,1,20140724170000
29,"Yufazhen, Daxing",,39.521203,116.306026,141,67,15,17,2,7,22,19,1007,83,1,20140724170000
30,"Liulihezhen, Fangshan",,39.581169,116.006089,156,61,31,18,6,2,22,19,1007,83,1,20140724170000
31,"Qianmen E St, Dongcheng",,39.900402,116.401242,174,77,17,39,2,12,22,19,1007,83,1,20140724170000
32,Yongdingmen Inner St,,39.877401,116.400238,173,87,26,38,3,12,22,19,1007,83,1,20140724170000
33,Xizhimen N St,,39.955352,116.355187,165,68,33,32,10,8,22,19,1007,83,1,20140724170000
34,South Ring Road,,39.857377,116.37421,165,76,9,47,2,14,22,19,1007,83,1,20140724170000
35,East Fourth Ring Road,,39.940273,116.489075,175,126,15,33,8,13,22,19,1007,83,1,20140724170000
36,Beijing,,39.955906,116.474246,193,95,39,32,11,12,22,19,1008,83,1,20140724170000
37,Putuo,,31.232979,121.415378,60,45,25,3,4,2,30,24,997,70,9,20140724170000
38,Yangpu Sipiao,,31.263795,121.540311,91,44,30,3,4,2,30,24,997,70,9,20140724170000
39,Shanghai Normal College Primary Division,,31.199031,121.487719,65,42,24,6,3,5,30,24,997,70,9,20140724170000
40,Dianshan Lake,,31.091338,120.982293,55,15,27,4,3,5,30,24,997,70,9,20140724170000
41,Hongkou Liangcheng,,31.298906,121.47155,57,38,24,5,5,4,30,24,997,70,9,20140724170000
42,Jingan,,31.224251,121.429637,68,40,29,5,2,7,30,24,997,70,9,20140724170000
43,Shanghai Normal University,,31.163531,121.416643,70,43,27,8,5,2,30,24,996,70,8,20140724170000
44,Chuansha,,31.188626,121.707342,51,37,21,2,3,3,30,24,997,70,9,20140724170000
45,Zhangjiang,,31.204896,121.581215,55,49,27,3,2,4,30,24,996,70,8,20140724170000
46,Lingshan Road,,31.226286,121.537317,57,41,23,3,4,3,30,24,997,70,9,20140724170000
1080,City average,,31.228451,121.478227,63,42,26,4,4,3,30,24,997,70,9,20140724170000
47,Shanghai,,31.202842,121.453493,68,45,29,7,3,7,30,24,997,70,9,20140724170000
48,Guangzhou,,23.138517,113.263701,91,54,43,42,4,11,26,23,1005,83,5,20140724170000
49,"Huadu town, Guangzhou",,23.389121,113.220062,132,61,88,11,3,7,26,23,1005,83,5,20140724170000
50,"Luogang Zhenlong, Guangzhou",,23.308027,113.567032,109,38,80,10,3,9,26,23,1005,83,5,20140724170000
51,"LuHu, Guangzhou",,23.151743,113.281842,85,43,30,20,4,3,26,23,1005,83,5,20140724170000
52,"Tianhu, Guangzhou",,23.647433,113.629715,89,46,75,47,6,27,26,23,1005,83,5,20140724170000
53,"Zhudong, Guangzhou",,23.418406,113.078552,132,52,53,11,6,7,26,23,1005,83,5,20140724170000
54,"Modiesha station, Guangzhou",,23.103814,113.338238,57,24,48,13,3,7,26,23,1005,83,5,20140724170000
55,Zhuhai,,22.225269,113.304202,74,27,33,17,3,10,27,25,1005,89,6,20140724170000
1075,"Huicai technical school, Foshan",,23.039667,113.105492,72,40,42,19,6,7,26,23,1005,83,5,20140724170000
56,"Sanshuiyun donghai, Foshan",,23.185788,112.865368,107,54,27,28,9,8,26,23,1005,83,5,20140724170000
57,"Nanhai Bureau of Meteorology, Foshan",,23.046836,113.145764,124,69,118,12,5,11,30,22,998,62,3,20140724170000
58,"Sanshui Monitoring Station, Foshan",,23.163551,112.890843,107,54,25,27,5,7,26,23,1005,83,5,20140724170000
1087,Foshan,,22.999349,113.110189,72,40,46,19,6,7,26,23,1005,83,5,20140724170000
59,"Ronggui street committee, Shunde",,22.762729,113.258356,104,30,45,13,7,10,26,23,1005,83,5,20140724170000
60,Shunde,,22.806658,113.293112,104,30,45,12,11,11,26,23,1005,83,5,20140724170000
61,"Donghu, Jiangmen",,22.590411,113.087351,59,45,38,6,3,3,27,25,1005,89,6,20140724170000
62,"Taoyuan Atmosphere Premier Station, Jiangmen",,22.72489,112.93404,87,57,35,2,3,6,27,25,1005,89,6,20140724170000
63,Jiangmen,,22.604218,113.109062,78,67,38,8,6,10,28,25,1004,84,8,20140724170000
64,"Kengkouzi station, Zhaoqing",,23.158865,112.570287,102,62,29,11,4,13,26,23,1005,83,5,20140724170000
65,"Mugangzi station, Zhaoqing",,23.067961,112.431934,124,66,25,30,17,10,26,23,1005,83,5,20140724170000
66,"Qixingyanzi station, Zhaoqing",,23.075974,112.477437,137,68,31,34,24,7,26,23,1005,83,5,20140724170000
67,Zhaoqing,,23.050167,112.476039,156,68,36,31,47,10,26,23,1005,83,5,20140724170000
68,"Jinguo Bay, Huizhou",,22.937223,114.385567,21,34,45,5,2,5,26,24,1005,89,2,20140724170000
1091,"Xiabu, Huizhou",,23.077493,114.410275,153,6,46,10,2,4,26,24,1005,89,2,20140724170000
69,"Xijiao, Huizhou",,23.338178,114.112867,99,32,203,9,3,6,30,28,1002,89,8,20140724170000
70,"Jiangbei, Huizhou",,23.111706,114.415274,93,49,59,12,2,2,26,24,1005,89,2,20140724170000
71,"Huiyang chuanhu, Huizhou",,22.814485,114.329292,89,49,36,8,5,7,26,24,1005,89,2,20140724170000
72,"Daya bay management committee, Huizhou",,22.739283,114.53631,80,39,27,6,4,4,26,24,1005,89,2,20140724170000
73,Huizhou,,23.079716,114.410253,93,54,83,11,3,13,26,24,1005,89,2,20140724170000
74,"Guancheng No.2 water plant, Dongguan",,23.057294,113.753254,132,53,89,19,7,6,26,24,1005,89,2,20140724170000
75,"Dongcheng Shijing, Dongguan",,23.010039,113.799529,104,40,131,11,5,8,26,24,1004,89,10,20140724170000
76,"Nancheng Xiping, Dongguan",,22.963051,113.743494,132,59,57,22,6,6,26,24,1005,89,2,20140724170000
77,"Nancheng Yuanling, Dongguan",,23.025058,113.751308,122,59,86,12,6,6,26,24,1005,89,2,20140724170000
78,Dongguan,,23.050873,113.787057,132,59,89,22,7,8,26,24,1005,89,2,20140724170000
79,"Zimaling, Zhongshan",,22.505112,113.407183,53,20,39,2,6,7,27,25,1005,89,6,20140724170000
80,"Yangtze River tourist area, Zhongshan",,22.48589,113.439054,55,21,28,3,2,5,27,25,1005,89,6,20140724170000
81,"Huabai Park, Zhongshan",,22.51839,113.374362,63,35,35,12,3,9,27,25,1005,89,6,20140724170000
82,Zhongshan,,22.545387,113.370459,63,35,40,12,6,10,27,25,1005,89,6,20140724170000
83,"No.8 middle school, Shaoguan",,24.767777,113.583537,89,53,10,26,24,7,26,24,1004,86,1,20140724170000
83,"No.8 middle school, Shaoguan",,24.767777,113.583537,89,53,10,26,24,7,26,24,1004,86,1,20140724170000
84,"Forest area, Shaoguan",,24.796106,113.612131,112,50,26,25,3,13,26,24,1004,86,1,20140724170000
84,"Forest area, Shaoguan",,24.796107,113.612131,112,50,26,25,3,13,26,24,1004,86,1,20140724170000
86,"Shaoguan University, Shaoguan",,24.790864,113.646599,104,49,26,22,42,19,26,24,1004,86,1,20140724170000
86,"Shaoguan University, Shaoguan",,24.790864,113.646598,104,49,26,22,42,19,26,24,1004,86,1,20140724170000
88,"Qujiang Monitoring Station, Shaoguan",,24.683042,113.60157,114,50,21,17,11,8,26,24,1004,86,1,20140724170000
88,"Qujiang Monitoring Station, Shaoguan",,24.683042,113.60157,114,50,21,17,11,8,26,24,1004,86,1,20140724170000
89,Shaoguan,,24.807342,113.602712,114,53,26,26,42,19,26,24,1004,86,1,20140724170000
90,"Chaonanzi Station, Shantou",,23.251213,116.406762,59,37,16,7,18,6,29,27,1005,89,2,20140724170000
91,Shantou,,23.350642,116.686306,50,27,16,12,23,8,29,27,1005,89,2,20140724170000
92,"City Environmental Monitoring Station, Zhanjiang",,21.220431,110.397317,65,23,20,7,5,4,29,25,1004,79,2,20140724170000
93,"EPB Dormitory, Zhanjiang",,21.197376,110.406487,76,74,17,4,5,9,30,25,1002,64,3,20140724170000
94,"Xiashan Swimming Park, Zhanjiang",,21.200431,110.415655,55,20,15,2,7,9,29,25,1004,79,2,20140724170000
95,"Zhanjiang Theatre, Zhanjiang",,21.268177,110.366445,76,52,5,4,3,6,29,25,1004,79,2,20140724170000
96,"Mazhang EPA, Zhanjiang",,21.265486,110.335993,57,27,27,6,4,11,29,25,1004,79,2,20140724170000
97,"Potou District EPB, Zhanjiang",,21.247604,110.454508,59,30,0,7,2,0,29,25,1004,79,2,20140724170000
98,Zhanjiang,,21.26832,110.363883,76,60,27,10,7,11,29,25,1004,79,2,20140724170000
99,"Maogang sub-office EPB, Maoming",,21.466435,111.033462,57,24,27,5,6,4,28,26,0,85,3,20140724170000
100,"Petrochemical No. 7 elementaty school, Maoming",,21.648905,110.937861,122,55,31,5,9,7,28,26,0,85,3,20140724170000
101,"Jiankang road, Maoming",,21.662211,110.909482,132,59,25,5,7,9,28,26,0,85,3,20140724170000
102,"Gaoling, Maoming",,21.690558,110.871146,124,54,23,7,17,3,28,26,0,85,3,20140724170000
1094,Maoming,,21.660223,110.929968,132,59,31,7,17,9,28,26,0,85,3,20140724170000
103,"Jiaying University, Meizhou",,24.325415,116.12816,70,30,21,6,3,7,29,27,1005,89,2,20140724170000
104,"Mexian new town, Meizhou",,24.269283,116.084546,78,39,25,6,3,9,29,27,1005,89,2,20140724170000
105,"Environmental Monitoring Center, Meizhou",,24.262778,116.129621,61,23,24,8,3,7,29,27,1005,89,2,20140724170000
1095,Meizhou,,24.285988,116.127065,78,39,25,5,3,9,29,27,1005,89,2,20140724170000
106,"City EPA, Shanwei",,22.772349,115.370227,42,22,22,2,3,7,29,28,1005,91,4,20140724170000
107,"City government, Shanwei",,22.787161,115.375536,38,31,21,2,3,9,29,28,1005,91,4,20140724170000
108,"Xincheng Middle School, Shanwei",,22.789851,115.367124,42,23,21,1,3,8,29,28,1005,91,4,20140724170000
1099,Shanwei,,22.783576,115.38022,42,29,23,3,3,9,29,28,1005,91,4,20140724170000
109,"No.3 elementary school, Heyuan",,23.75435,114.703514,114,60,109,10,4,9,24,23,1005,91,1,20140724170000
109,"No.3 elementary school, Heyuan",,23.755946,114.699091,114,60,109,10,4,9,24,23,1005,91,1,20140724170000
111,"City water company, Heyuan",,23.688709,114.954652,107,54,104,9,6,9,24,23,1005,91,1,20140724170000
111,"City water company, Heyuan",,23.754246,114.682459,107,54,104,9,6,9,24,23,1005,91,1,20140724170000
113,"Heyuan high school, Heyuan",,23.720666,114.693879,127,61,106,10,8,9,24,23,1005,91,1,20140724170000
113,"Heyuan high school, Heyuan",,23.720037,114.699563,127,61,106,10,8,9,24,23,1005,91,1,20140724170000
115,Heyuan,,23.740888,114.705147,127,60,126,13,7,9,24,23,1005,91,1,20140724170000
116,"Yuanyang Lake, Yangjiang",,21.855869,111.983676,25,14,36,1,1,7,29,27,1004,81,4,20140724170000
1100,Yangjiang,,21.855227,111.987308,46,74,36,2,2,8,29,27,1004,81,4,20140724170000
118,"Town governement, Qingyuan",,23.708005,113.026215,112,40,16,7,4,16,26,23,1005,83,5,20140724170000
119,"Fupin district, Qingyuan",,23.624781,113.067713,76,26,15,13,5,16,26,23,1005,83,5,20140724170000
119,"Fupin district, Qingyuan",,24.185415,113.419369,76,26,15,13,5,16,26,23,1005,83,5,20140724170000
121,"Environment protection office, Qingyuan",,23.691109,113.047948,53,44,19,13,9,9,26,23,1005,83,5,20140724170000
121,"Environment protection office, Qingyuan",,23.685931,113.053239,53,44,19,13,9,9,26,23,1005,83,5,20140724170000
123,"Fengcheng Subdistrict, Qingyuan",,23.695447,113.068189,112,40,16,7,4,16,26,23,1005,83,5,20140724170000
124,Qingyuan,,23.679304,113.061513,112,57,21,13,6,16,26,23,1005,83,5,20140724170000
125,"Xiyuan Road, Chaozhou",,23.668654,116.638272,63,25,14,5,6,21,29,27,1005,89,2,20140724170000
126,"Archives Bureau, Chaozhou",,23.667881,116.649104,80,34,18,5,9,15,29,27,1005,89,2,20140724170000
127,"Municipal Corporation, Chaozhou",,23.65035,116.621859,53,35,17,4,6,16,29,27,1005,89,2,20140724170000
1101,Chaozhou,,23.654204,116.626969,80,35,18,6,9,20,29,27,1005,89,2,20140724170000
128,"Donghu Park, Jieyang",,23.532877,116.374427,70,28,17,4,6,10,29,27,1005,89,2,20140724170000
129,"Yuhu Middle School, Jieyang",,23.52682,116.414123,61,18,20,11,6,10,29,27,1005,89,2,20140724170000
130,"Experimental Primary School, Jieyang",,23.571473,116.364137,74,35,15,15,15,13,29,27,1005,89,2,20140724170000
1102,Jieyang,,23.547596,116.37754,74,35,20,16,15,13,29,27,1005,89,2,20140724170000
131,"City Environmental Monitoring Station, Yunfu",,22.936779,112.042248,144,61,30,10,3,12,26,23,1005,83,5,20140724170000
132,"The new city government headquarters, Yunfu",,22.914275,112.044475,104,58,30,6,3,10,26,23,1005,83,5,20140724170000
133,"Muyang police sub-station, Yunfu",,22.951267,112.05923,78,39,22,21,17,13,26,23,1005,83,5,20140724170000
1103,Yunfu,,22.912436,112.049811,144,61,30,15,6,13,26,23,1005,83,5,20140724170000
134,Yantian,,22.587949,114.266899,65,27,35,7,1,17,26,24,1005,89,2,20140724170000
135,Kwai Chung,,22.572837,113.867166,104,45,20,23,5,13,26,24,1005,89,2,20140724170000
135,Kwai Chung,,22.627947,114.428875,104,45,20,23,5,13,26,24,1005,89,2,20140724170000
135,Kwai Chung,,22.354168,114.134558,104,45,20,23,5,13,26,24,1005,89,2,20140724170000
137,Nanyou,,22.513802,113.928051,76,30,35,9,4,13,26,24,1005,89,2,20140724170000
138,Meisha,,22.59611,114.318345,82,37,19,6,1,11,26,24,1005,89,2,20140724170000
139,Xi xiang,,22.717524,114.252304,114,45,27,16,2,5,26,24,1005,89,2,20140724170000
140,Liyuan,,22.54732,114.101205,76,30,17,16,1,10,26,24,1005,89,2,20140724170000
1072,Kwai Chung,,22.627947,114.428875,74,39,30,5,3,11,26,24,1005,89,2,20140724170000
1072,Kwai Chung,,22.354168,114.134558,74,39,30,5,3,11,26,24,1005,89,2,20140724170000
141,OCT,,22.539549,113.992458,74,41,23,21,1,12,26,24,1005,89,2,20140724170000
142,Honghu,,22.559647,114.121976,97,43,26,26,1,6,26,24,1005,89,2,20140724170000
143,Mission Hills,,22.694131,114.050496,70,30,13,7,2,7,26,24,1005,89,2,20140724170000
144,Shenzhen,,22.540382,114.062982,114,45,35,26,5,17,26,24,1005,89,2,20140724170000
145,Chengdu,,30.622581,104.069564,87,42,36,47,3,6,26,20,1006,69,1,20140724170000
146,"Jinquan lianghe, Chengdu",,30.710359,103.974209,93,56,25,38,3,9,28,20,1006,62,1,20140724170000
147,"Shilidian, Chengdu",,30.684718,104.17845,82,58,34,53,4,7,28,20,1006,62,1,20140724170000
148,"Sanwayao, Chengdu",,30.568159,104.081524,97,63,30,-,3,8,28,20,1006,62,1,20140724170000
149,"Shahepu, Chengdu",,30.633685,104.120536,74,47,30,46,3,10,28,20,1006,62,1,20140724170000
150,"Liang Lane, Chengdu",,30.682601,104.076522,61,38,36,45,3,6,28,20,1006,62,1,20140724170000
151,"Caotang Temple, Chengdu",,30.651891,104.0284,55,42,24,47,3,6,28,20,1006,62,1,20140724170000
152,"Lingyansi, Chengdu",,31.025729,103.615022,42,13,45,7,8,2,28,20,1006,62,1,20140724170000
153,"Fuleshan, Mianyang",,31.472493,104.7806,93,39,95,12,2,8,29,22,1002,60,2,20140724170000
154,"High-tech Zone Water Company, Mianyang",,31.463309,104.674293,142,58,66,46,9,9,29,22,1002,60,2,20140724170000
155,"No.3 water company, Mianyang",,31.505002,104.731054,119,67,38,47,10,5,29,22,1002,60,2,20140724170000
156,Mianyang,,31.465174,104.681731,142,67,95,47,10,9,29,22,1002,60,2,20140724170000
157,"Dongshan Park, Deyang",,31.118648,104.424587,34,53,134,9,5,6,28,20,1006,62,1,20140724170000
158,"Xixiaoqu, Deyang",,31.131159,104.390972,50,35,52,16,10,8,28,20,1006,62,1,20140724170000
159,"City Procuratorate, Deyang",,31.114554,104.407986,63,40,49,33,12,8,28,20,1006,62,1,20140724170000
160,"Refractory Factory, Deyang",,31.108606,104.356506,30,59,77,17,12,4,28,20,1006,62,1,20140724170000
161,Deyang,,31.124715,104.400703,63,59,134,33,12,8,28,20,1006,62,1,20140724170000
162,"Nongnongping, Panzhihua",,26.566698,101.695438,87,51,34,11,8,9,24,17,0,57,0,20140724170000
163,"Hemenkou, Panzhihua",,26.589072,101.578312,129,77,36,12,14,17,24,17,0,57,0,20140724170000
164,"Bingcaogang, Panzhihua",,26.58143,101.718473,102,104,23,31,12,11,24,17,0,57,0,20140724170000
165,"Renhe, Panzhihua",,26.498166,101.746887,93,63,29,10,8,11,24,17,0,57,0,20140724170000
166,"Jinjina, Panzhihua",,26.553226,101.84862,109,62,32,12,25,8,24,17,0,57,0,20140724170000
167,Panzhihua,,26.578779,101.720211,129,104,36,31,25,17,24,17,0,57,0,20140724170000
168,"Shima Middle School, Yibin",,28.815979,104.599199,95,59,34,22,17,11,27,20,1004,57,1,20140724170000
169,"Municipal party committee, Yibin",,28.762654,104.624834,87,35,30,18,9,8,27,20,1004,57,1,20140724170000
170,"No. 4 middle school, Yibin",,28.783257,104.608407,53,28,22,29,12,7,27,20,1004,57,1,20140724170000
171,"City government, Yibin",,28.760477,104.644079,74,50,37,18,11,6,27,20,1004,57,1,20140724170000
172,"Huangjinzui, Yibin",,28.712319,104.578389,72,48,38,15,4,6,27,20,1004,57,1,20140724170000
173,"Shaping Middle School, Yibin",,28.795569,104.681393,53,17,34,6,9,5,27,20,1004,57,1,20140724170000
174,Yibin,,28.748384,104.645766,95,59,38,29,17,11,27,20,1004,57,1,20140724170000
175,"Datang Hill, Zigong",,29.359969,104.757388,151,72,19,12,10,13,26,20,1001,66,2,20140724170000
176,"Yanma Road, Zigong",,29.355752,104.724036,107,67,7,12,6,5,26,20,1001,66,2,20140724170000
177,"Tanmulin Street, Zigong",,29.353555,104.777397,102,41,18,14,9,4,26,20,1001,66,2,20140724170000
178,"Chunhua Road, Zigong",,29.33825,104.771895,93,48,21,32,10,5,26,20,1001,66,2,20140724170000
179,Zigong,,29.33617,104.781138,151,72,21,32,10,13,26,20,1001,66,2,20140724170000
180,"Jiushi Hill, Luzhou",,28.955347,105.434207,95,39,61,10,5,4,26,21,1001,72,1,20140724170000
181,"Xiaoshishang Port, Luzhou",,28.899583,105.447192,85,62,87,32,13,5,26,21,1001,72,1,20140724170000
182,"Lantianxian Bridge, Luzhou",,28.852766,105.4358,91,53,102,24,2,3,26,21,1001,72,1,20140724170000
183,"City Environment Monitoring Station, Luzhou",,28.895898,105.435802,95,49,47,19,3,5,26,21,1001,72,1,20140724170000
184,Luzhou,,28.868782,105.445938,95,62,102,32,13,5,26,21,1001,72,1,20140724170000
185,"City Committee, Nanchong",,30.799993,106.082906,91,30,18,18,13,2,29,21,1004,56,1,20140724170000
186,"Refinery Factory, Nanchong",,30.819412,106.10712,119,39,25,17,9,1,29,21,1004,56,1,20140724170000
187,"Gaoping District Monitoring Station, Nanchong",,30.783291,106.110417,97,55,32,27,21,5,29,21,1004,56,1,20140724170000
188,"Jialing District EPB, Nanchong",,30.761255,106.06818,134,62,15,15,20,5,31,20,1002,42,1,20140724170000
189,"City Environmental Monitoring Station, Nanchong",,30.836519,106.11272,114,42,14,12,5,3,29,21,1004,56,1,20140724170000
190,Nanchong,,30.835511,106.114717,119,95,34,27,29,6,29,21,1004,56,1,20140724170000
191,Shenyang US Consulate,,41.785668,123.432865,-,-,46,-,-,6,-,-,0,-,-,20140724170000
192,"Huishan, Shenyang",,41.835421,123.647773,132,57,29,7,1,5,22,17,1007,73,1,20140724170000
193,"Hunnan, Shenyang",,41.758263,123.540809,154,76,28,33,5,6,22,17,1007,73,1,20140724170000
194,"Zhangshi, Shenyang",,41.771679,123.289859,169,100,15,47,10,7,22,17,1007,73,1,20140724170000
195,"Artillery College, Shenyang",,41.835749,123.547799,70,63,22,22,2,5,22,17,1007,73,1,20140724170000
196,"Beiling, Shenyang",,41.849633,123.434146,155,105,14,40,4,7,22,17,1007,73,1,20140724170000
197,"Wenyi Road, Shenyang",,41.767444,123.416144,152,75,30,44,11,7,22,17,1007,73,1,20140724170000
198,"Xiaoheyan, Shenyang",,41.779828,123.484015,112,76,29,35,4,7,22,17,1007,73,1,20140724170000
199,"Taiyuan Street, Shenyang",,41.799646,123.406146,155,82,7,37,5,7,22,17,1007,73,1,20140724170000
200,"Ermao, Shenyang",,41.783011,123.366679,153,77,36,45,9,7,22,17,1007,73,1,20140724170000
201,"Liaoning University, Shenyang",,41.830704,123.361071,122,80,20,20,5,6,22,17,1007,73,1,20140724170000
202,Shenyang,,41.808126,123.437611,155,82,7,37,5,7,22,17,1007,73,1,20140724170000
1104,"wenhua street, Shenyang , Shenyang",,41.774139,123.441839,152,75,30,44,11,7,22,17,1007,73,1,20140724170000
1105,"Tanglin Road , Shenyang , Shenyang",,41.823665,123.562317,70,63,22,22,2,5,22,17,1007,73,1,20140724170000
203,"Ganjingzi, Dalian",,38.9747,121.616893,89,51,14,25,1,4,22,20,1008,88,3,20140724170000
204,"Zhoushuizi, Dalian",,38.951928,121.569981,65,31,13,20,4,7,22,20,1008,88,3,20140724170000
205,"Xinghai No 3 station, Dalian",,38.885779,121.568864,70,82,24,12,3,4,22,20,1008,88,3,20140724170000
206,"Qingniwa Bridge, Dalian",,38.91274,121.638018,55,22,18,20,2,7,22,20,1008,88,3,20140724170000
207,"Fujiazhuang, Dalian",,38.864647,121.629947,42,22,18,11,1,5,22,20,1008,88,3,20140724170000
208,"Qixianling, Dalian",,38.856978,121.523169,46,22,27,10,3,9,22,20,1008,88,3,20140724170000
209,"Lushun, Dalian",,38.808946,121.264063,57,15,30,4,1,2,22,20,1008,88,3,20140724170000
210,"Jinzhou, Dalian",,39.132192,121.753259,74,37,12,17,2,2,22,20,1008,88,3,20140724170000
211,"BDA, Dalian",,39.05213,121.782022,65,27,5,22,1,3,22,20,1008,88,3,20140724170000
212,"D&D Port, Dalian",,39.064087,121.981874,46,12,34,12,1,9,22,20,1008,88,3,20140724170000
213,Dalian,,38.91478,121.619625,55,22,18,20,2,7,22,20,1008,88,3,20140724170000
214,"Bearing Factory, Dandong",,40.068929,124.345703,61,28,42,8,15,9,22,21,1008,89,1,20140724170000
215,"Financial school, Dandong",,40.158723,124.432593,76,37,26,7,7,17,22,21,1008,89,1,20140724170000
216,"Yuanbaoshan water, Dandong",,40.149431,124.391698,68,21,24,11,11,14,22,21,1008,89,1,20140724170000
217,"Experimental Primary School, Dandong",,39.887343,124.158056,78,44,27,12,6,18,22,21,1008,89,1,20140724170000
218,Dandong,,40.002046,124.360479,78,44,27,12,7,18,22,21,1008,89,1,20140724170000
1106,"minzhu bridge, Dandong , Dandong",,40.112974,124.373604,78,44,27,12,6,18,22,21,1008,89,1,20140724170000
1107,"yuanbaoshan, Dandong , Dandong",,40.146298,124.399081,68,21,24,11,11,14,22,21,1008,89,1,20140724170000
1108,"linjiang houjie, Dandong , Dandong",,40.152757,124.431745,76,37,26,7,7,17,22,21,1008,89,1,20140724170000
219,"BDA, Panjin",,41.157144,122.06645,87,44,28,12,6,13,19,13,0,67,1,20140724170000
220,"Xinglongtai, Panjin",,41.140948,122.111343,97,56,17,24,14,6,19,13,0,67,1,20140724170000
221,"Dingxiang, Panjin",,41.16139,121.928781,72,30,16,21,7,3,19,13,0,67,1,20140724170000
222,Panjin,,41.122089,122.076206,97,56,28,24,14,13,19,13,0,67,1,20140724170000
223,"No.3 water company, Yingkou",,40.682052,122.385352,72,40,32,22,4,13,23,21,1007,81,2,20140724170000
224,"Yingkou University, Yingkou",,40.683689,122.388285,95,49,32,18,6,13,23,21,1007,81,2,20140724170000
225,"Botanical garden, Yingkou",,40.711674,122.281568,85,40,29,21,2,10,23,21,1007,81,2,20140724170000
226,Yingkou,,40.668578,122.24059,107,55,32,22,6,16,23,21,1007,81,2,20140724170000
1109,"jinghu west street, Yingkou , Yingkou",,40.653831,122.221943,72,40,32,22,4,13,23,21,1007,81,2,20140724170000
1110,"Daqing Road , Yingkou , Yingkou",,40.709181,122.28243,85,40,29,21,2,10,23,21,1007,81,2,20140724170000
227,"Xishanpo, Huludao",,40.724078,120.921974,142,78,19,36,13,4,19,13,0,67,1,20140724170000
228,"Huagong hospital, Huludao",,40.755662,120.848435,151,82,33,37,7,15,19,13,0,67,1,20140724170000
229,"New district park, Huludao",,40.723415,120.853801,162,85,10,33,6,9,19,13,0,67,1,20140724170000
230,"Lianshan district governement, Huludao",,40.775488,120.872292,119,84,15,46,8,2,19,13,0,67,1,20140724170000
231,Huludao,,40.712501,120.842107,162,85,35,46,13,15,23,18,1007,66,1,20140724170000
1111,"Dongcheng District , Huludao , Huludao",,40.775362,120.871706,119,84,15,46,8,2,,,,,,20140724170000
1112,"huagong street, Huludao , Huludao",,40.758901,120.842935,117,69,31,36,6,15,,,,,,20140724170000
232,Anshan,,41.110466,123.000147,164,112,34,33,23,20,22,17,1007,73,1,20140724170000
233,"Qianshan Park, Anshan",,41.033486,123.143897,151,59,27,6,6,6,22,17,1007,73,1,20140724170000
234,"Tiexi, Anshan",,41.121636,122.97506,161,96,22,33,16,14,22,17,1007,73,1,20140724170000
235,"Taiping Station, Anshan",,41.153322,123.052433,155,87,18,20,12,19,22,17,1007,73,1,20140724170000
236,"Central Station, Anshan",,41.106731,123.002736,155,88,34,19,23,12,22,17,1007,73,1,20140724170000
237,"Shengou Temple, Anshan",,41.137157,123.031901,155,76,26,10,6,13,22,17,1007,73,1,20140724170000
1113,"Qianshan , Anshan , Anshan",,41.014521,123.122538,154,62,27,7,6,6,21,18,1008,83,2,20140724170000
1114,"Tiexi Sandao jie, Anshan",,41.103264,122.978613,162,97,18,29,15,14,21,18,1008,83,2,20140724170000
1115,"Taiyang, Anshan",,41.094946,123.019037,155,88,34,19,23,12,22,17,1007,73,1,20140724170000
238,Fushun,,41.883028,123.962984,154,106,27,31,8,8,22,17,1007,73,1,20140724170000
239,"Shenfu new town, Fushun",,41.804638,123.631684,104,61,18,22,2,7,22,17,1007,73,1,20140724170000
240,"Reservoir, Fushun",,41.8464,123.802857,104,48,27,16,3,8,22,17,1007,73,1,20140724170000
241,"Train Station, Fushun",,41.89726,124.017604,139,63,19,21,8,7,22,17,1007,73,1,20140724170000
242,"Dongzhou, Fushun",,41.855578,124.044738,137,51,29,8,2,7,22,17,1007,73,1,20140724170000
243,"Xinhua, Fushun",,41.888598,123.932932,122,62,19,15,8,8,22,17,1007,73,1,20140724170000
244,"Wanghua, Fushun",,41.888825,123.093723,154,106,24,31,7,6,22,17,1007,73,1,20140724170000
245,Benxi,,41.296267,123.772371,155,86,36,29,15,49,22,17,1007,73,1,20140724170000
246,"Weining, Benxi",,41.349663,123.826071,142,72,23,10,3,49,22,17,1007,73,1,20140724170000
247,"Occupational disease hospital, Benxi",,41.305432,123.74645,107,47,33,15,5,24,22,17,1007,73,1,20140724170000
248,"Dongming, Benxi",,41.292369,123.765058,155,71,28,19,12,35,22,17,1007,73,1,20140724170000
249,"Caitun, Benxi",,41.301591,123.746039,154,86,22,12,3,13,22,17,1007,73,1,20140724170000
250,"Xihu, Benxi",,41.331332,123.773537,169,142,18,29,15,13,22,17,1007,73,1,20140724170000
251,"Dayu, Benxi",,41.308091,123.818442,151,55,33,7,9,20,21,18,1008,83,2,20140724170000
1116,"Xinlitun , Benxi , Benxi",,41.264104,123.811523,107,47,33,15,5,24,22,17,1007,73,1,20140724170000
252,Jinzhou,,41.097169,121.132647,144,84,18,40,11,7,23,16,1008,53,5,20140724170000
253,"Beihu Park, Jinzhou",,41.141447,121.137339,97,49,18,21,8,6,23,16,1008,53,5,20140724170000
254,"Monitoring station, Jinzhou",,41.113441,121.140911,114,62,15,25,7,6,23,16,1008,53,5,20140724170000
255,"Nanshan, Jinzhou",,41.570689,122.046753,144,70,19,33,6,7,23,16,1008,53,5,20140724170000
1118,"BDA, Jinzhou",,40.853915,121.061756,119,84,13,40,11,7,23,16,1008,53,5,20140724170000
1119,"tianan street, Jinzhou , Jinzhou",,41.124468,121.126119,114,62,15,25,7,6,23,16,1008,53,5,20140724170000
1120,"baigu street, Jinzhou, Jinzhou",,41.12214,121.21027,117,73,12,18,4,5,23,16,1008,53,5,20140724170000
1121,Chaoyang,,41.576022,120.456053,109,75,24,23,9,12,23,18,1007,66,1,20140724170000
1122,"Agricultural Area, Chaoyang",,43.93968,125.247371,104,62,16,22,9,9,23,18,1007,66,1,20140724170000
1123,Tieling,,42.225197,123.732174,152,78,22,24,9,6,21,18,1008,83,2,20140724170000
260,"Waterpark, Tieling",,42.297031,123.880748,127,62,10,13,9,6,21,18,1008,83,2,20140724170000
1124,"Huigong Street West , Tieling , Tieling",,42.311115,123.845614,152,78,0,2,3,8,21,18,1008,83,2,20140724170000
1125,Liaoyang,,41.269312,123.24268,191,126,24,20,19,26,21,18,1008,83,2,20140724170000
1126,"Riverside Road , Liaoyang , Liaoyang",,41.176884,123.419859,165,112,29,28,1,21,22,17,1007,73,1,20140724170000
1127,Fuxin,,42.02373,121.675733,154,85,5,26,16,14,-,-,0,-,-,20140724170000
266,"Agricultural Area, Fuxin",,42.071291,121.696445,99,65,5,22,5,14,18,13,0,72,0,20140724170000
267,"Industrial Area, Fuxin",,42.041052,121.715554,127,55,16,26,4,6,18,13,0,72,0,20140724170000
1128,"Yulong Metro , Fuxin , Fuxin",,42.035091,121.666531,117,60,34,20,4,6,18,13,0,72,0,20140724170000
1129,"Dongyuan , Fuxin , Fuxin",,42.029119,121.681553,154,85,24,23,16,7,18,13,0,72,0,20140724170000
268,"City Monitoring Station, Jinan",,36.662614,117.054645,159,82,16,22,40,12,21,20,1003,96,3,20140724170000
269,"Shandong Institute of Economics, Jinan",,36.63819,117.074975,109,60,21,19,4,16,22,20,1004,85,4,20140724170000
270,"Quancheng Plaza, Jinan",,36.661711,117.027043,132,58,21,17,26,12,22,20,1004,85,4,20140724170000
271,"Kegansuo, Jinan",,36.611582,116.99384,149,71,19,20,23,9,21,20,1003,96,3,20140724170000
272,"Agriculture Science Institute, Jinan",,36.663115,116.95063,109,57,24,11,10,9,21,20,1003,96,3,20140724170000
273,"Lanxiang technical school, Jinan",,36.700421,116.95342,124,54,39,16,20,7,22,20,1004,85,4,20140724170000
274,"Chemical factory, Jinan",,36.687463,116.994406,163,57,34,20,21,6,22,20,1004,85,4,20140724170000
275,"Provincial Seed Warehouse, Jinan",,36.685706,117.066348,147,61,26,19,28,14,21,20,1003,96,3,20140724170000
276,"Shandong Architecture University, Jinan",,36.681732,117.191868,127,51,23,17,24,23,22,20,1004,85,4,20140724170000
277,"Baosheng cable company, Jinan",,36.724638,117.130855,142,48,29,13,16,7,22,20,1004,85,4,20140724170000
278,"Paomaling, Jinan",,36.47869,117.219027,68,20,36,6,15,15,22,20,1004,85,4,20140724170000
279,"Changqing District Communist Party School, Jinan",,36.548797,116.770859,107,53,38,17,21,10,22,20,1004,85,4,20140724170000
280,"BDA, Jinan",,36.685835,117.130851,155,73,17,21,16,15,21,20,1003,96,3,20140724170000
281,Jinan,,36.651426,117.126625,159,82,30,22,40,12,21,20,1003,96,3,20140724170000
282,"Shinan district No. 1, Qingdao",,36.065534,120.40839,61,28,16,10,6,3,24,23,1002,94,7,20140724170000
283,"Shibei district No. 1, Qingdao",,36.069919,120.341264,68,33,7,4,19,9,24,23,1002,94,7,20140724170000
284,"Shibei district No. 2, Qingdao",,36.104146,120.36637,25,3,19,11,5,6,24,23,1002,94,7,20140724170000
285,"Huangdao District No. 1, Qingdao",,35.958935,120.191041,53,35,18,16,8,4,24,23,1002,94,7,20140724170000
286,"Huangdao District No. 2, Qingdao",,35.970487,120.160339,53,52,13,6,5,4,24,23,1002,94,7,20140724170000
287,"Laoshan District No. 1, Qingdao",,36.085881,120.451839,59,32,30,6,12,4,24,23,1002,94,7,20140724170000
288,"Laoshan District No. 2, Qingdao",,36.091075,120.490388,34,57,25,7,7,5,24,23,1002,94,7,20140724170000
289,"Licang District No. 1, Qingdao",,36.184872,120.38533,25,23,10,10,14,4,24,23,1002,94,7,20140724170000
290,"Licang District No. 2, Qingdao",,36.154369,120.432287,57,19,11,13,8,3,24,23,1002,94,7,20140724170000
291,"Chengyang District No. 1, Qingdao",,36.308502,120.40008,9,13,16,7,8,5,24,23,1002,94,7,20140724170000
292,"Chengyang District No. 2, Qingdao",,36.308429,120.465806,38,27,29,6,15,2,24,23,1002,94,7,20140724170000
293,Qingdao,,36.067358,120.387773,68,52,30,33,19,9,24,23,1002,94,7,20140724170000
294,"Zichuan Meteo. Stations, Zibo",,36.637916,117.960222,173,94,20,31,41,11,23,23,0,98,2,20140724170000
295,"Dongfeng Chemical factory, Zibo",,36.838576,118.050785,63,28,24,16,16,10,23,23,0,98,3,20140724170000
296,"Boshan shuangshan, Zibo",,36.497278,117.853581,172,65,13,38,19,13,23,23,0,98,2,20140724170000
297,"Linzi Putian Park, Zibo",,36.820171,118.315022,61,12,43,14,11,11,23,23,0,98,2,20140724170000
298,"Qilu Petrochemical, Zibo",,36.765907,118.254967,74,19,33,14,8,10,23,23,0,97,2,20140724170000
299,"Zhoucun sanjin Group, Zibo",,36.8044,117.85694,63,30,42,28,30,11,23,23,0,98,2,20140724170000
300,"Vocational College, Zibo",,36.825208,117.926305,42,1,35,19,11,12,23,23,0,98,2,20140724170000
301,"BDA, Zibo",,36.905214,118.021824,59,7,24,9,8,19,23,23,0,98,2,20140724170000
302,Zibo,,36.813618,118.060948,76,30,24,16,16,11,23,23,0,98,3,20140724170000
303,"Shizhong District Government, Zaozhuang",,34.850397,117.569545,61,25,26,2,9,6,26,24,999,86,1,20140724170000
304,"Sewage treatment plant, Zaozhuang",,34.818951,117.595345,124,40,30,9,13,7,25,24,1000,86,2,20140724170000
305,"Xuecheng EPA, Zaozhuang",,34.790214,117.272455,68,94,44,9,14,6,26,24,999,86,1,20140724170000
306,"Yicheng District government, Zaozhuang",,34.772806,117.57647,72,37,31,5,4,3,26,24,999,86,1,20140724170000
307,"Taierzhuang EPA, Zaozhuang",,34.579462,117.741067,74,28,22,4,2,5,26,24,999,86,1,20140724170000
308,"Shanting EPA, Zaozhuang",,35.070373,117.457691,55,26,39,3,2,6,26,24,999,86,1,20140724170000
309,"City EPA, Zaozhuang",,34.809466,117.320608,142,82,74,5,7,6,25,24,1000,86,2,20140724170000
310,"High-tech zone, Zaozhuang",,34.821779,117.363495,144,69,33,3,6,7,25,24,1000,86,2,20140724170000
311,Zaozhuang,,34.809693,117.329634,74,37,39,5,9,6,26,24,999,86,1,20140724170000
312,"City EPA, Dongying",,37.432052,118.672871,53,16,38,2,11,4,24,23,0,92,7,20140724170000
313,"Vocational College, Dongying",,37.438653,118.630567,17,17,46,4,11,3,24,23,0,93,6,20140724170000
314,"Xianhe Oil Production Plant, Dongying",,37.442419,118.510222,13,25,43,9,8,4,24,23,0,93,6,20140724170000
315,"Gengjin village, Dongying",,37.445072,118.55839,53,43,38,4,4,3,24,23,0,92,7,20140724170000
316,"City environmental company, Dongying",,37.466599,118.508012,53,34,42,2,5,3,24,23,0,92,7,20140724170000
317,"Hekou  district, Dongying",,37.883786,118.522171,42,14,50,5,3,5,24,23,0,93,6,20140724170000
318,"BDA, Dongying",,37.435162,118.701827,13,20,43,4,9,7,24,23,0,93,6,20140724170000
319,Dongying,,37.435429,118.680434,53,43,42,4,11,4,24,23,0,92,7,20140724170000
320,"Bearing Factory, Yantai",,37.544126,121.376956,76,17,30,16,2,2,,,0,,,20140724170000
321,"Xijiao Chemical Station, Yantai",,37.547148,121.323695,34,8,42,2,1,3,,,0,,,20140724170000
322,"Fushan Monitoring Stations, Yantai",,37.472245,121.260116,30,42,8,14,2,7,,,0,,,20140724170000
323,"Mouping EPA, Yantai",,37.376681,121.586509,102,25,23,10,3,6,,,0,,,20140724170000
324,"Laishan EPA, Yantai",,37.478422,121.44829,38,18,37,1,4,4,,,0,,,20140724170000
325,"Laishan Shengquan Industrial Park, Yantai",,37.4271,121.408386,53,28,45,3,1,6,,,0,,,20140724170000
326,"China Agricultural University, Yantai",,37.423568,121.511838,53,17,41,6,8,5,,,0,,,20140724170000
327,"BDA EPA, Yantai",,37.560827,121.257954,72,31,24,6,1,6,,,0,,,20140724170000
329,"Dajijia, Yantai",,37.673849,121.071465,34,14,36,4,7,5,,,0,,,20140724170000
330,Yantai,,37.464793,121.453142,34,31,43,2,2,4,24,23,0,96,7,20140724170000
331,"BDA, Weifang",,36.720022,119.054064,97,35,24,9,14,4,,,0,,,20140724170000
332,"Business School, Weifang",,36.682442,119.105909,78,50,30,8,9,3,,,0,,,20140724170000
333,"Hanting District, Weifang",,36.773484,119.199705,63,30,48,7,7,3,,,0,,,20140724170000
334,"Gongda Company, Weifang",,36.657635,119.167266,50,28,26,3,4,2,,,0,,,20140724170000
335,"City EPA, Weifang",,36.701272,119.16838,117,58,22,16,7,6,,,0,,,20140724170000
336,"City Arbitration Committee, Weifang",,36.702422,119.145927,142,55,34,17,6,8,,,0,,,20140724170000
337,"Xinhui Group, Weifang",,36.641581,119.11679,107,59,22,22,8,6,,,0,,,20140724170000
338,"Jincheng Middle School, Weifang",,36.773611,119.115539,87,39,40,9,5,5,,,0,,,20140724170000
339,Weifang,,36.707217,119.167638,80,29,28,8,8,3,24,23,0,92,7,20140724170000
340,"City Monitoring Station, Jining",,35.408443,116.623917,190,197,48,41,52,22,23,22,1002,94,2,20140724170000
1090,"Shengdi Hollidays Resort, Jining",,35.424746,116.699093,241,285,40,32,47,19,23,22,1002,94,2,20140724170000
341,"Sewage treatment plant, Jining",,35.364286,116.609177,321,174,40,43,44,18,23,22,1002,94,2,20140724170000
342,"Electrochemical Factory, Jining",,35.390473,116.552956,104,127,40,11,20,14,23,22,1002,94,2,20140724170000
343,"Rencheng BDA, Jining",,35.390484,116.662995,250,278,44,31,17,19,23,22,1002,94,2,20140724170000
344,"Agricultural School, Jining",,35.44235,116.601682,191,171,33,41,39,15,23,22,1002,94,2,20140724170000
345,"BDA Huojucheng, Jining",,35.436377,116.642953,249,175,39,40,54,23,23,22,1002,94,2,20140724170000
346,Jining,,35.414473,116.59239,250,285,48,41,54,23,23,22,1002,94,2,20140724170000
347,"Taishan monitoring station, Taian",,36.194362,117.159648,134,51,19,4,6,6,16,16,0,100,10,20140724170000
348,"Shandong Electric Power School, Taian",,36.176071,117.12413,127,51,26,7,11,7,16,16,0,100,10,20140724170000
349,"Population Education school, Taian",,36.194417,117.104131,127,55,25,13,8,8,16,16,0,100,10,20140724170000
350,"Houfeng company, Taian",,36.204863,117.19015,137,22,31,8,12,10,16,16,0,100,10,20140724170000
351,"Nongda new campus, Taian",,36.170179,117.165191,74,11,20,14,20,16,16,16,0,100,10,20140724170000
352,"Transportation technical school, Taian",,36.202126,117.047068,152,45,16,7,7,22,16,16,0,100,10,20140724170000
353,"ICT Technology, Taian",,36.116621,117.107458,104,46,24,8,9,16,16,16,0,100,10,20140724170000
354,Taian,,36.200502,117.093682,134,55,26,13,11,8,16,16,0,100,10,20140724170000
355,"City Environmental Monitoring Station, Weihai",,37.513939,122.067058,38,19,37,15,3,3,24,23,0,97,5,20140724170000
356,"Woodworking Factory, Weihai",,37.325455,122.160777,53,16,41,1,5,2,24,23,0,97,5,20140724170000
357,"Lantian Hotel, Weihai",,37.514641,122.146276,9,10,51,5,4,5,24,23,0,97,5,20140724170000
358,"Zhang village government, Weihai",,37.485561,122.049436,13,20,36,9,3,4,24,23,0,97,5,20140724170000
359,"Gao District Bank, Weihai",,37.534919,122.056294,9,1,45,3,26,2,24,23,0,97,5,20140724170000
360,"Huxia technical school, Weihai",,37.427951,122.130811,17,21,30,22,4,2,24,23,0,96,8,20140724170000
361,Weihai,,37.5141,122.125477,17,21,30,22,4,2,24,23,0,96,8,20140724170000
362,"City governement square, Rizhao",,35.4075,119.526008,46,21,18,5,3,1,26,26,1001,100,2,20140724170000
363,"Port Authority, Rizhao",,35.381297,119.55396,50,30,10,3,4,2,26,26,1001,100,2,20140724170000
364,"City Monitoring Station, Rizhao",,35.388683,119.496405,42,22,15,12,6,5,26,26,1002,98,1,20140724170000
365,"Professor Garden, Rizhao",,35.462161,119.574193,53,28,23,4,3,3,26,26,1002,98,1,20140724170000
366,"Vocational and Technical College, Rizhao",,35.441939,119.538187,25,19,19,3,4,1,26,26,1002,98,1,20140724170000
367,"Lanshan EPA branch, Rizhao",,35.293405,119.345716,42,20,14,2,7,5,26,26,1002,98,1,20140724170000
368,"Jinma Industrial Park, Rizhao",,35.373339,119.514108,42,20,13,19,4,3,26,26,1002,98,1,20140724170000
369,Rizhao,,35.416089,119.532316,50,30,18,5,4,2,26,26,1001,100,2,20140724170000
370,"Vegetable oil factory, Laiwu",,36.205028,117.700917,164,57,17,5,9,4,22,21,1003,96,0,20140724170000
371,"Nursing home, Laiwu",,36.266067,117.652769,112,45,16,13,9,4,22,21,1004,89,2,20140724170000
372,"Xinyi middle school, Laiwu",,36.245086,117.739025,142,42,14,17,13,10,22,21,1004,89,2,20140724170000
373,"Risheng International School, Laiwu",,36.208125,117.730959,167,328,24,17,6,9,22,21,1004,89,2,20140724170000
374,"Gangcheng EPA, Laiwu",,36.066836,117.871823,124,33,20,12,9,19,22,21,1004,89,2,20140724170000
375,"City EPA, Laiwu",,36.228913,117.694797,99,42,18,22,6,13,22,21,1004,89,2,20140724170000
376,Laiwu,,36.213688,117.682612,164,328,17,5,9,12,22,21,1003,96,0,20140724170000
377,"Lunan Pharmaceutical Factory, Linyi",,35.061671,118.299527,38,26,3,8,4,6,24,23,0,97,5,20140724170000
378,"Yihe compound, Linyi",,35.056752,118.34739,34,13,16,8,2,4,24,23,0,97,5,20140724170000
379,"Linyi University, Linyi",,35.114777,118.293414,38,17,22,9,22,13,24,24,0,97,4,20140724170000
380,City EPA,Nanfang,35.104871,118.353518,76,2,25,6,1,10,24,24,0,97,4,20140724170000
381,"Xinguang woolen factory, Linyi",,34.981004,118.282,65,22,15,10,1,6,24,23,0,97,5,20140724170000
382,"Hongfu Baijiu Factory, Linyi",,34.998788,118.257275,21,10,25,8,3,13,24,24,0,97,4,20140724170000
384,"Hedong insurance company, Linyi",,35.089354,118.40812,68,49,8,10,6,5,24,23,0,97,5,20140724170000
385,"Jianghua vehicule center, Linyi",,35.010082,118.435749,13,30,17,6,1,13,24,24,0,97,4,20140724170000
386,Linyi,,35.10428,118.362202,68,49,16,10,6,6,24,23,0,97,5,20140724170000
387,"Heima group, Dezhou",,37.466063,116.314134,102,43,36,9,4,4,23,20,1006,77,1,20140724170000
388,"Monitoring station, Dezhou",,37.433107,116.377312,139,58,30,14,9,12,23,20,1006,77,1,20140724170000
389,"Supervision Station, Dezhou",,37.449689,116.324709,155,66,27,12,15,8,23,20,1006,77,1,20140724170000
390,"Huayu technical school, Dezhou",,37.462809,116.357559,93,87,44,9,5,9,23,20,1006,77,1,20140724170000
391,"Shuangyi group, Dezhou",,37.478848,116.316362,156,54,37,12,9,10,23,20,1006,77,1,20140724170000
392,Dezhou,,37.434959,116.363366,102,66,36,21,15,9,23,20,1006,77,1,20140724170000
393,"Dongchang District Government, Liaocheng",,36.444473,115.971733,117,52,34,10,8,7,25,20,1004,67,3,20140724170000
394,"Light Machinery Factory No. 2, Liaocheng",,36.456788,116.002383,153,79,31,13,6,7,25,20,1004,67,3,20140724170000
395,"City committee communist party school, Liaocheng",,36.479537,115.989288,95,51,28,8,4,7,25,20,1004,67,3,20140724170000
396,"Customs, Liaocheng",,36.431933,115.956974,163,89,35,16,7,12,25,20,1004,67,3,20140724170000
397,"Hongshun Garden, Liaocheng",,36.471124,115.960319,166,142,30,19,7,12,25,20,1004,67,3,20140724170000
398,"BDA, Liaocheng",,36.459407,116.043621,155,89,29,13,5,8,25,20,1004,67,3,20140724170000
399,Liaocheng,,36.456792,115.991051,153,79,34,13,8,7,25,20,1004,67,3,20140724170000
400,"City EPA, Binzhou",,37.38024,118.026895,30,36,21,2,2,5,23,19,1005,75,4,20140724170000
401,"Beizhong new school, Binzhou",,37.38374,117.988996,17,6,16,5,2,6,23,19,1005,75,4,20140724170000
402,"No.2 water factory, Binzhou",,37.36155,118.002648,30,7,13,4,4,3,23,19,1005,75,4,20140724170000
403,"Keling Chemical factory, Binzhou",,37.396138,117.943609,25,17,22,11,8,9,23,19,1005,75,4,20140724170000
404,"Yinhe logistics company, Binzhou",,37.356122,117.943326,30,17,16,3,1,8,23,19,1005,75,4,20140724170000
405,"Bilin compond, Binzhou",,37.36815,117.978964,55,28,18,5,7,7,23,19,1005,75,4,20140724170000
406,Binzhou,,37.382639,117.976606,30,6,21,5,4,6,23,19,1005,75,4,20140724170000
407,"Bureau of Meteorology, Heze",,35.248625,115.428775,144,62,39,9,18,6,22,20,0,88,5,20140724170000
408,"Sewage treatment plant, Heze",,35.222517,115.531511,164,95,63,7,13,11,24,21,0,81,4,20140724170000
409,"Municipal CPPCC, Heze",,35.237125,115.480591,139,56,38,8,19,6,22,20,0,88,5,20140724170000
410,"Huarun Pharmaceutical Company, Heze",,35.261463,115.524873,153,77,51,12,20,13,24,21,0,81,4,20140724170000
411,"Heze University, Heze",,35.269706,115.460934,152,59,44,8,16,4,22,20,0,88,5,20140724170000
412,Heze,,35.233354,115.486503,152,62,44,9,19,6,22,20,0,88,5,20140724170000
413,"Shiji Park, Shijiazhuang",,38.03155,114.547873,112,65,35,25,16,6,21,19,1007,88,1,20140724170000
414,"Xinan College, Shijiazhuang",,38.012764,114.473163,107,85,17,39,13,6,21,19,1007,88,1,20140724170000
415,"Chemical College, Shijiazhuang",,38.055503,114.569816,161,86,22,33,13,6,21,19,1007,88,1,20140724170000
416,"Worker hospital, Shijiazhuang",,38.051784,114.461209,154,103,32,50,6,8,21,19,1007,88,1,20140724170000
417,"Northwest Water Company, Shijiazhuang",,38.140638,114.508038,170,99,28,45,7,3,21,19,1007,88,1,20140724170000
418,"High-tech zone, Shijiazhuang",,38.040482,114.610775,174,101,11,42,14,6,21,19,1007,88,1,20140724170000
419,"Fenglong Montain, Shijiazhuang",,37.910829,114.360264,132,59,56,9,23,4,21,19,1007,88,1,20140724180000
1130,"Zhengding Unicom, Shijiazhuang",,38.159458,114.59879,175,106,19,37,14,7,21,19,1007,88,1,20140724180000
1131,"Luancheng Communications, Shijiazhuang",,37.906534,114.638785,172,92,0,28,44,0,21,19,1007,88,1,20140724180000
1132,"Gaocheng Experimental School, Shijiazhuang",,38.039518,114.867812,184,110,24,36,14,7,21,19,1007,88,1,20140724180000
1133,"Wuji EPA, Shijiazhuang",,38.17862,114.997012,256,143,36,12,25,6,21,19,1007,88,1,20140724180000
1134,"Shenze Power Supply Bureau, Shijiazhuang",,38.197674,115.219126,193,119,17,16,4,8,21,19,1007,88,1,20140724180000
1135,"Zhaoxian EPA, Shijiazhuang",,37.77171,114.775957,112,82,32,23,45,6,21,19,1007,88,1,20140724180000
1136,"Gaoyi County City Hall, Shijiazhuang",,37.623535,114.612729,167,95,27,43,16,3,21,19,1007,88,1,20140724180000
1137,"Zanhuang County City Hall, Shijiazhuang",,37.672898,114.398269,91,53,32,17,5,4,21,19,1007,88,1,20140724180000
1138,"Jingxing Bureau of Meteorology, Shijiazhuang",,38.038788,114.158406,95,134,23,28,13,5,21,19,1007,88,1,20140724180000
1139,"Pingshan Ye River, Shijiazhuang",,38.266657,114.210275,122,91,20,32,10,6,21,19,1007,88,1,20140724180000
420,Shijiazhuang,,38.042926,114.520834,175,106,35,50,16,8,21,19,1007,88,1,20140724180000
421,"No. 12 middle school, Tangshan",,39.659306,118.190271,162,107,23,18,19,10,-,-,0,-,-,20140724180000
422,"Ceramics Company, Tangshan",,39.669255,118.225185,107,78,11,14,11,4,23,19,1007,78,2,20140724180000
1089,"Xiaoshanzi Station, Tangshan",,39.631273,118.206223,-,-,-,-,-,-,-,-,0,-,-,20140724180000
423,"Commodities Bureau, Tangshan",,39.642301,118.191265,97,51,13,5,11,5,23,19,1006,78,2,20140724180000
424,"Leidazhanzi Station, Tangshan",,39.644375,118.150383,107,60,14,4,4,4,23,19,1006,78,2,20140724180000
425,"Supply and marketing cooperatives, Tangshan",,39.632334,118.17232,124,54,12,5,3,3,23,19,1006,78,2,20140724180000
1140,"Guye District City Hall, Tangshan",,39.741379,118.460246,191,121,17,32,18,18,23,19,1007,78,2,20140724180000
1141,"Kaiping Stations, Tangshan",,39.675246,118.275149,169,80,14,24,1,16,23,19,1007,78,2,20140724180000
1142,"Fengnan District City Hall, Tangshan",,39.5834,118.097454,161,67,16,43,9,24,23,19,1007,78,2,20140724180000
1143,"Fengrun City Hall, Tangshan",,39.840355,118.175338,228,292,9,38,27,40,23,19,1007,78,2,20140724180000
1144,"Qianxi EPA, Tangshan",,40.153339,118.317265,154,82,18,30,5,19,23,19,1007,78,2,20140724180000
1145,"Caofeidian Xinli  Primary School, Tangshan",,39.291232,118.462182,93,71,30,32,3,1,23,19,1007,78,2,20140724180000
1146,"Zunhua EPA, Tangshan",,40.206249,117.997315,177,115,11,39,21,35,23,19,1007,78,2,20140724180000
1147,"Qianan No.1 middle school, Tangshan",,40.004248,118.717055,191,114,22,14,11,10,23,19,1007,78,2,20140724180000
426,Tangshan,,39.632175,118.186472,169,80,16,43,11,24,23,19,1007,78,2,20140724180000
427,"City Monitoring Station, Qinhuangdao",,39.958109,119.607773,68,10,19,6,8,3,,,,,,20140724180000
428,"Beidaihe, Qinhuangdao",,39.829209,119.53194,102,30,12,7,12,10,,,,,,20140724180000
429,"Shanhai Pass, Qinhuangdao",,40.019298,119.767898,55,67,5,16,14,7,,,,,,20140724180000
430,"Contruction Plazz, Qinhuangdao",,39.943187,119.542912,93,60,23,12,6,7,,,,,,20140724180000
431,"City government, Qinhuangdao",,39.93711,119.612769,151,60,17,16,3,5,,,,,,20140724180000
598,Wuxi,,31.488746,120.31575,93,37,18,9,8,7,30,24,996,70,8,20140724180000
1148,"Qinglong EPA, Qinhuangdao",,40.419223,118.958002,112,36,23,2,1,5,23,19,1007,78,2,20140724180000
1149,"Changli EPA, Qinhuangdao",,39.714369,119.173237,184,92,10,25,10,8,,,,,,20140724180000
432,Qinhuangdao,,39.936485,119.606263,151,60,23,16,12,10,23,19,1007,78,2,20140724180000
433,"CongTai Park, Handan",,36.620197,114.501891,164,68,11,26,27,7,24,17,1007,56,1,20140724180000
434,"City EPA, Handan",,36.618145,114.518822,216,78,22,37,8,10,24,17,1007,56,1,20140724180000
435,"East Sewage Factory, Handan",,36.616064,114.548714,149,94,12,12,19,4,24,17,1007,56,1,20140724180000
436,"Mine Hospital, Handan",,36.578149,114.509854,163,75,13,46,25,3,24,17,1007,56,1,20140724180000
1150,"Fengfeng mine Inland Revenue Department, Handan",,36.423085,114.245994,107,86,28,22,45,4,24,14,1006,43,3,20140724180000
1151,"Shexian EPA, Handan",,36.589084,113.692341,85,44,31,10,5,6,,,,,,20140724180000
1152,"Ci County Vocational Education Center, Handan",,36.380247,114.390119,149,64,0,36,11,0,,,,,,20140724180000
1153,"Yongnian government guesthouse, Handan",,36.783297,114.502905,152,81,16,22,15,7,24,17,1007,56,1,20140724180000
1154,"Wuan BDA, Handan",,36.686223,114.269009,82,67,25,1,1,8,,,,,,20140724180000
1085,Handan,,36.625683,114.544812,216,93,22,37,27,10,24,17,1007,56,1,20140724180000
437,"Road and Bridge Corporation, Xingtai",,37.096415,114.538799,50,83,25,33,17,2,24,17,1007,56,1,20140724180000
438,"Dahuo fontain, Xingtai",,37.097563,114.488001,82,74,30,17,14,5,24,17,1007,56,1,20140724180000
439,"Xingtai Normal College, Xingtai",,37.053404,114.531819,76,84,26,30,14,4,24,17,1007,56,1,20140724180000
440,"Environment protection office, Xingtai",,37.06253,114.490985,59,65,33,16,53,4,24,17,1007,56,1,20140724180000
1155,"Cultural centers within the mound, Xingtai",,37.293569,114.524873,134,85,35,16,20,3,24,17,1007,56,1,20140724180000
383,Xingtai,,37.071066,114.510749,82,84,33,33,53,5,24,17,1007,56,1,20140724180000
441,"City Monitoring Station, Baoding",,38.871737,115.527103,174,111,37,12,17,12,26,21,1007,68,2,20140724180000
442,"Surface water Company, Baoding",,38.842891,115.467326,228,127,23,31,38,15,26,21,1007,68,2,20140724180000
443,"Huadian II, Baoding",,38.896748,115.528102,208,130,40,18,5,12,26,21,1007,68,2,20140724180000
444,"Reception Center, Baoding",,38.911905,115.477301,183,108,28,35,3,11,26,21,1007,68,2,20140724180000
445,"Film Factory, Baoding",,38.876949,115.448383,195,135,33,26,14,17,26,21,1007,68,2,20140724180000
446,"Natatorium, Baoding",,38.863815,115.499212,190,124,36,10,29,0,26,21,1007,68,2,20140724180000
1156,"Qingyuan City Hall, Baoding",,38.771758,115.502189,271,175,29,38,25,15,26,21,1007,68,2,20140724180000
1157,"Xushui EPA, Baoding",,39.025781,115.668023,180,93,35,7,14,9,26,21,1007,68,2,20140724180000
1158,"Zhouzhou Monitoring Stations, Baoding",,39.493241,116.040187,163,78,29,12,7,3,26,21,1007,68,2,20140724180000
1159,"Gaobeidian EPA, Baoding",,39.3329,115.885891,167,94,29,27,29,5,26,21,1007,68,2,20140724180000
447,Baoding,,38.874791,115.471124,271,175,40,38,38,17,26,21,1007,68,2,20140724180000
448,"Century Compound, Zhangjiakou",,40.770279,114.909106,38,69,12,6,7,2,23,12,1006,38,3,20140724180000
449,"North Pumping Station, Zhangjiakou",,40.874362,114.910119,91,30,91,12,20,9,23,12,1006,38,3,20140724180000
450,"Hardware Warehouse, Zhangjiakou",,40.81232,114.887119,55,47,25,16,14,12,23,12,1006,38,3,20140724180000
451,"Tanji Chang, Zhangjiakou",,40.796301,114.89811,63,25,50,7,10,5,23,12,1006,38,3,20140724180000
1160,"Xiahuayuan EPA, Zhangjiakou",,40.509345,115.302442,124,79,25,15,9,2,23,12,1006,38,3,20140724180000
1161,"Huaian EPA, Zhangjiakou",,40.68157,114.398646,127,45,42,13,24,1,23,12,1006,38,3,20140724180000
1162,"Huailai Fuqian Primary School, Zhangjiakou",,40.422204,115.530285,154,73,50,2,24,0,23,12,1006,38,3,20140724180000
452,Zhangjiakou,,40.825744,114.893659,134,69,50,16,14,12,23,12,1006,38,3,20140724180000
453,"Railway, Chengde",,40.917557,117.972331,82,54,18,18,1,5,21,19,1008,86,0,20140724180000
454,"Cultural Center, Chengde",,40.974625,117.824437,55,57,25,14,3,5,21,19,1008,86,0,20140724180000
455,"Bank of China, Chengde",,40.985582,117.958304,89,40,17,21,18,6,21,19,1008,86,0,20140724180000
456,"BDA, Chengde",,40.937567,117.969325,107,56,15,22,9,7,21,19,1008,86,0,20140724180000
457,"Ligong, Chengde",,41.012579,117.94428,161,60,8,4,1,5,21,19,1008,86,0,20140724180000
1163,"Chengde County EPA, Chengde",,40.776643,118.17646,152,69,19,13,3,6,21,19,1008,86,0,20140724180000
1164,"Xinglong County City Hall, Chengde",,40.424301,117.513488,117,53,21,14,3,7,21,19,1008,86,0,20140724180000
1165,"Luanping EPA, Chengde",,40.950792,117.350715,82,43,25,22,1,8,21,19,1008,86,0,20140724180000
1166,"Fengning County City Hall, Chengde",,41.216739,116.658037,99,33,36,1,4,4,21,19,1008,86,0,20140724180000
458,Chengde,,40.955652,117.968737,161,60,25,22,18,7,21,19,1008,86,0,20140724180000
459,"Municipal EPB, Cangzhou",,38.323507,116.876746,85,34,25,11,4,6,23,18,1007,73,2,20140724180000
460,"Cangxian Urban Construction Bureau, Cangzhou",,38.299495,116.890734,104,55,25,9,5,4,23,18,1007,73,2,20140724180000
461,"TV Broadcast Station, Cangzhou",,38.325525,116.863761,104,51,19,8,5,4,23,19,1006,78,2,20140724180000
1167,"Qing County City Hall, Cangzhou",,38.589643,116.815876,162,75,17,26,6,7,23,18,1007,73,2,20140724180000
1168,"Poyoushi City Hall, Cangzhou",,38.089516,116.590575,161,70,47,16,17,4,23,18,1007,73,2,20140724180000
1169,"Huanghua Finance Bureau Training Center, Cangzhou",,38.377793,117.343356,61,12,31,7,30,1,23,18,1007,73,2,20140724180000
462,Cangzhou,,38.305035,116.844625,104,55,25,11,5,6,23,18,1007,73,2,20140724180000
463,"Environmental Monitoring Supervision Center, Langfang",,39.558157,116.720995,163,88,45,31,6,13,23,19,1007,78,2,20140724180000
464,"TCM Medical Material Company, Langfang",,39.519096,116.689914,168,90,19,28,4,18,23,19,1007,78,2,20140724180000
465,"BDA, Langfang",,39.576175,116.779041,170,89,13,36,9,14,23,19,1007,78,2,20140724180000
466,"North China Institute of Aerospace, Langfang",,39.53517,116.743027,171,102,14,10,5,18,23,19,1007,78,2,20140724180000
1170,"Guan Party School, Langfang",,39.446185,116.311026,181,87,24,23,6,6,23,19,1007,78,2,20140724180000
1171,"Xianghe EPA, Langfang",,39.76725,117.015252,231,152,27,26,10,19,23,19,1007,78,2,20140724180000
1172,"Wenan County EPA, Langfang",,38.880927,116.47001,185,101,23,33,12,14,23,19,1007,78,2,20140724180000
1173,"Three Rivers Department of Transportation, Langfang",,39.989419,117.091528,202,133,19,31,15,20,23,19,1007,78,2,20140724180000
467,Langfang,,39.539148,116.689668,171,102,45,36,9,18,23,19,1007,78,2,20140724180000
468,"Hengshui City EPB, Hengshui",,37.739679,115.695929,190,74,37,7,11,8,21,17,0,75,4,20140724180000
469,"Environmental Monitoring Station, Hengshui",,37.738593,115.648837,181,74,43,19,5,8,21,17,0,75,4,20140724180000
470,"Electrical Machine North Factory, Hengshui",,37.758686,115.70094,178,106,27,14,11,7,21,17,0,75,4,20140724180000
1174,"Anping EPA, Hengshui",,38.238559,115.537988,224,119,36,19,15,10,21,17,0,75,4,20140724180000
1175,"Jizhou EPA, Hengshui",,37.548552,115.58679,187,128,46,8,5,7,21,17,0,75,4,20140724180000
471,Hengshui,,37.739562,115.676066,190,121,46,31,11,8,21,17,0,75,4,20140724180000
1176,"Xinji City Hall, Xinji",,37.949711,115.230084,215,118,21,34,14,9,21,17,0,75,4,20140724180000
472,"Fukang road, Tianjin",,39.098136,117.157621,72,29,22,16,12,16,23,19,1006,78,2,20140724180000
473,"Nankou road, Tianjin",,39.174022,117.199688,114,63,17,36,1,15,23,19,1006,78,2,20140724180000
474,"Qinjian street, Tianjin",,39.166588,117.15104,107,63,17,38,11,17,23,19,1006,78,2,20140724180000
475,"Nanjing Road, Tianjin",,39.120958,117.195112,82,40,24,24,12,18,23,19,1006,78,2,20140724180000
476,"Dazhigu No.8 road, Tianjin",,39.111811,117.25147,99,34,17,17,10,18,23,19,1006,78,2,20140724180000
477,"Qianjin street, Tianjin",,39.09371,117.207981,76,39,26,17,14,14,23,19,1006,78,2,20140724180000
478,"Huaihe street, Tianjin",,39.227167,117.191293,151,94,15,46,13,16,23,19,1006,78,2,20140724180000
479,"Xiangshan street, Tianjin",,39.134752,117.275125,82,52,19,11,8,14,23,19,1006,78,2,20140724180000
480,"Yuejin Road, Tianjin",,39.088177,117.320884,91,62,19,41,6,14,23,19,1006,78,2,20140724180000
481,"Zhujiang street, Tianjin",,39.064463,117.231268,63,40,19,28,7,16,23,19,1006,78,2,20140724180000
482,"No.4 street, Tianjin",,39.035228,117.713424,76,30,21,29,6,8,23,19,1006,78,2,20140724180000
483,"Yongming road, Tianjin",,38.840392,117.463805,76,40,31,25,9,7,23,19,1006,78,2,20140724180000
484,"Xinhua street, Tianjin",,39.138671,117.010083,122,55,19,38,10,14,23,19,1006,78,2,20140724180000
485,"Jingu Road, Tianjin",,38.985659,117.381254,76,34,27,25,7,12,23,19,1006,78,2,20140724180000
486,"Tanggu Yingkou street, Tianjin",,39.021768,117.656454,38,40,23,21,7,11,23,19,1006,78,2,20140724180000
487,"Hexi Yijing road, Tianjin",,39.248392,117.798043,76,40,29,10,11,7,23,19,1006,78,2,20140724180000
488,"Jianshe Road, Tianjin",,39.720075,117.310588,76,40,17,32,9,24,23,19,1006,78,2,20140724180000
489,"Quanzhou South road, Tianjin",,39.373857,117.050329,76,59,19,23,6,18,23,19,1006,78,2,20140724180000
490,"Donghuan road, Tianjin",,40.043144,117.451062,76,81,19,30,3,21,23,19,1006,78,2,20140724180000
491,"Tuanpowa, Tianjin",,38.920418,117.16299,68,32,32,12,4,15,23,19,1006,78,2,20140724180000
492,"Guangming Road, Tianjin",,39.329193,117.822791,-,-,-,-,-,-,-,-,0,-,-,20140724180000
493,"Beiwei No.2 road, Tianjin",,38.943857,116.920624,147,55,30,20,9,14,23,19,1006,78,2,20140724180000
494,"Haitai fazhan No.2 road, Tianjin",,39.079608,117.096583,85,40,22,25,9,20,23,19,1006,78,2,20140724180000
495,"Hangtian road, Tianjin",,39.152244,117.381309,74,36,18,28,10,14,23,19,1006,78,2,20140724180000
496,"Hanbei road, Tianjin",,39.159768,117.770477,76,40,34,11,9,7,23,19,1006,78,2,20140724180000
497,"Baobai highway, Tianjin",,39.51757,117.349635,153,82,21,13,10,12,23,19,1006,78,2,20140724180000
498,Tianjin,,39.085164,117.207281,82,40,26,28,14,15,23,19,1006,78,2,20140724180000
499,"Wolong bridge, Hangzhou",,30.24371,120.132762,61,10,9,6,4,3,29,22,996,66,2,20140724180000
500,"Hemu primary school, Hangzhou",,30.309669,120.124507,63,14,24,12,2,5,29,22,996,66,2,20140724180000
501,"Zhejiang Agricultural University, Hangzhou",,30.265601,120.197583,53,19,16,5,2,5,29,22,996,66,2,20140724180000
502,"Xiasha, Hangzhou",,30.303516,120.352618,70,36,16,11,3,6,29,22,996,66,2,20140724180000
503,"Yunqi, Hangzhou",,30.178555,120.093142,38,22,12,4,4,4,29,22,996,66,2,20140724180000
504,"Xixi, Hangzhou",,30.272425,120.068144,50,8,24,6,2,6,29,22,996,66,2,20140724180000
505,"Chengxiang town, Hangzhou",,30.179493,120.274184,59,26,16,6,4,6,29,22,996,66,2,20140724180000
506,"Qiandao lake, Hangzhou",,29.638139,119.031092,13,8,28,5,2,5,29,22,996,66,2,20140724180000
507,"Linping town, Hangzhou",,30.415948,120.305059,74,35,17,13,7,5,29,22,996,66,2,20140724180000
509,"No.2 Middle School, Hangzhou",,30.044303,119.956356,57,20,14,4,5,6,29,22,996,66,2,20140724180000
510,"City Hall, Hangzhou",,30.234185,119.723503,17,17,29,3,3,6,29,22,996,66,2,20140724180000
511,"No. 4 middle school, Hangzhou",,30.229428,119.699591,34,12,2,7,6,3,29,22,996,66,2,20140724180000
512,Hangzhou,,30.271756,120.159765,65,22,24,12,4,6,29,22,996,66,2,20140724180000
513,"City Station, Wenzhou",,28.009715,120.679129,70,32,20,10,4,8,25,24,0,94,4,20140724180000
514,"Ouhai, Wenzhou",,28.001846,120.641982,171,0,17,17,3,2,25,24,0,94,4,20140724180000
515,"Longwan, Wenzhou",,27.968122,120.768393,169,101,32,3,1,3,25,24,0,94,4,20140724180000
516,"Nanpu, Wenzhou",,27.981763,120.683685,68,36,18,12,5,9,25,24,0,94,4,20140724180000
517,Wenzhou,,27.990985,120.703425,171,101,32,17,5,9,25,24,0,94,4,20140724180000
518,"Monitoring station, Jiaxing",,30.75437,120.767373,59,32,25,6,4,5,30,24,996,70,9,20140724180000
519,"Jiaxing University, Jiaxing",,30.745099,120.735004,68,27,27,6,4,1,30,24,996,70,8,20140724180000
520,"Qinghe Primary School, Jiaxing",,30.775685,120.747969,59,29,27,7,3,4,30,24,997,70,9,20140724180000
521,Jiaxing,,30.751627,120.762862,59,32,27,6,4,5,30,24,996,70,9,20140724180000
522,"Chengbei water plant, Huzhou",,30.891155,120.096593,68,38,15,10,4,7,30,24,996,70,9,20140724180000
523,"Jishan new village, Huzhou",,30.859939,120.120168,65,32,16,8,9,6,30,24,996,70,8,20140724180000
524,"Town west water plant, Huzhou",,30.862371,120.084577,61,36,15,6,3,5,30,24,996,70,9,20140724180000
525,Huzhou,,30.892304,120.091694,68,38,16,10,5,7,30,24,996,70,9,20140724180000
526,"Donghu middle school, Shaoxing",,29.990447,120.647547,-,-,-,-,-,-,-,-,0,-,-,20140724180000
527,"City EPA station, Shaoxing",,30.001695,120.584318,50,25,30,6,2,2,30,21,996,58,5,20140724180000
528,"Chengdong BDA committee, Shaoxing",,29.986643,120.613578,53,12,31,2,8,2,30,21,996,58,5,20140724180000
529,"Paojiang station, Shaoxing",,30.07574,120.62154,30,14,31,4,5,5,29,22,996,66,2,20140724180000
530,"Shaoxing technical school, Shaoxing",,29.930983,120.577131,87,0,9,2,2,3,29,22,996,66,2,20140724180000
531,"Library, Shaoxing",,29.706266,120.253183,59,40,11,8,3,11,29,22,996,66,2,20140724180000
532,"Transporation management station, Shaoxing",,29.726405,120.221602,59,31,19,1,6,9,29,22,996,66,2,20140724180000
533,"Dongpu Town Governement, Shaoxing",,30.049601,120.539893,53,21,30,1,2,6,29,22,996,66,2,20140724180000
534,Shaoxing,,29.993122,120.590182,53,12,31,6,8,2,30,21,996,58,5,20140724180000
535,"City Monitoring Station, Jinhua",,29.100031,119.690373,34,8,17,6,2,6,24,24,0,97,3,20140724180000
536,"No.15 middle school, Jinhua",,29.074022,119.652121,57,14,16,6,5,7,24,24,0,97,3,20140724180000
537,"No.4 middle school, Jinhua",,29.110109,119.653654,55,17,11,11,5,10,24,24,0,97,3,20140724180000
538,"Beiyuan, Jinhua",,29.332898,120.083351,59,24,17,6,9,7,24,24,0,97,3,20140724180000
539,"Jiangdong, Jinhua",,29.302486,120.095291,38,15,25,4,5,6,24,24,0,97,3,20140724180000
597,"Yuhong Elementary School , Wuxi",,31.561155,120.249588,55,37,24,4,10,7,30,24,996,70,9,20140724180000
540,Jinhua,,29.076083,119.65215,61,28,17,20,6,10,24,24,0,97,3,20140724180000
541,"EPA building, Quzhou",,28.937291,118.876081,55,14,21,1,12,4,25,25,998,93,6,20140724180000
542,"Experimental school, Quzhou",,28.961502,118.880916,57,0,15,4,3,2,25,25,998,93,6,20140724180000
543,"Quzhou University, Quzhou",,28.971452,118.860052,46,20,25,2,2,5,25,25,998,93,6,20140724180000
544,Quzhou,,28.966994,118.864252,57,20,25,4,12,5,25,25,998,93,6,20140724180000
545,"Putuo east port, Zhoushan",,29.951412,122.317679,53,32,17,1,2,7,30,24,998,70,8,20140724180000
546,"Dinghai tanfeng, Zhoushan",,30.018014,122.126566,50,33,22,1,2,3,30,24,998,70,6,20140724180000
547,Zhoushan,,29.983049,122.210763,70,32,22,1,2,7,30,24,998,70,8,20140724180000
548,"Taizhou EPA building, Taizhou",,28.651216,121.42331,61,26,22,1,1,4,26,25,0,91,5,20140724180000
549,"Luqiao Tian Yang Wang, Taizhou",,28.574364,121.381194,61,32,29,2,1,3,26,25,0,91,5,20140724180000
550,"Huangyan EPA building, Taizhou",,28.656151,121.285064,59,25,32,1,2,9,26,25,0,91,5,20140724180000
551,"Yu Zhuang Qian, Lishui",,28.419638,119.883884,50,20,22,19,6,6,28,24,1000,78,1,20140724180000
552,"Monitoring station building, Lishui",,28.444379,119.923103,46,25,11,8,1,7,28,24,1000,78,1,20140724180000
553,"Liandu primary school, Lishui",,28.450912,119.939332,46,21,16,12,2,8,28,24,1000,78,1,20140724180000
554,Lishui,,28.464224,119.927201,50,25,22,19,6,8,28,24,1000,78,1,20140724180000
555,Taigu Primary School,,29.858177,121.593738,50,30,27,4,2,4,30,24,998,70,6,20140724180000
556,Qianhu shuihan,,29.862459,121.5328,59,34,22,1,2,4,30,24,998,70,6,20140724180000
557,Sanjiang secondary schools,,29.884687,121.562713,55,33,25,4,3,3,30,24,998,70,6,20140724180000
558,Longsai Hospital,,29.949294,121.720671,61,25,28,8,6,5,30,24,998,70,6,20140724180000
559,Beilun District EPB,,29.899544,121.827597,63,46,26,1,2,3,30,24,998,70,6,20140724180000
560,Wanli University,,29.896155,121.541154,57,30,14,3,2,8,30,24,998,70,6,20140724180000
561,Qianhu water plant,,29.788156,121.652415,53,26,25,4,3,4,30,24,998,70,6,20140724180000
562,Municipal management station,,29.893743,121.620269,55,44,25,1,3,4,30,24,998,70,6,20140724180000
1177,Daxie Literary Museum,,29.891281,121.952741,57,39,21,1,2,4,30,24,998,70,6,20140724180000
1178,Cixi EPB,,30.159852,121.242331,50,25,28,2,2,5,30,24,998,70,6,20140724180000
1179,Cixi Experimently Primary School,,30.174341,121.262169,55,22,30,4,2,3,30,24,998,70,6,20140724180000
1180,"Yongsan Park, Yuyao",,30.045532,121.157602,46,13,29,1,1,17,30,24,998,70,6,20140724180000
1181,"Qilupu Water Company, Yuyao",,30.039112,121.133416,46,13,24,1,3,3,30,24,998,70,6,20140724180000
1182,Fenghua EPB,,29.660537,121.414074,72,8,28,4,2,7,30,24,998,70,6,20140724180000
1183,"Yuelong station, Ninghai",,29.290223,121.439263,87,36,26,7,3,4,30,24,998,70,6,20140724180000
1184,"Wenfeng Primary School, Xiangshan",,29.470841,121.895054,87,31,24,1,2,5,30,24,998,70,6,20140724180000
1185,"Chengnan Primary School, Ninghai",,29.282647,121.428839,53,22,32,1,4,4,30,24,998,70,6,20140724180000
1186,"Xingang Primary School, Xiangshan",,29.199718,121.935879,38,43,26,3,2,3,30,24,998,70,6,20140724180000
1187,Fuyang,,30.046157,119.96468,57,14,15,3,7,6,-,-,0,-,-,20140724180000
1188,Yiwu,,29.304353,120.079794,59,24,25,8,7,7,-,-,0,-,-,20140724180000
1189,Zhuji,,29.711185,120.240748,57,28,19,4,4,11,30,21,996,58,5,20140724180000
563,"Shanxi Road , Nanjing",,32.06795,118.779216,82,46,29,10,5,3,26,25,992,94,2,20140724180000
564,"Ruijin Road , Nanjing",,32.029321,118.80817,80,27,14,7,6,6,26,25,992,94,2,20140724180000
565,"Xuanwu Lake, Nanjing",,32.075423,118.800188,59,26,28,7,2,3,26,25,992,94,2,20140724180000
566,"Olympic Center, Nanjing",,32.007171,118.742217,50,30,19,6,2,6,26,25,992,94,2,20140724180000
567,"Xianlin University Town , Nanjing",,32.106958,118.919882,55,26,23,5,1,5,26,25,992,94,2,20140724180000
568,Nanjing,,32.058179,118.802061,65,30,25,10,4,7,26,25,992,94,2,20140724180000
569,"Shangfang hill , Suzhou",,31.24502,120.565211,61,28,22,7,5,5,30,24,996,70,10,20140724180000
570,"Wuzhong District , Suzhou",,31.268105,120.61717,50,15,20,15,4,3,30,24,996,70,9,20140724180000
571,"Suzhou New District , Suzhou",,31.297277,120.547262,68,24,31,11,12,6,30,24,996,70,10,20140724180000
572,"Suzhou Industrial Area, Suzhou",,31.307603,120.673257,63,26,25,4,1,4,30,24,996,70,10,20140724180000
573,"Xiangcheng district, Suzhou",,31.368674,120.645209,59,19,22,10,5,7,30,24,996,70,10,20140724180000
574,Suzhou,,31.296701,120.589493,68,111,31,15,9,4,30,24,996,70,10,20140724180000
575,"South suburb , Nantong",,31.957836,120.917218,65,50,23,8,4,3,26,24,1003,90,6,20140724180000
576,"Xinghu park, Nantong",,31.927873,120.944254,57,50,24,8,7,5,26,24,1003,90,6,20140724180000
577,"Zilang school, Nantong",,32.039638,120.814358,68,51,18,14,9,0,26,24,1003,89,6,20140724180000
578,Nantong,,31.978005,120.898555,82,58,24,14,9,3,26,24,1003,90,6,20140724180000
579,Lianyungang,,34.595509,119.226814,152,84,21,27,10,7,8,8,1016,96,0,20140724180000
580,"Hongmen police substation, Lianyungang",,34.588692,119.146693,46,55,13,3,3,4,27,26,996,96,6,20140724180000
581,"Xugou Nuclear Expert Village , Lianyungang",,34.749957,119.373707,59,31,18,9,3,4,27,26,996,96,6,20140724180000
582,"Hengrui pharmaceutical company, BDA, Lianyungang",,34.697574,119.353668,72,27,19,7,2,2,27,26,996,96,6,20140724180000
583,"City Monitoring Station, Lianyungang",,34.586791,119.186929,74,46,15,3,1,5,27,26,996,96,6,20140724180000
584,"Yellow river new village , Xuzhou",,34.271542,117.177241,53,21,15,10,20,14,26,24,999,86,1,20140724180000
585,"Tongshan Veterinary Hospital , Xuzhou",,34.307086,117.197766,78,23,13,17,16,12,24,23,998,90,2,20140724180000
586,"New Town , Xuzhou",,34.213992,117.261718,95,21,15,9,2,11,24,23,998,90,2,20140724180000
587,"Taoyuan road, Xuzhou",,34.289822,117.249721,68,21,20,12,9,15,24,23,998,90,2,20140724180000
588,"Agricultural Science Academy , Xuzhou",,34.27655,117.299079,109,56,19,12,2,10,24,23,998,90,2,20140724180000
589,"Tongshan EPA, Xuzhou",,34.179384,117.171798,107,22,10,4,9,9,24,23,998,90,2,20140724180000
590,Xuzhou,,34.20346,117.289825,124,29,20,17,19,15,26,24,999,86,1,20140724180000
591,Yangzhou,,32.39233,119.418446,159,69,10,19,10,5,11,9,0,90,6,20140724180000
592,"Hanjiang Monitoring Station, Yangzhou",,32.374218,119.394484,89,38,22,11,2,6,25,25,0,98,3,20140724180000
593,"No. 4 Hospital, Yangzhou",,32.401394,119.44444,114,51,23,4,5,3,25,25,0,98,3,20140724180000
594,"City Monitoring Station, Yangzhou",,32.406588,119.41591,55,23,21,9,20,5,25,25,0,98,3,20140724180000
595,"University Town , Wuxi",,31.484752,120.273571,68,40,27,4,4,3,30,24,996,70,10,20140724180000
596,"Shibei High School , Wuxi",,31.619969,120.279584,61,43,23,5,8,4,30,24,996,70,9,20140724180000
599,Changzhou,,31.808037,119.979205,172,86,6,22,36,13,11,9,0,88,5,20140724180000
600,"Chengjian School, Changzhou",,31.776476,119.937681,61,39,24,7,8,5,25,24,1003,96,4,20140724180000
601,"Changzhou Engineering Institute , Changzhou",,31.806828,119.966724,53,27,24,10,11,6,25,24,1003,96,4,20140724180000
602,"Wujin Monitoring Station, Changzhou",,31.701788,119.939676,57,24,34,5,6,5,25,24,1003,96,4,20140724180000
603,"City Monitoring Station, Changzhou",,31.777201,119.979426,57,32,22,7,14,6,25,24,1003,96,4,20140724180000
604,Zhenjiang,,32.18597,119.431281,170,79,4,39,15,13,9,8,0,93,5,20140724180000
605,"New District Administrative office , Zhenjiang",,32.186174,119.685021,57,36,16,7,10,13,26,25,992,94,2,20140724180000
606,"Vocational Education Center , Zhenjiang",,32.212973,119.496253,34,11,13,3,4,10,26,25,992,94,2,20140724180000
607,"Dantu Monitoring Station , Zhenjiang",,32.130026,119.435432,38,13,23,3,15,7,26,25,992,94,2,20140724180000
608,"City Monitoring Station, Zhenjiang",,32.202178,119.439766,42,17,15,7,15,9,26,25,992,94,2,20140724180000
609,"Gaogang Adminstrative office , Taizhoushi",,32.300768,119.886757,82,45,16,7,11,7,25,25,0,98,3,20140724180000
610,"Students Innovation Park , Taizhoushi",,32.461672,119.892761,107,38,24,4,15,4,25,25,0,98,3,20140724180000
611,Taizhoushi,,32.453555,119.927852,107,54,18,8,14,8,25,25,0,98,3,20140724180000
612,"Yancheng power station , Yancheng",,33.400859,120.123067,38,37,20,5,2,2,-,-,0,-,-,20140724180000
613,Yancheng,,33.345939,120.168504,144,52,30,5,3,7,11,10,1016,95,4,20140724180000
614,"Wenfeng Middle School , Yancheng",,33.370531,120.134041,42,35,15,12,6,3,-,-,0,-,-,20140724180000
615,"BDA Management Committe, Yancheng",,33.393191,120.22978,50,40,22,5,9,2,-,-,0,-,-,20140724180000
616,"City Monitoring Station, Yancheng",,33.390623,120.164423,70,46,20,7,5,2,25,25,0,98,3,20140724180000
617,Suqian,,33.960666,118.281004,160,87,24,7,5,7,11,10,0,91,6,20140724180000
618,"Suqian College , Suqian",,33.951472,118.298523,76,31,15,12,4,4,25,24,0,97,5,20140724180000
619,"Suqian Middle School , Suqian",,33.95784,118.249505,13,37,12,4,2,3,25,24,0,97,5,20140724180000
620,"Suyu District Environmental Protection Agency , Suqian",,33.94932,118.326569,78,28,19,15,2,5,25,24,0,97,5,20140724180000
621,"City Monitoring Station, Suqian",,33.956982,118.277022,102,43,17,2,2,4,25,24,0,97,5,20140724180000
622,Taizhou,,28.653436,121.425185,59,29,31,1,2,9,26,25,0,91,5,20140724180000
623,Donghu Liyuan,,30.572324,114.377844,137,58,118,11,5,8,27,23,1001,79,2,20140724180000
624,Yuehu Lake,,30.554662,114.256937,117,75,124,6,1,5,27,23,1001,79,2,20140724180000
625,Hankou Huaqiao ,,30.61724,114.287652,152,78,92,19,4,8,27,23,1001,79,2,20140724180000
626,Wuchang Ziyang ,,30.530801,114.309438,129,72,1,11,0,6,27,23,1001,79,2,20140724180000
627,Qingshan Ganghua,,30.622435,114.375599,158,87,83,14,8,8,27,23,1001,79,2,20140724180000
628,Dunkou Xinou,,30.480091,114.162176,134,76,102,13,7,5,27,23,1001,79,2,20140724180000
629,Donghu Gaoxin,,30.48095,114.40724,109,77,107,8,4,7,27,23,1001,79,2,20140724190000
630,Wujianshan,,30.63114,114.135907,154,78,37,15,2,7,27,23,1001,79,2,20140724190000
631,Yuanshun Road,,30.297142,113.858587,119,54,50,3,5,7,27,23,1001,79,2,20140724190000
632,Wuhan,,30.591973,114.306887,158,87,124,19,8,8,27,23,1001,79,2,20140724190000
1190,"Silingsan Factory, Yichang",,30.713288,111.306585,68,33,16,6,18,6,24,23,1003,95,2,20140724190000
633,Yichang,,30.689528,111.292131,89,50,20,6,18,9,24,23,1003,95,2,20140724190000
633,Yichang,,30.689528,111.292131,89,50,20,6,18,9,24,23,1003,95,2,20140724190000
1191,"City Library , Jingzhou",,30.31494,112.260844,78,50,7,10,5,7,31,24,1000,59,1,20140724190000
1192,"City committee communist party school, Jingzhou",,30.35054,112.20743,76,52,43,10,6,11,31,24,1000,59,1,20140724190000
1193,"kerong EPA, Jingzhou",,30.302965,112.29443,107,42,39,9,3,10,31,24,1000,59,1,20140724190000
634,Jingzhou,,30.332608,112.245451,107,52,43,10,6,11,31,24,1000,59,1,20140724190000
634,Jingzhou,,30.332608,112.245451,107,52,43,10,6,11,31,24,1000,59,1,20140724190000
635,Huangshi,,30.19723,115.043908,156,75,124,11,16,0,26,23,1003,83,5,20140724190000
635,Huangshi,,30.19723,115.043908,156,75,124,11,16,0,26,23,1003,83,5,20140724190000
1194,"Chenjiaying, Huangshi",,30.232823,115.067923,153,73,,4,4,0,26,,1003,83,5,20140724190000
1195,"Chenjiawan , Huangshi",,30.200422,115.082138,156,74,,6,1,0,26,,1003,83,5,20140724190000
1196,"Xinxialu, Huangshi",,30.17332,114.954357,151,75,,9,16,0,26,,1003,83,5,20140724190000
1197,"Tie montian, Huangshi",,30.203885,114.906439,153,75,,11,15,0,26,,1003,83,5,20140724190000
1198,"BDA, Huangshi",,30.207491,115.031739,153,67,,1,3,0,26,,1003,83,5,20140724190000
636,Shiyan,,32.627208,110.803311,87,49,21,7,6,0,17,24,940,92,1,20140724190000
636,Shiyan,,32.627208,110.803311,87,49,21,7,6,0,17,24,940,92,1,20140724190000
1199,"Wudang Mountain , Shiyan",,32.392921,111.047655,42,11,,1,2,0,21,,954,90,1,20140724190000
1200,"Riverside Village , Shiyan",,32.647286,110.785335,76,49,,7,5,0,17,,940,92,1,20140724190000
1201,"Liujiagou , Shiyan",,32.636732,110.731129,87,73,,6,2,0,17,,940,92,1,20140724190000
1202,"Yunyang County District automatic air station , Shiyan",,32.833065,110.816809,17,29,,3,1,0,17,,940,92,1,20140724190000
637,Xiangyang,,32.007029,112.128496,78,73,,2,2,0,24,,1005,65,5,20140724190000
637,Xiangyang,,32.007029,112.128496,78,73,,2,2,0,24,,1005,65,5,20140724190000
638,Ezhou,,30.389244,114.899884,163,83,124,6,8,0,28,23,1011,76,6,20140724190000
638,Ezhou,,30.389244,114.899884,163,83,124,6,8,0,28,23,1011,76,6,20140724190000
1203,"City government, Ezhou",,30.391836,114.892822,151,64,,6,3,0,28,,1011,76,6,20140724190000
1204,"Zhaojiaba, Ezhou",,30.368966,114.90365,163,83,,6,8,0,28,,1011,76,6,20140724190000
1205,"Fankou BDA, Ezhou",,30.410759,114.818225,153,66,,3,2,0,28,,1011,76,6,20140724190000
639,Jingmen,,31.033208,112.205093,162,-,35,-,-,14,-,28,0,-,-,20140724190000
639,Jingmen,,31.033208,112.205093,162,-,35,-,-,14,-,28,0,-,-,20140724190000
640,Xiaogan,,30.922089,113.922387,154,76,124,2,2,0,27,23,1001,78,2,20140724190000
640,Xiaogan,,30.922089,113.922387,154,76,124,2,2,0,27,23,1001,78,2,20140724190000
1206,"wenhua street, Shenyang , Xiaogan",,30.925856,113.92104,154,76,37,2,2,0,27,23,1001,78,2,20140724190000
1207,"Dongcheng District , Huludao , Xiaogan",,30.917963,113.943904,154,70,37,1,1,0,27,23,1001,78,2,20140724190000
641,Huanggang,,30.45124,114.877378,151,60,124,1,5,0,28,23,1011,76,6,20140724190000
641,Huanggang,,30.45124,114.877378,151,60,124,1,5,0,28,23,1011,76,6,20140724190000
1208,"Dazhou Island, Huanggang",,30.446205,114.900323,139,76,,2,1,0,28,,1011,76,6,20140724190000
1209,"Workers Center , Huanggang",,30.469244,114.912504,151,60,,1,5,0,28,,1011,76,6,20140724190000
642,Xianning,,29.838978,114.327898,159,79,124,4,2,0,24,23,976,95,1,20140724190000
642,Xianning,,29.838978,114.327898,159,79,124,4,2,0,24,23,976,95,1,20140724190000
1210,"Municipal Development and Reform Commission , Xianning",,29.818645,114.328461,159,79,,2,1,0,24,,976,95,1,20140724190000
1211,"Xianan District Governement, Xianning",,29.51107,114.181864,157,79,,6,4,0,24,,986,84,1,20140724190000
1212,"Yangtze River Industrial Park , Xianning",,29.883098,114.32909,159,74,,4,2,0,24,,976,95,1,20140724190000
1213,"Qianshan Park, Xianning",,29.815351,114.328689,153,71,,2,2,0,24,,976,95,1,20140724190000
643,Suizhou,,31.688342,113.388675,153,-,,-,-,0,-,,0,-,-,20140724190000
643,Suizhou,,31.688342,113.388675,153,-,,-,-,0,-,,0,-,-,20140724190000
644,Enshi,,30.269587,109.493042,132,-,39,-,-,13,-,26,0,-,-,20140724190000
644,Enshi,,30.269587,109.493042,132,-,39,-,-,13,-,26,0,-,-,20140724190000
645,Xiantao,,30.360228,113.460616,153,-,29,-,-,0,-,28,0,-,-,20140724190000
645,Xiantao,,30.360228,113.460616,153,-,29,-,-,0,-,28,0,-,-,20140724190000
646,Qianjiang,,30.399387,112.905661,162,-,35,-,-,14,-,28,0,-,-,20140724190000
646,Qianjiang,,30.399387,112.905661,162,-,35,-,-,14,-,28,0,-,-,20140724190000
647,Tianmen,,30.661027,113.172549,153,-,35,-,-,0,-,28,0,-,-,20140724190000
647,Tianmen,,30.661027,113.172549,153,-,35,-,-,0,-,28,0,-,-,20140724190000
1088,Shennongjia,,31.741307,110.685554,93,-,20,-,-,0,-,26,0,-,-,20140724190000
1088,Shennongjia,,31.741307,110.685554,93,-,20,-,-,0,-,26,0,-,-,20140724190000
1214,"Xiangcheng Yundong Street, Xiangfan",,32.017716,112.16102,78,73,,2,2,0,24,,1005,65,5,20140724190000
655,"City Environmental Monitoring Station, Baotou",,40.657201,109.886738,104,85,24,34,13,12,,,,,,20140724190000
656,"Donghe EPB, Baotou",,40.586213,110.002224,112,101,27,31,12,7,,,,,,20140724190000
657,"Baotou shopping mall, Baotou",,40.508334,109.819085,117,82,24,38,14,13,,,,,,20140724190000
658,"Huilong logistics, Baotou",,40.633436,109.879821,87,70,31,24,11,10,,,,,,20140724190000
659,Baotou,,40.658597,109.846051,127,111,31,38,16,13,21,12,1005,47,2,20140724190000
660,"Huatai Automobile Mall, Eerduosi",,39.837048,109.972209,55,40,70,12,2,3,21,12,1005,47,2,20140724190000
661,"Olympus Garden, Eerduosi",,39.789171,109.987742,85,60,81,17,6,7,21,12,1005,47,2,20140724190000
662,Eerduosi,,39.609284,109.78704,85,64,84,17,12,10,21,12,1005,47,2,20140724190000
663,"Tianyi Road, Chifeng",,42.275552,118.88507,80,47,42,19,32,7,20,14,1009,61,1,20140724190000
664,"Songshan No.1 Middle School, Chifeng",,42.329307,118.793045,134,65,37,13,29,10,20,14,1009,61,1,20140724190000
665,"Hada Street, Chifeng",,42.280714,118.988235,72,54,20,13,37,7,20,14,1009,61,1,20140724190000
666,"Songshan Road, Chifeng",,42.171487,118.89501,93,59,44,10,9,5,20,14,1009,61,1,20140724190000
667,Chifeng,,42.259752,118.893027,134,65,44,19,37,10,20,14,1009,61,1,20140724190000
674,Fuzhou,,26.071406,119.301294,55,20,27,7,4,12,27,25,1004,89,6,20140724190000
675,"Xidong, Xiamen",,24.815345,118.161848,195,42,47,8,2,4,27,27,1004,100,1,20140724190000
676,"Hongwen, Xiamen",,24.473969,118.156281,34,9,31,2,2,3,27,27,1004,100,1,20140724190000
677,"Gulangyu, Xiamen",,24.443168,118.068571,95,42,27,23,15,6,27,27,1004,100,1,20140724190000
678,"Huli, Xiamen",,24.51235,118.099146,99,44,32,16,5,6,27,27,1004,100,1,20140724190000
679,Xiamen,,24.477187,118.094402,99,44,32,16,5,6,-,-,0,-,-,20140724190000
680,"Qingyuan Montain, Quanzhou",,24.939503,118.598337,149,10,18,6,4,4,27,27,1004,100,1,20140724190000
681,"Tushan Street, Quanzhou",,24.90867,118.586397,74,28,24,4,3,7,27,27,1004,100,1,20140724190000
682,"Wanan, Quanzhou",,24.304154,118.070903,46,13,21,2,2,6,27,27,1004,100,1,20140724190000
683,Quanzhou,,24.87179,118.68001,74,33,24,6,4,9,27,27,1004,100,1,20140724190000
687,"Jiancaoping, Taiyuan",,37.887889,112.528383,57,57,27,8,10,5,18,12,1010,68,2,20140724190000
688,"Jianhe, Taiyuan",,37.910779,112.579258,97,71,19,38,23,6,18,12,1010,68,2,20140724190000
689,"Shanglan, Taiyuan",,38.011589,112.440679,38,25,36,17,4,4,18,12,1010,68,2,20140724190000
690,"Jinyuan, Taiyuan",,37.713164,112.475552,42,27,28,17,17,2,18,12,1010,68,2,20140724190000
691,"Xiaodian, Taiyuan",,37.782137,112.483533,38,29,39,10,6,3,18,12,1010,68,2,20140724190000
692,"Taoyuan, Taiyuan",,37.869752,112.543332,80,59,28,34,12,6,18,12,1010,68,2,20140724190000
693,"Wucheng, Taiyuan",,37.819998,112.576252,76,69,33,31,6,5,18,12,1010,68,2,20140724190000
694,"Nanzhai, Taiyuan",,37.985902,112.555312,57,38,24,10,4,6,18,12,1010,68,2,20140724190000
695,"Jinsheng, Taiyuan",,37.781205,112.494494,59,37,35,25,6,7,18,12,1010,68,2,20140724190000
696,Taiyuan,,37.871115,112.555178,80,59,28,34,12,6,18,12,1010,68,2,20140724190000
697,"Monitoring station, Changzhi",,36.194062,113.10389,53,27,30,25,8,5,24,16,1003,61,4,20140724190000
698,"Auditing bureau, Changzhi",,36.212787,113.095221,61,34,28,19,15,10,24,16,1003,61,4,20140724190000
699,"Qinghua station, Changzhi",,36.154328,113.116385,42,33,28,22,7,15,24,16,1003,61,4,20140724190000
700,"No.8 middle school, Changzhi",,36.185451,113.099481,25,27,50,30,5,6,,,,,,20140724190000
701,Changzhi,,36.195553,113.12292,68,37,28,15,7,4,25,14,1005,40,2,20140724190000
702,"Yungang Hotel, Datong",,40.076997,113.278079,82,54,17,26,10,10,14,13,1006,91,1,20140724190000
703,"college of education, Datong",,40.085608,113.27808,89,33,21,18,12,8,14,13,1006,91,1,20140724190000
704,Datong,,40.078016,113.307143,109,55,30,33,16,10,22,14,1005,52,2,20140724190000
705,"Technical Schools, Linfen",,36.07131,111.509046,82,62,26,8,11,17,16,9,0,65,1,20140724190000
706,"Municipal party committee, Linfen",,36.087425,111.508771,70,21,17,1,9,7,16,9,0,65,1,20140724190000
1073,"City Monitoring Station, Linfen",,36.097676,111.518739,127,52,11,9,9,7,16,9,0,65,1,20140724190000
707,"South Airport, Linfen",,36.041614,111.497968,80,37,12,14,19,21,16,9,0,65,1,20140724190000
708,Linfen,,36.087944,111.525098,127,62,30,12,16,18,16,9,0,65,1,20140724190000
709,"City center, Yangquan",,37.848012,113.578636,76,763,16,25,11,6,17,12,1010,72,1,20140724190000
710,Yangquan,,37.857475,113.586921,59,763,26,25,19,16,18,12,1010,68,2,20140724190000
711,"Water Company, Jincheng",,35.504787,112.857245,55,29,31,7,5,10,20,15,1006,67,2,20140724190000
712,"Baiyun shopping mall, Jincheng",,35.492858,112.841566,55,45,15,9,8,10,20,15,1006,67,2,20140724190000
713,"City EPA, Jincheng",,35.488422,112.858528,132,71,6,11,18,15,25,14,1005,40,2,20140724190000
714,"Institute of Technology, Jincheng",,35.484844,112.878073,68,38,22,15,10,9,20,15,1006,67,2,20140724190000
715,"No.1 middle school, Jincheng",,35.478725,112.838636,38,30,9,5,5,5,20,15,1006,67,2,20140724190000
716,Jincheng,,35.490287,112.85794,68,56,31,15,15,15,20,15,1006,67,2,20140724190000
718,"District Government, Shuozhou",,39.320857,112.430641,55,54,26,21,17,21,19,14,1007,61,1,20140724190000
719,"City EPA, Shuozhou",,39.331495,112.407997,89,42,22,24,9,21,19,14,1007,61,1,20140724190000
720,"No.2 middle school, Shuozhou",,39.377963,112.432877,109,65,10,38,36,9,19,14,1007,61,1,20140724190000
721,Shuozhou,,39.332756,112.439672,109,65,22,38,36,21,19,14,1007,61,1,20140724190000
722,"Jinlun compound, Jinzhong",,37.697891,112.771017,50,34,23,20,6,4,17,12,1010,72,1,20140724190000
723,"Hydraulic Component Factory, Jinzhong",,37.688355,112.725844,72,29,25,22,13,4,17,12,1010,72,1,20140724190000
724,"Nandu compound, Jinzhong",,37.713148,112.732036,59,31,13,26,9,6,17,12,1010,72,1,20140724190000
725,"Yuci district government, Jinzhong",,37.698228,112.714167,46,22,31,17,11,4,17,12,1010,72,1,20140724190000
726,Jinzhong,,37.687705,112.759187,72,34,31,26,13,6,17,12,1010,72,1,20140724190000
727,"Yuncheng Middle School, Yuncheng",,35.012345,111.003215,-,-,-,-,-,-,-,-,0,-,-,20140724190000
728,"Yudou BDA, Yuncheng",,35.05065,111.029571,177,122,24,17,35,20,23,20,1005,77,0,20140724190000
730,"Regional Technical School, Yuncheng",,35.028727,110.974076,-,-,-,-,-,-,-,-,0,-,-,20140724190000
731,"Airport new district, Yuncheng",,35.084515,111.05339,155,89,32,58,11,36,21,18,1005,77,1,20140724190000
732,Yuncheng,,35.025675,111.013344,155,103,32,58,38,36,21,18,1005,77,1,20140724190000
733,"Jiyin, Xinzhou",,38.413292,112.742432,59,53,22,16,28,9,17,12,1010,72,1,20140724190000
734,"BDA, Xinzhou",,38.450069,112.736723,76,38,14,11,2,6,17,12,1010,72,1,20140724190000
735,"Convention Center, Xinzhou",,38.492043,112.709772,55,19,10,19,4,14,17,12,1010,72,1,20140724190000
736,Xinzhou,,38.417244,112.740742,76,53,22,19,28,14,17,12,1010,72,1,20140724190000
737,"City EPA, Luliang",,37.522189,111.144365,89,55,10,19,10,17,18,15,0,81,1,20140724190000
738,"Soybean factory, Luliang",,37.51689,111.135101,97,76,5,32,21,21,18,15,0,81,1,20140724190000
739,"Water Company, Luliang",,37.53394,111.138834,87,61,8,23,3,20,18,15,0,81,1,20140724190000
740,Luliang,,25.027007,103.668566,97,76,10,32,21,21,18,15,0,81,1,20140724190000
741,"City government, Sanmenxia",,34.776251,111.198781,151,69,43,19,37,12,23,20,1005,77,0,20140724190000
743,"BDA, Sanmenxia",,34.800434,111.204332,164,94,38,12,6,9,23,20,1005,77,0,20140724190000
744,Sanmenxia,,34.771506,111.206129,164,94,42,12,6,16,23,20,1005,77,0,20140724190000
745,"Food Factory, Changchun",,43.919094,125.329521,284,94,6,33,4,15,15,13,1009,88,1,20140724190000
746,"Bus Factory, Changchun",,43.912337,125.293431,215,139,6,20,4,15,15,13,1009,88,1,20140724190000
747,"Institute of Posts and Telecommunications, Changchun",,43.842368,125.285005,199,164,3,37,6,16,15,13,1009,88,1,20140724190000
748,"Laodong Park, Changchun",,43.877293,125.371519,226,167,12,36,5,15,15,13,1009,88,1,20140724190000
749,"Forest area, Changchun",,43.871825,125.331519,192,151,11,35,6,15,15,13,1009,88,1,20140724190000
750,"Jinyuetan, Changchun",,43.79031,125.460561,186,99,17,4,2,8,15,13,1009,88,1,20140724190000
751,"Shuaiwanzi, Changchun",,43.552321,125.639086,153,67,16,13,1,6,15,13,1009,88,1,20140724190000
824,"Shili, Jiujiang",,29.678969,115.992271,114,55,2,5,7,8,20,20,999,100,6,20140724190000
752,"Economic Development Zone Sanitation Department, Changchun",,43.869221,125.42365,195,155,15,26,4,11,15,13,1009,88,1,20140724190000
753,"High-tech Zone Administrative Committee, Changchun",,43.819064,125.256375,180,115,5,12,2,10,15,13,1009,88,1,20140724190000
754,"Daishan Park, Changchun",,43.852365,125.223399,189,146,7,31,3,10,15,13,1009,88,1,20140724190000
755,Changchun,,43.819415,125.329977,226,167,12,37,6,16,-,-,0,-,-,20140724190000
756,"Hadawan, Jilin",,43.888081,126.545727,199,145,7,25,4,10,13,9,0,74,0,20140724190000
757,"Fengman, Jilin",,43.768169,126.678802,182,90,27,6,3,8,13,9,0,74,0,20140724190000
758,"Electric Power College, Jilin",,43.827403,126.502281,178,91,14,22,5,4,13,9,0,74,0,20140724190000
759,"Jiangnan Park, Jilin",,43.83531,126.556519,177,86,16,16,3,8,13,9,0,74,0,20140724190000
760,"Dongjuzi, Jilin",,43.838597,126.590068,171,91,11,20,2,12,13,9,0,74,0,20140724190000
763,Jilin,,43.840137,126.555262,199,145,27,25,5,12,13,9,0,74,0,20140724190000
764,"Lingbei, Haerbin",,45.756979,126.548008,250,179,32,43,1,10,14,14,1008,100,1,20140724190000
765,"Songbei Commercial University, Haerbin",,45.818624,126.566963,267,152,25,31,5,12,14,14,1008,100,1,20140724190000
766,"Acheng huining, Haerbin",,45.544286,126.985183,254,147,37,14,1,13,14,14,1008,100,1,20140724190000
767,"Nangang College Street, Haerbin",,45.724121,126.604906,274,194,39,35,8,15,14,14,1008,100,1,20140724190000
768,"Taiping Hongwei Park, Haerbin",,45.775332,126.695101,309,168,35,33,4,17,14,14,1008,100,1,20140724190000
769,"Daowai Chengde Square, Haerbin",,45.768637,126.640955,275,173,37,90,4,13,14,14,1008,100,1,20140724190000
770,"Xiangfang Hongqi Street, Haerbin",,45.733936,126.691083,270,177,42,16,2,17,15,15,1008,100,2,20140724190000
771,"Dongli Heping Road, Haerbin",,45.727765,126.651974,293,182,37,46,6,12,14,14,1008,100,1,20140724190000
772,"Daoli Jianguo Road, Haerbin",,45.749715,126.59891,258,172,31,40,8,12,14,14,1008,100,1,20140724190000
773,"Pingfang Light Factory, Haerbin",,45.611951,126.620898,251,145,31,47,7,13,14,14,1008,100,1,20140724190000
774,"Hulan Normal College, Haerbin",,45.983745,126.616553,257,140,31,25,-,13,14,14,1008,100,1,20140724190000
775,"Provincial Academy of Agricultural Sciences, Haerbin",,45.686141,126.626517,244,159,30,38,4,12,14,14,1008,100,1,20140724190000
776,Haerbin,,45.805757,126.541007,267,179,32,43,5,12,14,14,1008,100,1,20140724190000
777,"Anju Compound, Qiqihaer",,47.365672,123.937016,193,102,35,6,2,9,17,16,1007,87,1,20140724190000
778,"Farming Vehicule Factory, Qiqihaer",,47.326793,123.961427,192,93,37,25,1,10,17,16,1007,87,1,20140724190000
779,"Fuqu EPA, Qiqihaer",,47.1853,123.62322,257,153,53,6,3,16,17,16,1007,87,1,20140724190000
780,"City Center Square, Qiqihaer",,47.343096,123.96192,184,90,39,2,3,7,17,16,1007,87,1,20140724190000
1217,"City Environmental Monitoring Station, Qiqihaer",,47.303639,123.957551,213,111,33,15,4,10,17,16,1007,87,1,20140724190000
781,Qiqihaer,,47.356387,123.924736,257,153,53,25,4,16,17,16,1007,87,1,20140724190000
782,"Saertu District, Daqing",,46.582368,125.152904,291,157,23,15,8,13,14,14,1008,94,1,20140724190000
783,"Datong District, Daqing",,46.036786,124.842115,274,137,49,5,5,12,14,14,1008,94,1,20140724190000
784,"Honggang District, Daqing",,46.418381,124.88973,275,148,47,11,5,13,14,14,1008,94,1,20140724190000
785,"Longfeng District, Daqing",,46.535426,125.107043,274,144,42,21,5,15,14,14,1008,94,1,20140724190000
786,"Ranghulu District, Daqing",,46.635123,124.85648,264,139,89,9,7,11,14,14,1008,94,1,20140724190000
787,Daqing,,46.591414,125.110838,291,157,89,21,8,15,14,14,1008,94,1,20140724190000
788,"Locomotive Factory, Mudanjiang",,44.610589,129.652672,199,108,51,11,3,9,15,14,1008,85,2,20140724190000
789,"No. 1 hospital, Mudanjiang",,44.567775,129.617043,248,119,40,12,2,8,15,14,1008,85,2,20140724190000
1220,"EPA building, Mudanjiang",,44.567777,129.620658,194,109,17,8,1,8,15,14,1008,85,2,20140724190000
1221,"Cultural Square, Mudanjiang",,44.586388,129.623164,209,116,12,18,5,10,15,14,1008,85,2,20140724190000
790,Mudanjiang,,44.553619,129.640246,248,116,51,18,11,10,15,14,1008,85,2,20140724190000
791,"Mingzhu Plaza, Hefei",,31.782847,117.201512,42,13,25,4,2,7,25,24,996,94,7,20140724190000
792,"Sanli Street, Hefei",,31.874637,117.312573,68,24,18,6,1,5,25,24,996,94,7,20140724190000
793,"Hupo Compound, Hefei",,31.868583,117.264491,-,-,-,-,-,-,-,-,0,-,-,20140724190000
794,"Dongpu Reservoir, Hefei",,31.90319,117.165584,152,-,0,8,1,9,25,24,996,94,7,20140724190000
795,"Changjiang middle road, Hefei",,31.855185,117.255484,53,45,5,4,2,4,25,24,996,94,7,20140724190000
796,"Luyang District, Hefei",,31.941771,117.271504,89,29,3,1,15,4,25,24,996,94,7,20140724190000
797,"Yaohai District, Hefei",,31.856595,117.341644,68,20,11,6,2,1,25,24,996,94,7,20140724190000
798,"Baohe District, Hefei",,31.793644,117.307554,78,26,4,1,3,3,25,24,996,94,7,20140724190000
799,"Lake district, Hefei",,31.736619,117.283501,80,30,29,3,8,5,25,24,996,94,7,20140724190000
800,"High-tech zone, Hefei",,31.849755,117.129624,9,53,20,4,7,3,25,24,996,94,7,20140724190000
801,Hefei,,31.819449,117.232753,53,45,25,4,2,7,-,-,0,-,-,20140724190000
802,"Hudong Road No.4 Elementary School, Maanshan",,31.684121,118.511017,65,23,16,2,1,5,26,25,992,94,2,20140724190000
803,"Tianping Garment Factory, Maanshan",,31.64197,118.488043,70,29,20,4,2,10,26,25,992,94,2,20140724190000
804,"City education base, Maanshan",,31.711216,118.648913,61,28,4,1,1,1,26,25,992,94,2,20140724190000
805,"Cihu No.2 elementary school, Maanshan",,31.748546,118.515729,82,35,19,4,1,10,26,25,992,94,2,20140724190000
806,"Maanshan steel factory power plant, Maanshan",,31.690864,118.48528,80,34,2,1,4,4,26,25,992,94,2,20140724190000
807,Maanshan,,31.668461,118.511939,82,29,20,4,4,10,26,25,992,94,2,20140724190000
808,"Science Innovation Center, Wuhu",,31.417056,118.375406,70,30,16,4,5,6,26,25,992,94,2,20140724190000
809,"No.4 Water Plant, Wuhu",,31.315914,118.376231,59,27,13,12,34,2,26,25,992,94,2,20140724190000
810,"Monitoring station, Wuhu",,31.348955,118.358154,61,28,11,4,19,3,26,25,992,94,2,20140724190000
811,"Wuqierling Factory, Wuhu",,31.382068,118.407639,42,20,23,6,9,4,26,25,992,94,2,20140724190000
812,Wuhu,,31.351007,118.438322,70,28,23,12,34,6,26,25,992,94,2,20140724190000
813,"Jiangxi Foreign Affairs Office, Nanchang",,28.681036,115.897845,154,40,10,9,13,4,28,26,1000,84,2,20140724190000
814,"Provincial forestry company, Nanchang",,28.694646,115.892851,107,55,10,7,16,7,28,26,1000,84,2,20140724190000
815,"Institute of Forestry, Nanchang",,28.74099,115.818017,61,50,8,11,23,12,28,26,1000,84,2,20140724190000
816,"Jingdong town government, Nanchang",,28.693649,115.97793,112,51,9,9,10,11,28,26,1000,84,2,20140724190000
817,"Contruction Industry College, Nanchang",,28.683582,115.856915,149,66,12,7,15,12,28,26,1000,84,2,20140724190000
818,"Xianghu, Nanchang",,28.639112,115.896843,107,70,12,8,6,9,28,26,1000,84,2,20140724190000
819,"Martial Arts School, Nanchang",,28.796292,115.747122,61,40,9,3,5,6,28,26,1000,84,2,20140724190000
820,"Petrifaction Company, Nanchang",,28.609697,115.916832,107,78,11,10,17,9,28,26,1000,84,2,20140724190000
821,"Provincial Station, Nanchang",,28.681053,115.935848,102,48,12,12,12,9,28,26,1000,84,2,20140724190000
822,Nanchang,,28.679883,115.863022,149,66,12,7,16,12,-,-,0,-,-,20140724190000
823,"Lushan Mountain Observatory, Jiujiang",,29.584073,115.998671,87,52,46,1,2,4,19,19,1002,98,4,20140724190000
825,"Maoshantou, Jiujiang",,29.702089,115.963113,97,62,36,5,7,13,19,19,1002,98,4,20140724190000
826,"Xiyuan, Jiujiang",,29.726646,115.993055,104,62,34,5,16,7,19,19,1002,98,4,20140724190000
827,"Wuqierling Factory, Jiujiang",,29.650969,116.022581,95,54,45,3,13,7,19,19,1002,98,4,20140724190000
828,"Water Scientific Research Institute, Jiujiang",,29.690223,116.067992,80,52,33,3,13,7,19,19,1002,98,4,20140724190000
829,"Zonghe Industrial Park, Jiujiang",,29.601135,115.916354,99,57,48,1,6,7,19,19,1002,98,4,20140724190000
830,"Petrochemical General Plant, Jiujiang",,29.75101,116.094516,107,58,33,8,17,9,19,19,1002,98,4,20140724190000
831,Jiujiang,,29.70254,116.007025,112,62,48,8,17,13,19,19,1002,98,4,20140724190000
832,"Tobacco Factory, Zhengzhou",,34.753419,113.687131,89,48,31,34,16,2,24,16,1004,61,4,20140724190000
833,"Textile Machinery Factory, Zhengzhou",,34.773366,113.647067,80,47,31,15,24,11,24,16,1004,61,4,20140724190000
834,"Banking College, Zhengzhou",,34.800856,113.681126,91,51,37,13,12,9,24,16,1004,61,4,20140724190000
835,"Water Supply Company, Zhengzhou",,34.807188,113.571089,72,26,36,15,19,16,24,16,1004,61,4,20140724190000
836,"Economic Development Zone Management Committee, Zhengzhou",,34.717652,113.733182,107,51,30,22,17,10,24,16,1004,61,4,20140724190000
837,"No. 47 middle school, Zhengzhou",,34.772211,113.74009,109,54,32,19,16,6,24,16,1004,61,4,20140724190000
838,"City Monitoring Station, Zhengzhou",,34.748404,113.60514,78,36,34,14,5,16,24,16,1004,61,4,20140724190000
839,"Henan Medical University, Zhengzhou",,34.752637,113.641658,82,33,14,12,17,13,24,16,1004,61,4,20140724190000
840,"Gangli Reservoir, Zhengzhou",,34.952652,113.64248,149,29,20,9,8,11,24,16,1004,61,4,20140724190000
841,Zhengzhou,,34.745417,113.631415,82,36,34,14,17,16,24,16,1004,61,4,20140724190000
842,"Henan University No.1 Hospital, Kaifeng",,34.799302,114.352706,117,56,29,11,10,6,24,16,1004,61,4,20140724190000
843,"Maternity And Child Hospital, Kaifeng",,34.795803,114.386103,129,54,28,7,9,7,24,16,1004,61,4,20140724190000
844,"Cancer Hospital, Kaifeng",,34.775428,114.350292,119,51,27,6,28,6,24,16,1004,61,4,20140724190000
845,"Yellow River Conservancy Institute, Kaifeng",,34.826066,114.324772,93,40,31,9,7,14,24,16,1004,61,4,20140724190000
846,"Shijixing Kindergarden, Kaifeng",,34.793606,114.302744,119,52,29,8,14,6,24,16,1004,61,4,20140724190000
847,Kaifeng,,34.796346,114.313426,119,56,29,11,28,6,24,16,1004,61,4,20140724190000
852,Jiaozuo,,35.215381,113.248188,102,52,29,29,38,11,24,16,1004,61,4,20140724190000
853,"Cotton Research Institute, Anyang",,36.081435,114.486451,129,61,19,17,3,6,23,15,1005,52,3,20140724190000
854,"Hongmiao Street, Anyang",,36.086733,114.326,137,69,16,35,23,13,23,15,1005,52,3,20140724190000
855,"Yinxing Compound, Anyang",,36.056519,114.36495,152,72,18,46,21,13,23,15,1005,52,3,20140724190000
856,"Tiefo Temple, Anyang",,36.110041,114.309309,168,95,9,39,64,14,23,15,1005,52,3,20140724190000
857,Anyang,,36.097767,114.398846,168,95,19,46,64,13,23,15,1005,52,3,20140724190000
858,"City Monitoring Station, Luoyang",,34.669055,112.439633,38,23,20,12,8,10,,,,,,20140724190000
859,"BDA Management Committee, Luoyang",,34.622084,112.390759,78,34,18,18,8,6,,,,,,20140724190000
860,"New municipal office, Luoyang",,34.623745,112.432973,65,31,22,17,9,13,,,,,,20140724190000
861,"City committee communist party school, Luoyang",,34.650169,112.400212,63,38,11,26,5,41,,,,,,20140724190000
862,"Henan Forestry College, Luoyang",,34.685566,112.509429,42,39,18,24,9,22,,,,,,20140724190000
863,"CITIC No.2 Elementary School, Luoyang",,34.668212,112.36907,74,57,21,25,9,10,,,,,,20140724190000
864,"Yuxi Hotel, Luoyang",,34.685949,112.472611,82,35,14,25,12,14,,,,,,20140724190000
865,Luoyang,,34.617424,112.46054,78,57,22,26,12,41,20,15,1006,67,2,20140724190000
866,"City Planning Design Institute, Pingdingshan",,33.7352,113.297916,142,67,56,14,35,8,24,16,1004,61,4,20140724190000
867,"Xinhua Hotel, Pingdingshan",,33.737754,113.328814,122,70,41,15,23,5,24,16,1004,61,4,20140724200000
868,"Engineering College, Pingdingshan",,33.772474,113.188235,109,74,35,12,16,6,24,16,1004,61,4,20140724200000
869,"High Voltage Switchgear Factory, Pingdingshan",,33.719941,113.312665,127,74,37,17,26,8,24,16,1004,61,4,20140724200000
870,Pingdingshan,,33.764754,113.199082,142,74,56,17,35,8,24,16,1004,61,4,20140724200000
871,"Economic Development Zone EPA, Changsha",,28.239029,113.087873,174,144,29,37,9,8,26,24,1002,89,1,20140724200000
872,"High-tech Zone EPA, Changsha",,28.216766,112.893403,169,79,16,26,16,8,26,24,1002,89,1,20140724200000
873,"Mapoling, Changsha",,28.197926,113.083865,188,111,25,34,14,9,26,24,1002,89,1,20140724200000
874,"Hunan Normal University, Changsha",,28.186202,112.949459,162,117,18,8,9,7,26,24,1002,89,1,20140724200000
875,"Yuqua District EPB, Changsha",,28.139661,113.008649,172,105,25,19,5,7,26,24,1002,89,1,20140724200000
876,"Wujialing, Changsha",,28.256286,112.98457,174,111,4,9,12,14,26,24,1002,89,1,20140724200000
877,"New train station, Changsha",,28.191052,113.006646,160,92,32,28,11,11,26,24,1002,89,1,20140724200000
878,"Tianxin District EPB, Changsha",,28.114406,112.989577,184,129,22,33,6,8,26,24,1002,89,1,20140724200000
879,"Hunan University of Traditional Chinese Medicine, Changsha",,28.127269,112.896395,183,96,18,16,6,5,26,24,1002,89,1,20140724200000
880,"Shaping, Changsha",,28.355246,113.00164,174,100,32,17,8,7,26,24,1002,89,1,20140724200000
881,Changsha,,28.224701,112.944264,174,117,18,9,12,14,26,24,1002,89,1,20140724200000
883,"City Monitoring Station, Xiangtan",,27.854149,112.901062,175,94,22,17,25,10,26,24,1002,89,1,20140724200000
884,"HKUST, Xiangtan",,27.908165,112.912881,175,87,22,33,9,8,26,24,1002,89,1,20140724200000
885,Xiangtan,,27.826289,112.949479,180,94,45,43,25,13,26,24,1002,89,1,20140724200000
886,"Zhuye Hospital, Zhuzhou",,27.883542,113.101131,-,-,-,-,-,-,-,-,0,-,-,20140724200000
887,"No.4 middle school, Zhuzhou",,27.794671,113.195938,180,98,28,16,5,10,26,24,1002,89,1,20140724200000
888,"Railway station, Zhuzhou",,27.8349,113.149149,178,103,35,11,7,10,26,24,1002,89,1,20140724200000
889,"City Monitoring Station, Zhuzhou",,27.849638,113.135836,189,92,30,14,13,10,26,24,1002,89,1,20140724200000
890,"Dajing, Zhuzhou",,27.830311,113.25706,159,62,10,5,4,12,26,24,1002,89,1,20140724200000
891,Zhuzhou,,27.824409,113.139832,189,103,35,18,13,12,26,24,1002,89,1,20140724200000
896,Yueyang,,29.354548,113.134922,165,97,24,16,36,13,30,24,1000,64,0,20140724200000
897,"Dingcheng District EPB, Changde",,29.014303,111.691833,87,60,16,1,19,8,25,23,1002,87,6,20140724200000
898,"Baihe Hill, Changde",,29.072606,111.735659,-,-,-,-,-,6,-,-,0,-,-,20140724200000
899,"Municipal Technical Supervision Bureau, Changde",,29.038038,111.6736,82,32,15,6,19,10,25,23,1002,87,6,20140724200000
900,"No.2 middle school, Changde",,28.96732,111.707138,61,26,15,2,5,8,25,23,1002,87,6,20140724200000
901,Changde,,29.028648,111.704107,87,32,34,6,19,10,25,23,1002,87,6,20140724200000
902,"Yuanjiajie, Zhangjiajie",,29.297387,110.421733,-,-,-,-,-,-,27,24,1002,75,4,20140724200000
903,"Power Administration Bureau, Zhangjiajie",,29.126345,110.47192,68,52,24,4,5,21,25,23,1002,87,6,20140724200000
906,Zhangjiajie,,29.114231,110.484134,124,52,24,4,11,21,25,23,1002,87,6,20140724200000
907,"Zhenning Garden, Nanning",,22.784688,108.304953,147,64,15,15,4,10,28,26,1002,89,2,20140724200000
908,"City Monitoring Station, Nanning",,22.819736,108.32499,104,69,13,13,5,9,28,26,1002,89,2,20140724200000
909,"Daziran Garden, Nanning",,22.802327,108.387089,153,69,17,19,6,10,28,26,1002,89,2,20140724200000
910,"Xianhu, Nanning",,22.7879,108.443064,104,75,10,20,8,7,28,26,1002,89,2,20140724200000
911,"District Agricultural Vocational College, Nanning",,22.843566,108.24292,142,74,9,22,6,12,28,26,1002,89,2,20140724200000
912,"Yinghua jiayuan, Nanning",,22.732221,108.331999,112,56,18,14,4,7,28,26,1002,89,2,20140724200000
913,"Shajing town street committee, Nanning",,22.780442,108.247914,104,54,16,12,5,9,28,26,1002,89,2,20140724200000
914,Nanning,,22.814552,108.3702,153,69,17,19,6,10,28,26,1002,89,2,20140724200000
915,"Haitan Park, Beihai",,21.401746,109.157592,0,33,27,1,5,12,30,26,1003,76,3,20140724200000
916,"Beihai Industrial Park, Beihai",,21.422809,109.182003,5,34,19,-,15,2,30,26,1003,76,3,20140724200000
