locationid,stationname,chinesename,latitude,longitude,pm25,pm10,o3,no2,so2,co,temperature,dewpoint,pressure,humidity,wind,est_time
1,Dongcheng Dongsi,,39.9304,116.423239,77,102,32,12,2,14,20,20,1011,100,1,20140901170000
2,"Temple of Heaven, Dongcheng",,39.887403,116.41324,94,85,30,14,2,11,20,20,1011,100,1,20140901170000
3,West Park officials,,39.930333,116.345162,93,88,34,24,2,11,20,20,1011,100,1,20140901170000
4,West Wanshou Nishinomiya,,39.879354,116.358183,77,93,34,11,2,13,20,20,1011,100,1,20140901170000
5,Chaoyang Olympic Sports Center,,39.983406,116.403253,81,95,25,22,2,13,20,20,1011,100,1,20140901170000
6,Chaoyang Agricultural Exhibition Hall,,39.938331,116.46715,78,76,28,12,2,15,20,20,1011,100,1,20140901170000
7,Haidian Wanliu,,39.988245,116.293062,77,94,27,18,2,8,20,20,1011,100,1,20140901170000
8,The Haidian northern New Area,,40.091313,116.180194,74,-,28,15,2,11,20,20,1011,100,1,20140901170000
9,Haidian Beijing Botanical Garden,,40.003252,116.213097,58,-,55,4,2,7,20,20,1011,100,1,20140901170000
10,Fengtai garden,,39.86423,116.285037,68,-,35,9,2,9,20,20,1011,100,1,20140901170000
11,Fengtai Yungang,,39.82535,116.152237,76,-,33,12,2,9,20,20,1011,100,1,20140901170000
12,Shijingshan city,,39.915286,116.190144,80,116,43,14,2,10,20,20,1011,100,1,20140901170000
13,"Fangshan, Liangxiang",,39.743357,116.14225,91,-,35,11,2,10,20,20,1011,100,1,20140901170000
14,"Huangcunzhen, Daxing",,39.719389,116.410219,138,-,40,15,2,11,20,20,1011,100,1,20140901170000
15,BDA,,39.796197,116.51197,112,-,49,12,2,14,20,20,1011,100,1,20140901170000
16,Tongzhou New Town,,39.887113,116.6689,115,-,37,24,2,10,20,20,1011,100,1,20140901170000
17,Shunyi New Town ,,40.128111,116.660908,-,-,-,-,-,-,-,-,0,-,-,20140901170000
18,Changping Town,,40.218245,116.236084,68,69,41,16,2,11,20,20,1011,100,1,20140901170000
19,"Mentougou, Longquan Town",,39.938397,116.112323,85,-,39,12,2,8,20,20,1011,100,1,20140901170000
20,Pinggu town,,40.144433,117.106563,39,-,41,5,2,20,20,20,1011,100,1,20140901170000
21,Huairou town,,40.329104,116.63387,60,92,40,7,2,14,20,20,1011,100,1,20140901170000
22,The town of Miyun,,40.371186,116.838053,51,-,43,2,2,16,20,20,1011,100,1,20140901170000
23,Yanqing town,,40.454217,115.978106,74,-,37,11,2,8,20,20,1011,100,1,20140901170000
24,Changping Dingling,,40.293269,116.226108,45,96,38,4,2,9,20,20,1011,100,1,20140901170000
25,Badaling Northwest,,40.36623,115.994146,68,-,29,21,2,9,20,20,1011,100,1,20140901170000
26,Miyun Reservoir,,40.500157,116.91701,56,-,55,1,2,15,20,20,1011,100,1,20140901170000
27,"Donggaocun Zhen, Pinggu",,40.10142,117.126556,26,-,47,9,2,14,20,20,1011,100,1,20140901170000
28,"Yongledianzhen, Tongzhou",,39.713192,116.78905,80,-,29,11,5,13,20,20,1011,100,1,20140901170000
29,"Yufazhen, Daxing",,39.521203,116.306026,190,-,33,5,2,10,20,20,1011,100,1,20140901170000
30,"Liulihezhen, Fangshan",,39.581169,116.006089,161,-,29,7,2,7,20,20,1011,100,1,20140901170000
31,"Qianmen E St, Dongcheng",,39.900402,116.401242,84,-,27,15,2,13,20,20,1011,100,1,20140901170000
32,Yongdingmen Inner St,,39.877401,116.400238,103,-,25,17,2,14,20,20,1011,100,1,20140901170000
33,Xizhimen N St,,39.955352,116.355187,96,-,26,30,6,13,20,20,1011,100,1,20140901170000
34,South Ring Road,,39.857377,116.37421,90,-,13,38,4,13,20,20,1011,100,1,20140901170000
35,East Fourth Ring Road,,39.940273,116.489075,92,-,10,45,2,17,20,20,1011,100,1,20140901170000
36,Beijing,,39.955906,116.474246,102,76,32,12,2,15,20,19,1011,94,2,20140901170000
37,Putuo,,31.232979,121.415378,79,35,22,16,8,4,25,23,1009,89,3,20140901170000
38,Yangpu Sipiao,,31.263795,121.540311,103,37,23,11,5,2,25,23,1009,89,3,20140901170000
39,Shanghai Normal College Primary Division,,31.199031,121.487719,78,39,26,14,4,7,25,23,1009,89,3,20140901170000
40,Dianshan Lake,,31.091338,120.982293,97,35,34,2,8,8,25,23,1009,89,3,20140901170000
41,Hongkou Liangcheng,,31.298906,121.47155,89,32,18,14,7,6,25,23,1009,89,3,20140901170000
42,Jingan,,31.224251,121.429637,85,36,24,14,7,8,25,23,1009,89,3,20140901170000
43,Shanghai Normal University,,31.163531,121.416643,81,29,27,14,5,8,25,23,1009,89,3,20140901170000
44,Chuansha,,31.188626,121.707342,96,40,18,15,6,8,25,23,1009,89,3,20140901170000
45,Zhangjiang,,31.204896,121.581215,77,28,28,13,4,6,25,23,1009,89,3,20140901170000
46,Lingshan Road,,31.226286,121.537317,79,28,28,13,3,6,25,23,1009,89,3,20140901170000
1080,City average,,31.228451,121.478227,85,34,24,14,6,6,25,23,1009,89,3,20140901170000
47,Shanghai,,31.202842,121.453493,85,39,26,14,7,8,25,23,1009,89,3,20140901170000
48,Guangzhou,,23.138517,113.263701,87,42,13,21,13,8,28,25,1012,84,2,20140901170000
49,"Huadu town, Guangzhou",,23.389121,113.220062,119,61,22,21,10,8,28,25,1012,84,2,20140901170000
50,"Luogang Zhenlong, Guangzhou",,23.308027,113.567032,132,51,22,25,6,8,28,25,1012,84,2,20140901170000
51,"LuHu, Guangzhou",,23.151743,113.281842,87,30,8,21,5,5,28,25,1012,84,2,20140901170000
52,"Tianhu, Guangzhou",,23.647433,113.629715,53,22,42,11,12,5,28,25,1012,84,2,20140901170000
53,"Zhudong, Guangzhou",,23.418406,113.078552,151,65,38,23,7,8,28,25,1011,84,1,20140901170000
54,"Modiesha station, Guangzhou",,23.103814,113.338238,50,51,9,17,10,6,28,25,1012,84,2,20140901170000
55,Zhuhai,,22.2677,113.581765,61,29,21,17,4,11,29,25,1012,79,3,20140901170000
1075,"Huicai technical school, Foshan",,23.039667,113.105492,55,23,7,14,8,6,28,25,1012,84,2,20140901170000
56,"Sanshuiyun donghai, Foshan",,23.185788,112.865368,167,87,12,33,50,11,28,25,1012,84,2,20140901170000
57,"Nanhai Bureau of Meteorology, Foshan",,23.046836,113.145764,200,30,25,4,9,7,28,25,1011,84,1,20140901170000
58,"Sanshui Monitoring Station, Foshan",,23.163551,112.890843,160,74,10,39,45,14,28,25,1012,84,2,20140901170000
1087,Foshan,,23.018995,113.126899,200,30,8,13,9,6,28,25,1011,84,1,20140901170000
59,"Ronggui street committee, Shunde",,22.762729,113.258356,61,28,11,10,7,8,28,25,1012,84,2,20140901170000
60,Shunde,,22.80246,113.298701,61,31,11,15,16,8,-,-,0,-,-,20140901170000
61,"Donghu, Jiangmen",,22.590411,113.087351,59,30,11,11,5,4,29,26,1012,84,3,20140901170000
62,"Taoyuan Atmosphere Premier Station, Jiangmen",,22.72489,112.93404,57,30,10,10,4,4,29,26,1012,84,3,20140901170000
63,Jiangmen,,22.576047,113.087351,61,45,11,11,10,11,29,26,1012,84,3,20140901170000
64,"Kengkouzi station, Zhaoqing",,23.158865,112.570287,38,27,20,8,3,7,28,25,1012,84,2,20140901170000
65,"Mugangzi station, Zhaoqing",,23.067961,112.431934,104,67,17,32,6,13,28,25,1012,84,2,20140901170000
66,"Qixingyanzi station, Zhaoqing",,23.075974,112.477437,-,-,-,-,-,-,-,-,0,-,-,20140901170000
67,Zhaoqing,,23.044571,112.470346,104,67,19,32,13,13,-,-,0,-,-,20140901170000
68,"Jinguo Bay, Huizhou",,22.937223,114.385567,46,31,17,8,3,7,28,25,1012,84,3,20140901170000
1091,"Xiabu, Huizhou",,23.077493,114.410275,76,44,19,19,6,3,28,25,1012,84,3,20140901170000
69,"Xijiao, Huizhou",,23.338178,114.112867,80,31,25,9,2,5,28,25,1012,84,3,20140901170000
70,"Jiangbei, Huizhou",,23.111706,114.415274,91,31,19,19,6,2,28,25,1012,84,3,20140901170000
71,"Huiyang chuanhu, Huizhou",,22.814485,114.329292,65,24,11,7,4,5,28,25,1012,84,3,20140901170000
72,"Daya bay management committee, Huizhou",,22.739283,114.53631,61,24,15,7,6,3,28,25,1012,84,3,20140901170000
73,Huizhou,,23.109349,114.421164,91,44,20,19,6,5,28,25,1012,84,3,20140901170000
74,"Guancheng No.2 water plant, Dongguan",,23.057294,113.753254,72,36,11,21,8,9,28,25,1012,84,3,20140901170000
75,"Dongcheng Shijing, Dongguan",,23.010039,113.799529,102,35,14,17,4,7,28,25,1012,84,3,20140901170000
76,"Nancheng Xiping, Dongguan",,22.963051,113.743494,74,35,15,19,7,8,28,25,1012,84,3,20140901170000
77,"Nancheng Yuanling, Dongguan",,23.025058,113.751308,74,35,11,19,9,7,28,25,1012,84,3,20140901170000
78,Dongguan,,23.017813,113.756958,102,37,15,21,9,10,28,25,1012,84,3,20140901170000
79,"Zimaling, Zhongshan",,22.505112,113.407183,38,19,11,11,6,6,29,26,1012,84,3,20140901170000
80,"Yangtze River tourist area, Zhongshan",,22.48589,113.439054,25,14,12,6,2,6,29,26,1012,84,3,20140901170000
81,"Huabai Park, Zhongshan",,22.51839,113.374362,42,14,8,15,4,11,29,26,1012,84,3,20140901170000
82,Zhongshan,,22.513997,113.398277,53,36,12,16,6,11,29,25,1012,79,3,20140901170000
83,"No.8 middle school, Shaoguan",,24.767777,113.583537,63,48,24,17,17,7,30,21,1011,51,6,20140901170000
83,"No.8 middle school, Shaoguan",,24.767777,113.583537,63,48,24,17,17,7,30,21,1011,51,6,20140901170000
84,"Forest area, Shaoguan",,24.796106,113.612131,72,47,29,15,22,10,30,21,1011,51,6,20140901170000
84,"Forest area, Shaoguan",,24.796107,113.612131,72,47,29,15,22,10,30,21,1011,51,6,20140901170000
86,"Shaoguan University, Shaoguan",,24.790864,113.646599,72,21,31,9,16,8,30,21,1011,51,6,20140901170000
86,"Shaoguan University, Shaoguan",,24.790864,113.646598,72,21,31,9,16,8,30,21,1011,51,6,20140901170000
88,"Qujiang Monitoring Station, Shaoguan",,24.683042,113.60157,74,40,19,26,17,9,29,22,1010,61,2,20140901170000
88,"Qujiang Monitoring Station, Shaoguan",,24.683042,113.60157,74,40,19,26,17,9,29,22,1010,61,2,20140901170000
89,Shaoguan,,24.807342,113.602712,72,48,31,26,22,10,30,21,1011,51,6,20140901170000
90,"Chaonanzi Station, Shantou",,23.251213,116.406762,68,20,16,4,28,7,29,26,1012,84,1,20140901170000
91,Shantou,,23.350642,116.686306,50,20,23,12,9,12,29,26,1012,84,1,20140901170000
92,"City Environmental Monitoring Station, Zhanjiang",,21.220431,110.397317,13,16,105,5,7,4,27,25,1011,83,4,20140901170000
93,"EPB Dormitory, Zhanjiang",,21.197376,110.406487,25,9,7,5,2,6,27,25,1011,83,4,20140901170000
94,"Xiashan Swimming Park, Zhanjiang",,21.200431,110.415655,9,16,19,5,6,6,27,25,1011,83,4,20140901170000
95,"Zhanjiang Theatre, Zhanjiang",,21.268177,110.366445,30,13,10,7,4,4,27,25,1011,83,4,20140901170000
96,"Mazhang EPA, Zhanjiang",,21.265486,110.335993,9,10,7,4,2,3,27,25,1011,83,4,20140901170000
97,"Potou District EPB, Zhanjiang",,21.247604,110.454508,21,20,15,3,2,6,27,25,1011,83,4,20140901170000
98,Zhanjiang,,21.26832,110.363883,30,20,105,7,6,6,27,25,1011,83,4,20140901170000
99,"Maogang sub-office EPB, Maoming",,21.466435,111.033462,21,14,13,1,2,3,27,24,0,84,4,20140901170000
100,"Petrochemical No. 7 elementaty school, Maoming",,21.648905,110.937861,34,14,10,2,5,9,27,24,0,84,4,20140901170000
101,"Jiankang road, Maoming",,21.662211,110.909482,21,24,5,6,3,8,27,24,0,84,4,20140901170000
102,"Gaoling, Maoming",,21.690558,110.871146,34,24,7,10,11,8,27,24,0,84,4,20140901170000
1094,Maoming,,21.660223,110.929968,34,24,10,10,11,9,27,24,0,84,4,20140901170000
103,"Jiaying University, Meizhou",,24.325415,116.12816,76,43,32,4,5,8,29,26,1012,84,1,20140901170000
104,"Mexian new town, Meizhou",,24.269283,116.084546,74,46,26,7,15,8,29,26,1012,84,1,20140901170000
105,"Environmental Monitoring Center, Meizhou",,24.262778,116.129621,87,51,27,9,5,8,29,26,1012,84,1,20140901170000
1095,Meizhou,,24.285988,116.127065,87,51,32,9,15,8,29,26,1012,84,1,20140901170000
106,"City EPA, Shanwei",,22.772349,115.370227,34,12,17,2,4,8,29,26,1012,85,1,20140901170000
107,"City government, Shanwei",,22.787161,115.375536,30,11,19,3,5,7,29,26,1012,85,1,20140901170000
108,"Xincheng Middle School, Shanwei",,22.789851,115.367124,34,11,16,5,3,5,29,26,1012,85,1,20140901170000
1099,Shanwei,,22.783576,115.38022,34,12,19,5,4,8,29,26,1012,85,1,20140901170000
109,"No.3 elementary school, Heyuan",,23.755946,114.699091,46,23,21,8,6,7,28,22,1012,65,1,20140901170000
109,"No.3 elementary school, Heyuan",,23.75435,114.703514,46,23,21,8,6,7,28,22,1012,65,1,20140901170000
111,"City water company, Heyuan",,23.754246,114.682459,63,24,21,9,6,6,28,22,1012,65,1,20140901170000
111,"City water company, Heyuan",,23.688709,114.954652,63,24,21,9,6,6,28,22,1012,65,1,20140901170000
113,"Heyuan high school, Heyuan",,23.720666,114.693879,57,21,22,6,12,5,28,22,1012,65,1,20140901170000
113,"Heyuan high school, Heyuan",,23.720037,114.699563,57,21,22,6,12,5,28,22,1012,65,1,20140901170000
115,Heyuan,,23.740888,114.705147,63,24,22,9,12,7,28,22,1012,65,1,20140901170000
116,"Yuanyang Lake, Yangjiang",,21.855869,111.983676,30,15,13,3,2,7,28,25,1012,78,3,20140901170000
1100,Yangjiang,,21.855227,111.987308,34,18,13,3,2,10,28,25,1012,78,3,20140901170000
118,"Town governement, Qingyuan",,23.708005,113.026215,89,51,27,25,5,12,28,25,1012,84,2,20140901170000
119,"Fupin district, Qingyuan",,24.185415,113.419369,85,33,24,15,17,11,28,25,1012,84,2,20140901170000
119,"Fupin district, Qingyuan",,23.624781,113.067713,85,33,24,15,17,11,28,25,1012,84,2,20140901170000
121,"Environment protection office, Qingyuan",,23.685931,113.053239,55,26,26,9,6,10,28,25,1012,84,2,20140901170000
121,"Environment protection office, Qingyuan",,23.691109,113.047948,55,26,26,9,6,10,28,25,1012,84,2,20140901170000
123,"Fengcheng Subdistrict, Qingyuan",,23.695447,113.068189,89,51,27,16,5,12,28,25,1012,84,2,20140901170000
124,Qingyuan,,23.679304,113.061513,89,51,27,25,17,12,28,25,1012,84,2,20140901170000
125,"Xiyuan Road, Chaozhou",,23.668654,116.638272,99,52,19,8,7,10,29,26,1012,84,1,20140901170000
126,"Archives Bureau, Chaozhou",,23.667881,116.649104,119,40,19,8,10,8,29,26,1012,84,1,20140901170000
127,"Municipal Corporation, Chaozhou",,23.65035,116.621859,82,28,23,4,8,10,29,26,1012,84,1,20140901170000
1101,Chaozhou,,23.654204,116.626969,119,52,23,8,10,10,29,26,1012,84,1,20140901170000
128,"Donghu Park, Jieyang",,23.532877,116.374427,57,27,16,6,9,10,29,26,1012,84,1,20140901170000
129,"Yuhu Middle School, Jieyang",,23.52682,116.414123,70,29,17,4,9,6,29,26,1012,84,1,20140901170000
130,"Experimental Primary School, Jieyang",,23.571473,116.364137,87,33,18,7,11,7,29,26,1012,84,1,20140901170000
1102,Jieyang,,23.547596,116.37754,87,33,18,8,17,10,29,26,1012,84,1,20140901170000
131,"City Environmental Monitoring Station, Yunfu",,22.936779,112.042248,-,-,-,-,-,-,-,-,0,-,-,20140901170000
132,"The new city government headquarters, Yunfu",,22.914275,112.044475,57,21,14,5,4,14,28,25,1012,84,2,20140901170000
133,"Muyang police sub-station, Yunfu",,22.951267,112.05923,107,52,16,9,8,11,28,25,1012,84,2,20140901170000
1103,Yunfu,,22.912436,112.049811,107,52,16,9,8,14,28,25,1012,84,2,20140901170000
134,Yantian,,22.587949,114.266899,25,8,24,6,3,6,28,25,1011,84,3,20140901170000
135,Kwai Chung,,22.572837,113.867166,57,19,11,18,3,16,28,25,1011,84,3,20140901170000
135,Kwai Chung,,22.354168,114.134558,57,19,11,18,3,16,28,25,1011,84,3,20140901170000
135,Kwai Chung,,22.627947,114.428875,57,19,11,18,3,16,28,25,1011,84,3,20140901170000
137,Nanyou,,22.513802,113.928051,42,14,26,11,9,7,28,25,1011,84,3,20140901170000
138,Meisha,,22.59611,114.318345,30,10,10,8,8,9,28,25,1011,84,3,20140901170000
139,Xi xiang,,22.717524,114.252304,46,39,9,26,10,10,28,25,1011,84,3,20140901170000
140,Liyuan,,22.54732,114.101205,34,10,11,16,1,9,28,25,1011,84,3,20140901170000
1072,Kwai Chung,,22.572837,113.867166,42,24,11,13,2,6,28,25,1011,84,3,20140901170000
1072,Kwai Chung,,22.354168,114.134558,42,24,11,13,2,6,28,25,1011,84,3,20140901170000
1072,Kwai Chung,,22.627947,114.428875,42,24,11,13,2,6,28,25,1011,84,3,20140901170000
141,OCT,,22.539549,113.992458,55,19,5,18,8,10,28,25,1011,84,3,20140901170000
142,Honghu,,22.559647,114.121976,30,16,11,9,2,9,28,25,1011,84,3,20140901170000
143,Mission Hills,,22.694131,114.050496,80,57,4,17,3,12,28,25,1011,84,3,20140901170000
144,Shenzhen,,22.540382,114.062982,80,57,26,26,10,16,-,-,0,-,-,20140901170000
145,Chengdu,,30.622581,104.069564,74,60,19,26,7,9,21,18,1014,83,1,20140901170000
146,"Jinquan lianghe, Chengdu",,30.710359,103.974209,91,46,13,9,3,8,22,19,1014,83,2,20140901170000
147,"Shilidian, Chengdu",,30.684718,104.17845,97,54,12,35,5,11,22,19,1014,83,2,20140901170000
148,"Sanwayao, Chengdu",,30.568159,104.081524,89,54,17,33,5,9,22,19,1014,83,2,20140901170000
149,"Shahepu, Chengdu",,30.633685,104.120536,112,65,17,33,5,8,22,19,1014,83,2,20140901170000
150,"Liang Lane, Chengdu",,30.682601,104.076522,87,45,19,26,7,9,22,19,1014,83,2,20140901170000
151,"Caotang Temple, Chengdu",,30.651891,104.0284,104,60,12,22,5,9,22,19,1014,83,2,20140901170000
152,"Lingyansi, Chengdu",,31.025729,103.615022,46,12,24,1,1,3,22,19,1014,83,2,20140901170000
153,"Fuleshan, Mianyang",,31.472493,104.7806,78,39,20,16,8,7,25,20,1009,66,2,20140901170000
154,"High-tech Zone Water Company, Mianyang",,31.463309,104.674293,107,42,25,16,13,5,25,20,1009,66,2,20140901170000
155,"No.3 water company, Mianyang",,31.505002,104.731054,97,50,18,18,11,7,25,20,1009,66,2,20140901170000
156,Mianyang,,31.465174,104.681731,107,50,25,25,13,9,25,20,1009,66,2,20140901170000
157,"Dongshan Park, Deyang",,31.118648,104.424587,70,30,15,15,5,7,22,19,1014,83,2,20140901170000
158,"Xixiaoqu, Deyang",,31.131159,104.390972,155,75,18,19,13,10,23,20,1014,83,1,20140901170000
159,"City Procuratorate, Deyang",,31.114554,104.407986,91,40,21,15,12,9,22,19,1014,83,2,20140901170000
160,"Refractory Factory, Deyang",,31.108606,104.356506,82,50,11,19,13,5,22,19,1014,83,2,20140901170000
161,Deyang,,31.124715,104.400703,91,50,21,19,13,11,22,19,1014,83,2,20140901170000
162,"Nongnongping, Panzhihua",,26.566698,101.695438,85,50,15,18,15,6,23,16,0,53,2,20140901170000
163,"Hemenkou, Panzhihua",,26.589072,101.578312,87,31,17,8,7,5,23,16,0,53,2,20140901170000
164,"Bingcaogang, Panzhihua",,26.58143,101.718473,68,60,8,17,11,5,23,16,0,53,2,20140901170000
165,"Renhe, Panzhihua",,26.498166,101.746887,57,48,8,11,4,7,23,16,0,53,2,20140901170000
166,"Jinjina, Panzhihua",,26.553226,101.84862,68,75,11,9,29,5,23,16,0,53,2,20140901170000
167,Panzhihua,,26.578779,101.720211,87,75,17,18,29,7,23,16,0,53,2,20140901170000
168,"Shima Middle School, Yibin",,28.815979,104.599199,61,25,27,3,6,7,23,20,1012,80,1,20140901170000
169,"Municipal party committee, Yibin",,28.762654,104.624834,65,19,18,5,3,8,23,20,1012,80,1,20140901170000
170,"No. 4 middle school, Yibin",,28.783257,104.608407,74,29,22,8,4,5,23,20,1012,80,1,20140901170000
171,"City government, Yibin",,28.760477,104.644079,70,40,22,8,5,8,23,20,1012,80,1,20140901170000
172,"Huangjinzui, Yibin",,28.712319,104.578389,72,25,31,6,9,7,23,20,1012,80,1,20140901170000
173,"Shaping Middle School, Yibin",,28.795569,104.681393,63,21,28,6,7,6,23,20,1012,80,1,20140901170000
174,Yibin,,28.748384,104.645766,74,40,31,8,9,8,23,20,1012,80,1,20140901170000
175,"Datang Hill, Zigong",,29.359969,104.757388,107,48,21,10,7,4,23,20,1001,84,3,20140901170000
176,"Yanma Road, Zigong",,29.355752,104.724036,117,69,21,6,4,6,23,20,1001,84,3,20140901170000
177,"Tanmulin Street, Zigong",,29.353555,104.777397,117,41,24,14,17,4,23,20,1001,84,3,20140901170000
178,"Chunhua Road, Zigong",,29.33825,104.771895,122,48,14,7,5,7,23,20,1001,84,3,20140901170000
179,Zigong,,29.33617,104.781138,122,69,24,14,17,7,23,20,1001,84,3,20140901170000
180,"Jiushi Hill, Luzhou",,28.955347,105.434207,68,32,38,1,2,2,23,22,1001,93,2,20140901170000
181,"Xiaoshishang Port, Luzhou",,28.899583,105.447192,76,30,41,8,2,6,23,22,1001,93,2,20140901170000
182,"Lantianxian Bridge, Luzhou",,28.852766,105.4358,78,26,39,7,2,2,23,22,1001,93,2,20140901170000
183,"City Environment Monitoring Station, Luzhou",,28.895898,105.435802,78,22,32,11,4,4,23,22,1001,93,2,20140901170000
184,Luzhou,,28.868782,105.445938,78,32,41,11,4,6,23,22,1001,93,2,20140901170000
185,"City Committee, Nanchong",,30.799993,106.082906,68,18,22,2,11,5,22,22,1010,96,1,20140901170000
186,"Refinery Factory, Nanchong",,30.819412,106.10712,82,39,21,16,15,3,22,22,1010,96,1,20140901170000
187,"Gaoping District Monitoring Station, Nanchong",,30.783291,106.110417,63,27,11,11,12,5,22,22,1010,96,1,20140901170000
188,"Jialing District EPB, Nanchong",,30.761255,106.06818,91,30,11,17,9,3,22,22,1010,96,1,20140901170000
189,"City Environmental Monitoring Station, Nanchong",,30.836519,106.11272,74,28,12,8,15,2,22,22,1010,96,1,20140901170000
190,Nanchong,,30.835511,106.114717,91,39,22,17,15,5,22,22,1010,96,1,20140901170000
1249,"City Monitoring Station, Neijiang",,29.592673,105.036234,99,50,21,6,4,4,22,20,1001,86,3,20140901170000
1250,"Dongxing District Government , Neijiang",,29.592148,105.074966,107,46,14,10,3,3,22,20,1001,86,3,20140901170000
1251,"No 2 middle school, Neijiang",,29.579135,105.068548,107,50,15,10,3,7,22,20,1001,86,3,20140901170000
1252,Neijiang,,29.577653,105.06166,107,50,21,10,7,7,22,20,1001,86,3,20140901170000
1253,"City Monitoring Station, Suining",,30.610641,105.683583,65,38,25,11,3,1,22,19,0,79,2,20140901170000
1254,"Administrative center , Suining",,30.63206,105.819747,57,49,29,8,1,2,22,19,0,79,2,20140901170000
1255,Suining,,30.530053,105.596307,95,49,29,11,26,12,22,19,0,79,2,20140901170000
1256,"City Monitoring Station, Leshan",,29.560651,103.759211,76,40,14,18,2,13,20,19,0,90,3,20140901170000
1257,"Leshan Giant Buddha Scenic Area , Leshan",,29.543938,103.772706,78,40,17,23,5,12,20,19,0,90,3,20140901170000
1258,Leshan,,29.54935,103.767777,85,51,17,23,6,13,20,19,0,90,3,20140901170000
1259,"Heilongtan , Meishan",,30.047726,103.900649,152,76,15,8,2,7,22,19,1014,83,2,20140901170000
1260,"Bureau of Meteorology, Meishan",,30.084591,103.843715,137,53,17,14,6,5,22,19,1014,83,2,20140901170000
1261,"Xuguang Community , Meishan",,30.066277,103.8516,114,51,13,16,5,5,22,19,1014,83,2,20140901170000
1262,"City Monitoring Station, Meishan",,30.059205,103.836229,82,53,12,17,8,6,22,19,1014,83,2,20140901170000
1263,Meishan,,30.072618,103.85064,152,76,17,17,8,7,22,19,1014,83,2,20140901170000
1264,"Ziyang middle school, Ziyang",,30.147763,104.638024,50,51,25,6,23,6,23,20,1001,84,3,20140901170000
1265,Ziyang,,30.126054,104.63004,57,56,31,29,55,13,23,20,1001,84,3,20140901170000
191,Shenyang US Consulate,,41.785668,123.432865,117,61,22,25,7,7,20,17,1012,83,1,20140901170000
192,"Huishan, Shenyang",,41.835421,123.647773,122,48,22,6,2,7,20,17,1012,83,1,20140901170000
193,"Hunnan, Shenyang",,41.758263,123.540809,117,45,38,19,7,8,20,17,1012,83,1,20140901170000
194,"Zhangshi, Shenyang",,41.771679,123.289859,149,79,31,26,17,9,20,17,1012,83,1,20140901170000
195,"Artillery College, Shenyang",,41.835749,123.547799,72,65,43,17,6,6,20,17,1012,83,1,20140901170000
196,"Beiling, Shenyang",,41.849633,123.434146,151,89,33,41,9,8,20,17,1012,83,1,20140901170000
197,"Wenyi Road, Shenyang",,41.767444,123.416144,112,61,48,25,7,8,20,17,1012,83,1,20140901170000
198,"Xiaoheyan, Shenyang",,41.779828,123.484015,114,62,45,22,5,8,20,17,1012,83,1,20140901170000
199,"Taiyuan Street, Shenyang",,41.799646,123.406146,112,49,26,28,6,10,20,17,1012,83,1,20140901170000
200,"Ermao, Shenyang",,41.783011,123.366679,122,66,59,39,12,9,20,17,1012,83,1,20140901170000
201,"Liaoning University, Shenyang",,41.830704,123.361071,155,76,27,35,9,8,20,17,1012,83,1,20140901170000
202,Shenyang,,41.808126,123.437611,117,89,33,41,9,10,20,17,1012,83,1,20140901170000
1104,"wenhua street, Shenyang , Shenyang",,41.774139,123.441839,112,61,48,25,7,8,20,17,1012,83,1,20140901170000
1105,"Tanglin Road , Shenyang , Shenyang",,41.823665,123.562317,72,65,43,17,6,6,20,17,1012,83,1,20140901170000
203,"Ganjingzi, Dalian",,38.9747,121.616893,82,57,24,29,2,4,23,20,1012,83,1,20140901170000
204,"Zhoushuizi, Dalian",,38.951928,121.569981,87,42,31,21,5,9,23,20,1012,83,1,20140901170000
205,"Xinghai No 3 station, Dalian",,38.885779,121.568864,65,17,36,5,3,2,24,20,1013,78,1,20140901170000
206,"Qingniwa Bridge, Dalian",,38.91274,121.638018,55,26,36,14,1,5,24,20,1013,78,1,20140901170000
207,"Fujiazhuang, Dalian",,38.864647,121.629947,55,24,29,4,4,3,23,20,1012,83,1,20140901170000
208,"Qixianling, Dalian",,38.856978,121.523169,65,30,43,6,2,10,23,20,1012,83,1,20140901170000
209,"Lushun, Dalian",,38.808946,121.264063,68,25,30,2,2,4,23,20,1012,83,1,20140901170000
210,"Jinzhou, Dalian",,39.132192,121.753259,59,24,15,14,1,1,23,20,1012,83,1,20140901170000
211,"BDA, Dalian",,39.05213,121.782022,68,19,13,12,2,5,23,20,1012,83,1,20140901170000
212,"D&D Port, Dalian",,39.064087,121.981874,55,16,10,6,1,5,23,20,1012,83,1,20140901170000
213,Dalian,,38.91478,121.619625,55,26,36,14,1,5,-,-,0,-,-,20140901170000
214,"Bearing Factory, Dandong",,40.068929,124.345703,102,65,24,18,13,12,21,20,1014,92,1,20140901170000
215,"Financial school, Dandong",,40.158723,124.432593,109,63,28,6,7,8,21,20,1014,92,1,20140901170000
216,"Yuanbaoshan water, Dandong",,40.149431,124.391698,93,53,26,12,13,7,21,20,1014,92,1,20140901170000
217,"Experimental Primary School, Dandong",,39.887343,124.158056,119,63,26,10,6,24,21,20,1014,92,1,20140901170000
218,Dandong,,40.002046,124.360479,119,65,26,18,13,24,21,20,1014,92,1,20140901170000
1106,"minzhu bridge, Dandong , Dandong",,40.112974,124.373604,119,63,26,10,6,24,21,20,1014,92,1,20140901170000
1107,"yuanbaoshan, Dandong , Dandong",,40.146298,124.399081,93,53,26,12,13,7,21,20,1014,92,1,20140901170000
1108,"linjiang houjie, Dandong , Dandong",,40.152757,124.431745,109,63,28,6,7,8,21,20,1014,92,1,20140901170000
219,"BDA, Panjin",,41.157144,122.06645,134,54,35,7,2,16,19,18,0,88,2,20140901170000
220,"Xinglongtai, Panjin",,41.140948,122.111343,147,66,31,7,12,8,19,18,0,88,2,20140901170000
221,"Dingxiang, Panjin",,41.16139,121.928781,87,41,35,3,7,7,19,18,0,88,2,20140901170000
222,Panjin,,41.122089,122.076206,147,66,31,7,12,8,19,18,0,88,2,20140901170000
223,"No.3 water company, Yingkou",,40.682052,122.385352,53,28,57,2,3,5,24,20,1012,74,1,20140901170000
224,"Yingkou University, Yingkou",,40.683689,122.388285,34,32,49,4,3,5,24,20,1012,74,1,20140901170000
225,"Botanical garden, Yingkou",,40.711674,122.281568,65,28,46,8,4,6,24,20,1012,74,1,20140901170000
226,Yingkou,,40.668578,122.24059,65,32,57,8,4,10,24,20,1012,74,1,20140901170000
1109,"jinghu west street, Yingkou , Yingkou",,40.653831,122.221943,53,28,57,2,3,5,24,20,1012,74,1,20140901170000
1110,"Daqing Road , Yingkou , Yingkou",,40.709181,122.28243,65,28,46,8,4,6,24,20,1012,74,1,20140901170000
227,"Xishanpo, Huludao",,40.724078,120.921974,74,30,41,3,7,4,19,18,0,88,2,20140901170000
228,"Huagong hospital, Huludao",,40.755662,120.848435,82,47,29,10,1,15,19,18,0,88,2,20140901170000
229,"New district park, Huludao",,40.723415,120.853801,65,45,35,14,2,6,19,18,0,88,2,20140901170000
230,"Lianshan district governement, Huludao",,40.775488,120.872292,72,42,38,17,8,7,19,18,0,88,2,20140901170000
231,Huludao,,40.712501,120.842107,82,47,41,17,8,15,23,20,0,73,7,20140901170000
1111,"Dongcheng District , Huludao , Huludao",,40.775362,120.871706,72,42,38,17,8,7,,,0,,,20140901170000
1112,"huagong street, Huludao , Huludao",,40.758901,120.842935,82,47,29,10,1,15,,,0,,,20140901170000
232,Anshan,,41.110466,123.000147,124,70,32,12,4,8,20,17,1012,83,2,20140901170000
233,"Qianshan Park, Anshan",,41.033486,123.143897,91,37,23,3,7,3,20,17,1012,83,1,20140901170000
234,"Tiexi, Anshan",,41.121636,122.97506,155,100,22,33,15,18,20,17,1012,83,1,20140901170000
235,"Taiping Station, Anshan",,41.153322,123.052433,151,65,19,16,7,10,20,17,1012,83,1,20140901170000
236,"Central Station, Anshan",,41.106731,123.002736,119,68,36,12,4,8,20,17,1012,83,1,20140901170000
237,"Shengou Temple, Anshan",,41.137157,123.031901,114,53,23,8,5,6,20,17,1012,83,1,20140901170000
1113,"Qianshan , Anshan , Anshan",,41.014521,123.122538,107,41,20,3,7,4,20,17,1012,83,2,20140901170000
1114,"Tiexi Sandao jie, Anshan",,41.103264,122.978613,152,88,16,23,11,18,20,17,1012,83,2,20140901170000
1115,"Taiyang, Anshan",,41.094946,123.019037,124,70,32,12,4,8,20,17,1012,83,2,20140901170000
238,Fushun,,41.883028,123.962984,74,27,42,6,3,8,20,17,1012,83,1,20140901170000
239,"Shenfu new town, Fushun",,41.804638,123.631684,139,62,35,22,10,8,20,17,1012,83,1,20140901170000
240,"Reservoir, Fushun",,41.8464,123.802857,82,26,46,6,3,8,19,17,1012,88,1,20140901170000
241,"Train Station, Fushun",,41.89726,124.017604,104,49,28,7,7,9,19,17,1012,88,1,20140901170000
242,"Dongzhou, Fushun",,41.855578,124.044738,65,24,40,2,1,7,19,17,1012,88,1,20140901170000
243,"Xinhua, Fushun",,41.888598,123.932932,99,71,20,20,7,11,19,17,1012,88,1,20140901170000
244,"Wanghua, Fushun",,41.888825,123.093723,154,80,26,25,11,17,19,17,1012,88,1,20140901170000
245,Benxi,,41.296267,123.772371,153,90,16,24,12,31,20,17,1012,83,2,20140901170000
246,"Weining, Benxi",,41.349663,123.826071,97,68,13,23,3,31,20,17,1012,83,2,20140901170000
247,"Occupational disease hospital, Benxi",,41.305432,123.74645,68,36,16,14,5,7,20,17,1012,83,1,20140901170000
248,"Dongming, Benxi",,41.292369,123.765058,104,36,13,14,12,10,20,17,1012,83,2,20140901170000
249,"Caitun, Benxi",,41.301591,123.746039,144,90,12,17,1,17,20,17,1012,83,2,20140901170000
250,"Xihu, Benxi",,41.331332,123.773537,153,73,16,24,8,11,20,17,1012,83,2,20140901170000
251,"Dayu, Benxi",,41.308091,123.818442,87,39,14,12,12,8,20,17,1012,83,2,20140901170000
1116,"Xinlitun , Benxi , Benxi",,41.264104,123.811523,72,29,13,18,5,6,20,17,1012,83,2,20140901170000
252,Jinzhou,,41.097169,121.132647,134,64,33,22,30,6,23,20,1012,73,7,20140901170000
253,"Beihu Park, Jinzhou",,41.141447,121.137339,119,64,33,9,9,6,23,20,1012,73,7,20140901170000
254,"Monitoring station, Jinzhou",,41.113441,121.140911,112,38,34,14,7,5,23,20,1012,73,7,20140901170000
255,"Nanshan, Jinzhou",,41.570689,122.046753,97,32,25,22,5,6,23,20,1012,73,7,20140901170000
1118,"BDA, Jinzhou",,40.853915,121.061756,76,49,22,9,30,5,23,20,1012,73,7,20140901170000
1119,"tianan street, Jinzhou , Jinzhou",,41.124468,121.126119,134,38,32,18,9,5,23,20,1012,73,7,20140901170000
1120,"baigu street, Jinzhou, Jinzhou",,41.12214,121.21027,104,40,20,21,9,5,23,20,1012,73,7,20140901170000
1121,Chaoyang,,41.576022,120.456053,153,57,4,4,11,8,-,-,0,-,-,20140901170000
472,"Fukang road, Tianjin",,39.098136,117.157621,158,67,11,5,8,6,24,22,1010,89,2,20140901170000
1122,"Agricultural Area, Chaoyang",,43.93968,125.247371,152,55,4,3,9,8,22,19,1012,77,2,20140901170000
1123,Tieling,,42.225197,123.732174,102,53,40,11,8,6,-,-,0,-,-,20140901170000
260,"Waterpark, Tieling",,42.297031,123.880748,99,48,21,11,8,5,19,17,1012,88,1,20140901170000
1124,"Huigong Street West , Tieling , Tieling",,42.311115,123.845614,99,53,40,5,2,3,19,17,1012,88,1,20140901170000
1125,Liaoyang,,41.269312,123.24268,93,63,30,17,16,25,-,-,0,-,-,20140901170000
1126,"Riverside Road , Liaoyang , Liaoyang",,41.176884,123.419859,76,30,26,6,6,8,20,17,1012,83,2,20140901170000
1127,Fuxin,,42.02373,121.675733,114,67,40,7,17,8,-,-,0,-,-,20140901170000
266,"Agricultural Area, Fuxin",,42.071291,121.696445,68,55,33,6,58,6,18,16,0,89,2,20140901170000
267,"Industrial Area, Fuxin",,42.041052,121.715554,99,62,24,17,6,8,18,16,0,89,2,20140901170000
1128,"Yulong Metro , Fuxin , Fuxin",,42.035091,121.666531,114,67,40,7,17,8,18,16,0,89,2,20140901170000
268,"City Monitoring Station, Jinan",,36.662614,117.054645,174,103,46,26,44,13,22,20,1012,80,1,20140901170000
269,"Shandong Institute of Economics, Jinan",,36.63819,117.074975,166,104,39,11,21,13,22,20,1012,80,1,20140901170000
270,"Quancheng Plaza, Jinan",,36.661711,117.027043,159,73,41,22,18,12,22,20,1012,80,1,20140901170000
271,"Kegansuo, Jinan",,36.611582,116.99384,162,79,37,27,13,10,22,20,1012,80,1,20140901170000
272,"Agriculture Science Institute, Jinan",,36.663115,116.95063,159,79,39,42,11,14,22,20,1012,80,1,20140901170000
273,"Lanxiang technical school, Jinan",,36.700421,116.95342,154,68,85,8,29,10,22,20,1012,80,1,20140901170000
274,"Chemical factory, Jinan",,36.687463,116.994406,129,74,42,30,22,10,22,20,1012,80,1,20140901170000
275,"Provincial Seed Warehouse, Jinan",,36.685706,117.066348,162,79,65,24,18,13,22,20,1012,80,1,20140901170000
276,"Shandong Architecture University, Jinan",,36.681732,117.191868,165,89,32,40,27,22,22,20,1012,80,1,20140901170000
277,"Baosheng cable company, Jinan",,36.724638,117.130855,153,61,46,12,5,12,22,20,1012,80,1,20140901170000
278,"Paomaling, Jinan",,36.47869,117.219027,144,61,69,7,22,11,22,20,1012,80,1,20140901170000
279,"Changqing District Communist Party School, Jinan",,36.548797,116.770859,161,97,32,30,24,12,22,20,1012,80,1,20140901170000
280,"BDA, Jinan",,36.685835,117.130851,163,96,39,42,9,17,22,20,1012,80,1,20140901170000
281,Jinan,,36.651426,117.126625,174,104,85,42,44,14,22,20,1012,80,1,20140901170000
282,"Shinan district No. 1, Qingdao",,36.065534,120.40839,55,28,63,5,8,3,23,19,1012,78,1,20140901170000
283,"Shibei district No. 1, Qingdao",,36.069919,120.341264,68,21,59,3,5,4,23,19,1012,78,1,20140901170000
284,"Shibei district No. 2, Qingdao",,36.104146,120.36637,21,18,130,9,5,7,23,19,1012,78,1,20140901170000
285,"Huangdao District No. 1, Qingdao",,35.958935,120.191041,70,54,50,8,11,4,23,19,1012,78,1,20140901170000
286,"Huangdao District No. 2, Qingdao",,35.970487,120.160339,63,40,43,10,9,6,23,19,1012,78,1,20140901170000
287,"Laoshan District No. 1, Qingdao",,36.085881,120.451839,82,22,67,8,9,9,23,19,1012,78,1,20140901170000
288,"Laoshan District No. 2, Qingdao",,36.091075,120.490388,53,21,108,6,6,3,23,19,1012,78,1,20140901170000
289,"Licang District No. 1, Qingdao",,36.184872,120.38533,50,44,37,6,14,5,23,19,1012,78,1,20140901170000
290,"Licang District No. 2, Qingdao",,36.154369,120.432287,76,39,44,8,7,4,23,19,1012,78,1,20140901170000
291,"Chengyang District No. 1, Qingdao",,36.308502,120.40008,91,62,33,24,9,5,23,19,1012,78,1,20140901170000
292,"Chengyang District No. 2, Qingdao",,36.308429,120.465806,63,24,44,11,8,3,23,19,1012,78,1,20140901170000
293,Qingdao,,36.067358,120.387773,82,54,91,10,9,9,23,19,1012,78,1,20140901170000
294,"Zichuan Meteo. Stations, Zibo",,36.637916,117.960222,127,107,34,34,46,13,21,18,0,81,3,20140901170000
295,"Dongfeng Chemical factory, Zibo",,36.838576,118.050785,142,126,32,60,61,20,20,17,0,84,3,20140901170000
296,"Boshan shuangshan, Zibo",,36.497278,117.853581,99,54,32,31,27,8,21,18,0,81,3,20140901170000
297,"Linzi Putian Park, Zibo",,36.820171,118.315022,85,55,49,12,8,10,21,18,0,81,3,20140901170000
643,Suizhou,,31.688342,113.388675,114,42,21,6,3,13,22,,1007,97,2,20140901170000
643,Suizhou,,31.688342,113.388675,114,42,21,6,3,13,22,,1007,97,2,20140901170000
298,"Qilu Petrochemical, Zibo",,36.765907,118.254967,80,32,38,11,6,11,21,18,0,81,3,20140901170000
299,"Zhoucun sanjin Group, Zibo",,36.8044,117.85694,152,70,34,27,13,16,21,18,0,81,3,20140901170000
300,"Vocational College, Zibo",,36.825208,117.926305,119,76,25,48,51,17,21,18,0,81,3,20140901170000
301,"BDA, Zibo",,36.905214,118.021824,154,107,24,28,55,14,21,18,0,81,3,20140901170000
302,Zibo,,36.813618,118.060948,179,107,40,60,61,20,21,18,0,81,3,20140901170000
303,"Shizhong District Government, Zaozhuang",,34.850397,117.569545,117,70,29,14,56,6,22,20,1012,81,2,20140901170000
304,"Sewage treatment plant, Zaozhuang",,34.818951,117.595345,144,68,18,28,35,6,22,20,1012,81,2,20140901170000
305,"Xuecheng EPA, Zaozhuang",,34.790214,117.272455,124,68,24,27,50,3,22,20,1012,81,2,20140901170000
306,"Yicheng District government, Zaozhuang",,34.772806,117.57647,78,40,47,6,21,4,22,20,1012,81,2,20140901170000
307,"Taierzhuang EPA, Zaozhuang",,34.579462,117.741067,147,67,25,26,9,6,22,20,1012,81,2,20140901170000
308,"Shanting EPA, Zaozhuang",,35.070373,117.457691,82,67,32,10,10,11,22,20,1012,81,2,20140901170000
309,"City EPA, Zaozhuang",,34.809466,117.320608,137,73,32,18,58,4,22,20,1012,81,2,20140901170000
310,"High-tech zone, Zaozhuang",,34.821779,117.363495,166,82,20,17,55,6,22,20,1012,81,2,20140901170000
311,Zaozhuang,,34.809693,117.329634,157,76,47,26,60,11,22,20,1012,81,2,20140901170000
312,"City EPA, Dongying",,37.432052,118.672871,82,55,47,11,23,8,23,19,0,77,5,20140901170000
313,"Vocational College, Dongying",,37.438653,118.630567,89,62,45,16,35,6,22,19,0,81,5,20140901170000
314,"Xianhe Oil Production Plant, Dongying",,37.442419,118.510222,112,69,48,16,27,5,22,19,0,81,5,20140901170000
315,"Gengjin village, Dongying",,37.445072,118.55839,102,69,29,23,19,7,22,19,0,81,5,20140901170000
316,"City environmental company, Dongying",,37.466599,118.508012,89,65,43,19,16,5,22,19,0,81,5,20140901170000
317,"Hekou  district, Dongying",,37.883786,118.522171,124,62,41,9,16,5,22,19,0,81,5,20140901170000
318,"BDA, Dongying",,37.435162,118.701827,80,57,47,13,51,10,22,19,0,81,5,20140901170000
319,Dongying,,37.435429,118.680434,124,69,48,23,54,9,22,19,0,81,5,20140901170000
320,"Bearing Factory, Yantai",,37.544126,121.376956,80,31,33,19,4,4,,,0,,,20140901170000
321,"Xijiao Chemical Station, Yantai",,37.547148,121.323695,72,31,46,4,3,5,,,0,,,20140901170000
322,"Fushan Monitoring Stations, Yantai",,37.472245,121.260116,99,26,33,6,3,6,,,0,,,20140901170000
323,"Mouping EPA, Yantai",,37.376681,121.586509,85,52,35,4,3,3,,,0,,,20140901170000
324,"Laishan EPA, Yantai",,37.478422,121.44829,93,40,45,4,6,4,,,0,,,20140901170000
325,"Laishan Shengquan Industrial Park, Yantai",,37.4271,121.408386,68,44,45,13,5,4,,,0,,,20140901170000
326,"China Agricultural University, Yantai",,37.423568,121.511838,68,49,39,8,8,4,,,0,,,20140901170000
327,"BDA EPA, Yantai",,37.560827,121.257954,59,34,28,10,1,5,,,0,,,20140901170000
329,"Dajijia, Yantai",,37.673849,121.071465,65,24,34,12,9,4,,,0,,,20140901170000
330,Yantai,,37.464793,121.453142,99,52,46,19,6,6,22,18,0,78,4,20140901170000
331,"BDA, Weifang",,36.720022,119.054064,70,50,42,6,10,4,,,0,,,20140901170000
332,"Business School, Weifang",,36.682442,119.105909,82,49,45,18,9,3,,,0,,,20140901170000
333,"Hanting District, Weifang",,36.773484,119.199705,122,70,39,17,10,4,,,0,,,20140901170000
334,"Gongda Company, Weifang",,36.657635,119.167266,93,70,41,15,15,3,,,0,,,20140901170000
335,"City EPA, Weifang",,36.701272,119.16838,87,57,37,14,50,4,,,0,,,20140901170000
336,"City Arbitration Committee, Weifang",,36.702422,119.145927,82,57,41,17,16,6,,,0,,,20140901170000
337,"Xinhui Group, Weifang",,36.641581,119.11679,85,78,42,11,9,4,,,0,,,20140901170000
338,"Jincheng Middle School, Weifang",,36.773611,119.115539,85,44,50,24,23,4,,,0,,,20140901170000
339,Weifang,,36.707217,119.167638,122,78,52,24,23,6,22,19,0,81,5,20140901170000
340,"City Monitoring Station, Jining",,35.408443,116.623917,127,52,15,20,15,10,22,21,1012,91,,20140901170000
1090,"Shengdi Hollidays Resort, Jining",,35.424746,116.699093,117,65,12,20,19,4,22,21,1012,91,,20140901170000
341,"Sewage treatment plant, Jining",,35.364286,116.609177,127,61,17,12,15,4,22,21,1012,91,,20140901170000
342,"Electrochemical Factory, Jining",,35.390473,116.552956,97,48,22,10,21,11,22,21,1012,91,,20140901170000
343,"Rencheng BDA, Jining",,35.390484,116.662995,152,60,12,19,20,14,22,21,1012,91,,20140901170000
344,"Agricultural School, Jining",,35.44235,116.601682,117,66,7,22,16,9,22,21,1012,91,,20140901170000
345,"BDA Huojucheng, Jining",,35.436377,116.642953,127,60,19,20,19,12,22,21,1012,91,,20140901170000
346,Jining,,35.414473,116.59239,152,66,22,22,21,14,22,21,1012,91,0,20140901170000
347,"Taishan monitoring station, Taian",,36.194362,117.159648,129,70,24,26,13,12,15,11,0,73,5,20140901170000
348,"Shandong Electric Power School, Taian",,36.176071,117.12413,151,80,29,32,10,13,15,11,0,73,5,20140901170000
349,"Population Education school, Taian",,36.194417,117.104131,104,102,34,16,18,8,15,11,0,73,5,20140901170000
350,"Houfeng company, Taian",,36.204863,117.19015,132,85,23,12,19,12,15,11,0,73,5,20140901170000
351,"Nongda new campus, Taian",,36.170179,117.165191,151,88,10,26,24,14,15,11,0,73,5,20140901170000
352,"Transportation technical school, Taian",,36.202126,117.047068,151,68,11,9,17,11,15,11,0,73,5,20140901170000
353,"ICT Technology, Taian",,36.116621,117.107458,124,96,12,23,4,13,15,11,0,73,5,20140901170000
354,Taian,,36.200502,117.093682,151,102,34,32,18,13,15,11,0,73,5,20140901170000
355,"City Environmental Monitoring Station, Weihai",,37.513939,122.067058,65,37,41,10,3,7,22,18,0,78,4,20140901170000
356,"Woodworking Factory, Weihai",,37.325455,122.160777,68,26,50,13,5,4,22,18,0,78,4,20140901170000
357,"Lantian Hotel, Weihai",,37.514641,122.146276,55,40,47,5,5,4,22,18,0,78,4,20140901170000
358,"Zhang village government, Weihai",,37.485561,122.049436,55,26,32,15,9,4,22,18,0,78,4,20140901170000
359,"Gao District Bank, Weihai",,37.534919,122.056294,68,30,42,10,11,4,22,18,0,78,4,20140901170000
628,Dunkou Xinou,,30.480091,114.162176,78,59,6,26,4,7,23,22,1010,94,1,20140901180000
360,"Huxia technical school, Weihai",,37.427951,122.130811,65,32,39,17,7,5,22,18,0,78,4,20140901170000
361,Weihai,,37.5141,122.125477,68,40,50,17,11,7,22,18,0,78,4,20140901170000
362,"City governement square, Rizhao",,35.4075,119.526008,55,26,47,1,6,3,24,20,1012,72,2,20140901170000
363,"Port Authority, Rizhao",,35.381297,119.55396,70,26,41,2,2,3,24,20,1012,72,2,20140901170000
364,"City Monitoring Station, Rizhao",,35.388683,119.496405,55,28,42,5,5,2,24,20,1012,72,2,20140901170000
365,"Professor Garden, Rizhao",,35.462161,119.574193,57,41,53,2,6,7,24,20,1012,72,2,20140901170000
366,"Vocational and Technical College, Rizhao",,35.441939,119.538187,63,30,46,2,4,1,24,20,1012,72,2,20140901170000
367,"Lanshan EPA branch, Rizhao",,35.293405,119.345716,57,31,31,1,8,3,24,20,1012,72,2,20140901170000
368,"Jinma Industrial Park, Rizhao",,35.373339,119.514108,38,26,48,9,6,2,24,20,1012,72,2,20140901170000
369,Rizhao,,35.416089,119.532316,70,26,47,2,6,3,24,20,1012,72,2,20140901170000
370,"Vegetable oil factory, Laiwu",,36.205028,117.700917,134,55,28,6,33,8,23,18,1012,69,1,20140901170000
371,"Nursing home, Laiwu",,36.266067,117.652769,122,84,22,10,17,17,23,18,1012,69,1,20140901170000
372,"Xinyi middle school, Laiwu",,36.245086,117.739025,74,54,19,7,14,11,23,18,1012,69,1,20140901170000
373,"Risheng International School, Laiwu",,36.208125,117.730959,147,53,28,7,18,8,23,18,1012,69,1,20140901170000
374,"Gangcheng EPA, Laiwu",,36.066836,117.871823,74,55,23,-,17,22,23,18,1012,69,1,20140901170000
375,"City EPA, Laiwu",,36.228913,117.694797,25,50,26,8,22,23,23,18,1012,69,1,20140901170000
376,Laiwu,,36.213688,117.682612,147,84,28,10,33,22,-,-,0,-,-,20140901170000
377,"Lunan Pharmaceutical Factory, Linyi",,35.061671,118.299527,68,28,24,6,7,15,20,19,0,96,1,20140901170000
378,"Yihe compound, Linyi",,35.056752,118.34739,68,37,23,13,2,10,20,19,0,96,1,20140901170000
379,"Linyi University, Linyi",,35.114777,118.293414,76,36,19,19,11,10,20,19,0,96,1,20140901170000
380,City EPA,Nanfang,35.104871,118.353518,74,38,30,9,5,6,20,19,0,96,1,20140901170000
381,"Xinguang woolen factory, Linyi",,34.981004,118.282,76,52,16,21,9,5,20,19,0,96,1,20140901170000
382,"Hongfu Baijiu Factory, Linyi",,34.998788,118.257275,65,41,19,11,6,13,20,19,0,96,1,20140901170000
384,"Hedong insurance company, Linyi",,35.089354,118.40812,72,56,24,19,5,6,20,19,0,96,1,20140901170000
385,"Jianghua vehicule center, Linyi",,35.010082,118.435749,70,38,19,12,6,7,20,19,0,96,1,20140901170000
386,Linyi,,35.10428,118.362202,76,56,30,21,11,15,20,19,0,96,1,20140901170000
387,"Heima group, Dezhou",,37.466063,116.314134,171,93,39,12,8,15,24,22,1012,79,1,20140901180000
388,"Monitoring station, Dezhou",,37.433107,116.377312,181,105,29,10,11,14,24,22,1012,79,1,20140901180000
389,"Supervision Station, Dezhou",,37.449689,116.324709,167,106,39,10,16,22,24,22,1012,79,1,20140901180000
390,"Huayu technical school, Dezhou",,37.462809,116.357559,162,115,47,15,16,16,24,22,1012,79,1,20140901180000
391,"Shuangyi group, Dezhou",,37.478848,116.316362,185,108,38,21,5,23,24,22,1012,79,1,20140901180000
392,Dezhou,,37.434959,116.363366,185,115,47,21,16,23,24,22,1012,79,1,20140901180000
393,"Dongchang District Government, Liaocheng",,36.444473,115.971733,153,63,24,15,14,19,22,19,1012,77,1,20140901180000
394,"Light Machinery Factory No. 2, Liaocheng",,36.456788,116.002383,163,95,28,15,10,16,22,19,1012,77,1,20140901180000
395,"City committee communist party school, Liaocheng",,36.479537,115.989288,151,70,25,13,14,9,22,19,1012,77,1,20140901180000
396,"Customs, Liaocheng",,36.431933,115.956974,158,77,22,15,9,13,22,19,1012,77,1,20140901180000
397,"Hongshun Garden, Liaocheng",,36.471124,115.960319,153,77,28,19,11,9,22,19,1012,77,1,20140901180000
398,"BDA, Liaocheng",,36.459407,116.043621,151,74,23,11,9,9,22,19,1012,77,1,20140901180000
399,Liaocheng,,36.456792,115.991051,163,95,28,19,14,19,22,19,1012,77,1,20140901180000
400,"City EPA, Binzhou",,37.38024,118.026895,153,60,21,17,20,14,24,20,1012,73,1,20140901180000
401,"Beizhong new school, Binzhou",,37.38374,117.988996,165,78,17,16,13,15,24,20,1012,73,1,20140901180000
402,"No.2 water factory, Binzhou",,37.36155,118.002648,160,82,17,12,14,9,24,20,1012,73,1,20140901180000
403,"Keling Chemical factory, Binzhou",,37.396138,117.943609,124,60,27,11,13,13,24,20,1012,73,1,20140901180000
404,"Yinhe logistics company, Binzhou",,37.356122,117.943326,155,79,26,16,12,11,24,20,1012,73,1,20140901180000
405,"Bilin compond, Binzhou",,37.36815,117.978964,156,74,15,13,16,9,24,20,1012,73,1,20140901180000
406,Binzhou,,37.382639,117.976606,165,82,27,17,20,15,24,20,1012,73,1,20140901180000
407,"Bureau of Meteorology, Heze",,35.248625,115.428775,142,51,27,12,6,13,19,17,0,86,2,20140901180000
408,"Sewage treatment plant, Heze",,35.222517,115.531511,132,45,11,8,6,12,19,17,0,86,2,20140901180000
409,"Municipal CPPCC, Heze",,35.237125,115.480591,109,50,20,13,17,12,19,17,0,86,2,20140901180000
410,"Huarun Pharmaceutical Company, Heze",,35.261463,115.524873,95,55,12,17,7,11,19,17,0,86,2,20140901180000
411,"Heze University, Heze",,35.269706,115.460934,152,56,16,12,10,11,19,17,0,86,2,20140901180000
412,Heze,,35.233354,115.486503,152,56,27,17,17,14,19,17,0,86,2,20140901180000
413,"Shiji Park, Shijiazhuang",,38.03155,114.547873,174,91,26,10,5,7,21,20,1010,94,4,20140901180000
414,"Xinan College, Shijiazhuang",,38.012764,114.473163,156,58,25,1,4,9,21,20,1010,94,4,20140901180000
415,"Chemical College, Shijiazhuang",,38.055503,114.569816,159,81,12,11,7,6,21,20,1010,94,4,20140901180000
416,"Worker hospital, Shijiazhuang",,38.051784,114.461209,159,64,29,6,5,8,21,20,1010,94,4,20140901180000
417,"Northwest Water Company, Shijiazhuang",,38.140638,114.508038,151,57,28,10,15,7,21,20,1010,94,4,20140901180000
418,"High-tech zone, Shijiazhuang",,38.040482,114.610775,171,82,23,13,7,7,21,20,1010,94,4,20140901180000
419,"Fenglong Montain, Shijiazhuang",,37.910829,114.360264,228,151,45,14,34,13,21,20,1010,94,4,20140901180000
1130,"Zhengding Unicom, Shijiazhuang",,38.159458,114.59879,167,77,34,11,10,10,21,21,1010,100,3,20140901180000
1131,"Luancheng Communications, Shijiazhuang",,37.906534,114.638785,231,129,38,23,27,8,21,21,1010,100,3,20140901180000
1132,"Gaocheng Experimental School, Shijiazhuang",,38.039518,114.867812,184,114,29,7,5,10,21,21,1010,100,3,20140901180000
1133,"Wuji EPA, Shijiazhuang",,38.17862,114.997012,265,146,44,12,18,11,21,21,1010,100,3,20140901180000
1134,"Shenze Power Supply Bureau, Shijiazhuang",,38.197674,115.219126,261,154,50,16,22,11,21,21,1010,100,3,20140901180000
1135,"Zhaoxian EPA, Shijiazhuang",,37.77171,114.775957,188,140,50,18,29,9,21,21,1010,100,3,20140901180000
1136,"Gaoyi County City Hall, Shijiazhuang",,37.623535,114.612729,186,117,43,43,15,8,21,21,1010,100,3,20140901180000
1137,"Zanhuang County City Hall, Shijiazhuang",,37.672898,114.398269,231,133,22,35,4,12,21,21,1010,100,3,20140901180000
1138,"Jingxing Bureau of Meteorology, Shijiazhuang",,38.038788,114.158406,164,93,31,19,27,19,21,21,1010,100,3,20140901180000
1139,"Pingshan Ye River, Shijiazhuang",,38.266657,114.210275,168,79,30,9,7,7,21,21,1010,100,3,20140901180000
420,Shijiazhuang,,38.042926,114.520834,174,91,29,14,7,9,21,20,1010,94,4,20140901180000
421,"No. 12 middle school, Tangshan",,39.659306,118.190271,107,71,11,18,11,20,-,-,0,-,-,20140901180000
422,"Ceramics Company, Tangshan",,39.669255,118.225185,158,85,29,16,12,4,24,20,1010,78,3,20140901180000
423,"Commodities Bureau, Tangshan",,39.642301,118.191265,129,67,11,17,9,5,24,20,1010,78,3,20140901180000
424,"Leidazhanzi Station, Tangshan",,39.644375,118.150383,157,90,25,12,12,7,24,20,1010,78,3,20140901180000
425,"Supply and marketing cooperatives, Tangshan",,39.632334,118.17232,155,62,21,15,10,7,24,20,1010,78,3,20140901180000
1140,"Guye District City Hall, Tangshan",,39.741379,118.460246,183,98,35,18,10,11,24,22,1010,89,2,20140901180000
1141,"Kaiping Stations, Tangshan",,39.675246,118.275149,189,111,33,24,11,3,24,22,1010,89,2,20140901180000
1142,"Fengnan District City Hall, Tangshan",,39.5834,118.097454,191,112,32,40,17,16,24,22,1010,89,2,20140901180000
1143,"Fengrun City Hall, Tangshan",,39.840355,118.175338,185,135,30,22,16,17,24,22,1010,89,2,20140901180000
1144,"Qianxi EPA, Tangshan",,40.153339,118.317265,182,95,36,15,15,28,24,22,1010,89,2,20140901180000
1145,"Caofeidian Xinli  Primary School, Tangshan",,39.291232,118.462182,157,63,54,4,3,2,24,22,1010,89,2,20140901180000
1146,"Zunhua EPA, Tangshan",,40.206249,117.997315,189,95,28,20,18,38,24,22,1010,89,2,20140901180000
1147,"Qianan No.1 middle school, Tangshan",,40.004248,118.717055,175,89,32,12,10,13,24,22,1010,89,2,20140901180000
1266,"Luannan County , Tangshan",,39.511132,118.686928,182,85,42,18,24,8,24,22,1010,89,2,20140901180000
1267,"Yutian County , Tangshan",,39.908249,117.751417,176,101,38,18,13,16,24,22,1010,89,2,20140901180000
426,Tangshan,,39.632175,118.186472,158,98,29,17,12,7,-,-,0,-,-,20140901180000
427,"City Monitoring Station, Qinhuangdao",,39.958109,119.607773,99,58,14,15,3,1,,,0,,,20140901180000
428,"Beidaihe, Qinhuangdao",,39.829209,119.53194,78,23,24,7,11,6,,,0,,,20140901180000
429,"Shanhai Pass, Qinhuangdao",,40.019298,119.767898,82,50,9,41,3,5,,,0,,,20140901180000
430,"Contruction Plazz, Qinhuangdao",,39.943187,119.542912,87,73,20,35,3,4,,,0,,,20140901180000
431,"City government, Qinhuangdao",,39.93711,119.612769,99,58,12,15,3,4,,,0,,,20140901180000
1148,"Qinglong EPA, Qinhuangdao",,40.419223,118.958002,159,58,69,6,2,14,24,22,0,89,2,20140901180000
1149,"Changli EPA, Qinhuangdao",,39.714369,119.173237,183,87,39,12,7,5,,,0,,,20140901180000
1268,"Lulong County Bureau of Meteorology , Qinhuangdao",,39.901091,118.904857,183,98,37,12,9,5,24,22,0,89,2,20140901180000
432,Qinhuangdao,,39.936485,119.606263,99,58,12,15,3,4,-,-,0,-,-,20140901180000
433,"CongTai Park, Handan",,36.620197,114.501891,169,89,17,7,16,7,24,18,0,66,2,20140901180000
434,"City EPA, Handan",,36.618145,114.518822,190,91,24,31,4,10,24,18,0,66,2,20140901180000
435,"East Sewage Factory, Handan",,36.616064,114.548714,180,100,20,21,8,6,24,18,0,66,2,20140901180000
436,"Mine Hospital, Handan",,36.578149,114.509854,154,90,22,8,5,5,24,18,0,66,2,20140901180000
1150,"Fengfeng mine Inland Revenue Department, Handan",,36.423085,114.245994,225,135,20,20,11,15,21,19,0,84,2,20140901180000
1151,"Shexian EPA, Handan",,36.589084,113.692341,164,74,32,10,3,13,,,0,,,20140901180000
1152,"Ci County Vocational Education Center, Handan",,36.380247,114.390119,186,84,27,34,21,12,,,0,,,20140901180000
1153,"Yongnian government guesthouse, Handan",,36.783297,114.502905,200,143,27,32,50,8,24,18,0,66,2,20140901180000
1154,"Wuan BDA, Handan",,36.686223,114.269009,180,132,21,1,14,25,,,0,,,20140901180000
1085,Handan,,36.625683,114.544812,190,100,24,8,16,10,24,18,0,66,2,20140901180000
437,"Road and Bridge Corporation, Xingtai",,37.096415,114.538799,172,123,15,12,16,7,24,18,1010,66,2,20140901180000
438,"Dahuo fontain, Xingtai",,37.097563,114.488001,152,91,10,10,23,11,24,18,1010,66,2,20140901180000
439,"Xingtai Normal College, Xingtai",,37.053404,114.531819,165,91,15,12,30,11,24,18,1010,66,2,20140901180000
440,"Environment protection office, Xingtai",,37.06253,114.490985,172,108,20,23,17,11,24,18,1010,66,2,20140901180000
1155,"Cultural centers within the mound, Xingtai",,37.293569,114.524873,179,105,37,25,24,11,24,18,1010,66,2,20140901180000
383,Xingtai,,37.071066,114.510749,172,123,20,23,30,11,24,18,1010,66,2,20140901180000
441,"City Monitoring Station, Baoding",,38.871737,115.527103,153,57,66,2,8,13,24,22,1011,85,0,20140901180000
442,"Surface water Company, Baoding",,38.842891,115.467326,166,75,42,29,28,8,24,22,1011,85,0,20140901180000
443,"Huadian II, Baoding",,38.896748,115.528102,163,79,52,1,3,10,24,22,1011,85,0,20140901180000
444,"Reception Center, Baoding",,38.911905,115.477301,169,61,33,6,2,9,24,22,1011,85,0,20140901180000
445,"Film Factory, Baoding",,38.876949,115.448383,165,68,43,5,4,9,24,22,1011,85,0,20140901180000
446,"Natatorium, Baoding",,38.863815,115.499212,167,73,44,8,10,13,24,22,1011,85,0,20140901180000
1156,"Qingyuan City Hall, Baoding",,38.771758,115.502189,184,104,44,1,2,6,24,22,1011,85,0,20140901180000
1157,"Xushui EPA, Baoding",,39.025781,115.668023,169,104,83,12,13,8,24,22,1011,85,0,20140901180000
1158,"Zhouzhou Monitoring Stations, Baoding",,39.493241,116.040187,164,72,73,4,7,3,24,22,1011,85,0,20140901180000
1159,"Gaobeidian EPA, Baoding",,39.3329,115.885891,157,70,63,7,24,5,24,22,1011,85,0,20140901180000
447,Baoding,,38.874791,115.471124,169,79,66,29,28,13,24,22,1011,85,0,20140901180000
448,"Century Compound, Zhangjiakou",,40.770279,114.909106,82,40,11,14,35,5,16,16,1012,96,1,20140901180000
449,"North Pumping Station, Zhangjiakou",,40.874362,114.910119,80,35,3,7,16,12,16,16,1012,96,1,20140901180000
450,"Hardware Warehouse, Zhangjiakou",,40.81232,114.887119,72,31,24,12,12,16,16,16,1012,96,1,20140901180000
451,"Tanji Chang, Zhangjiakou",,40.796301,114.89811,85,25,21,9,7,6,16,16,1012,96,1,20140901180000
1160,"Xiahuayuan EPA, Zhangjiakou",,40.509345,115.302442,124,42,44,19,3,7,16,16,1012,96,1,20140901180000
1161,"Huaian EPA, Zhangjiakou",,40.68157,114.398646,85,29,28,10,14,0,16,16,1012,96,1,20140901180000
1162,"Huailai Fuqian Primary School, Zhangjiakou",,40.422204,115.530285,112,34,28,15,11,5,16,16,1012,96,1,20140901180000
1269,"Zhangbei EPA , Zhangjiakou",,41.166775,114.732369,74,20,28,1,3,3,16,16,1012,96,1,20140901180000
1270,"Kangbao County Environmental Protection Agency , Zhangjiakou",,41.837866,114.591246,59,18,1,2,3,5,16,16,1012,96,1,20140901180000
1271,"Guyuan County welfare , Zhangjiakou",,41.669984,115.687401,93,25,30,3,4,6,16,16,1012,96,1,20140901180000
1272,"Shangyi County Environmental Protection Bureau , Zhangjiakou",,41.086638,113.984688,117,51,34,1,6,16,16,16,1012,96,1,20140901180000
1273,"Yuxian Secondary School , Zhangjiakou",,39.84699,114.601986,87,41,44,5,3,5,16,16,1012,96,1,20140901180000
1274,"Yang County Vocational Education Center , Zhangjiakou",,40.106343,114.134732,134,52,35,7,3,9,16,16,1012,96,1,20140901180000
1275,"Wan county Environmental Protection Agency , Zhangjiakou",,40.770459,114.75033,154,44,31,15,5,6,16,16,1012,96,1,20140901180000
473,"Nankou road, Tianjin",,39.174022,117.199688,158,58,21,15,5,7,24,20,1010,78,3,20140901180000
1276,"Zhuolu County Environmental Protection Agency , Zhangjiakou",,40.374273,115.221393,119,40,36,2,5,8,16,16,1012,96,1,20140901180000
452,Zhangjiakou,,40.825744,114.893659,93,42,27,14,35,16,16,16,1012,96,1,20140901180000
453,"Railway, Chengde",,40.917557,117.972331,163,75,34,8,13,17,20,18,1012,82,1,20140901180000
454,"Cultural Center, Chengde",,40.974625,117.824437,132,60,29,4,2,13,20,18,1012,82,1,20140901180000
455,"Bank of China, Chengde",,40.985582,117.958304,147,54,31,8,17,14,20,18,1012,82,1,20140901180000
456,"BDA, Chengde",,40.937567,117.969325,160,75,38,7,13,18,20,18,1012,82,1,20140901180000
457,"Ligong, Chengde",,41.012579,117.94428,172,42,17,8,3,15,20,18,1012,82,1,20140901180000
1163,"Chengde County EPA, Chengde",,40.776643,118.17646,183,130,31,24,3,24,20,18,1012,82,1,20140901180000
1164,"Xinglong County City Hall, Chengde",,40.424301,117.513488,172,85,40,6,6,19,20,18,1012,82,1,20140901180000
1165,"Luanping EPA, Chengde",,40.950792,117.350715,124,33,49,3,7,13,20,18,1012,82,1,20140901180000
1166,"Fengning County City Hall, Chengde",,41.216739,116.658037,72,27,39,2,7,8,20,18,1012,82,1,20140901180000
1277,"Longhua EPA , Chengde",,41.311956,117.739605,132,55,35,6,5,12,20,18,1012,82,1,20140901180000
458,Chengde,,40.955652,117.968737,163,75,38,8,17,18,20,18,1012,82,1,20140901180000
459,"Municipal EPB, Cangzhou",,38.323507,116.876746,177,128,53,17,22,9,24,21,1010,83,2,20140901180000
460,"Cangxian Urban Construction Bureau, Cangzhou",,38.299495,116.890734,170,122,32,16,20,7,24,21,1010,83,2,20140901180000
461,"TV Broadcast Station, Cangzhou",,38.325525,116.863761,199,128,34,10,24,9,24,21,1010,83,2,20140901180000
1167,"Qing County City Hall, Cangzhou",,38.589643,116.815876,221,86,32,20,17,2,24,21,1010,83,2,20140901180000
1168,"Poyoushi City Hall, Cangzhou",,38.089516,116.590575,272,184,1,24,45,8,24,21,1010,83,2,20140901180000
1169,"Huanghua Finance Bureau Training Center, Cangzhou",,38.377793,117.343356,170,12,50,17,45,1,24,21,1010,83,2,20140901180000
462,Cangzhou,,38.305035,116.844625,199,128,34,17,24,9,24,22,1010,89,2,20140901180000
463,"Environmental Monitoring Supervision Center, Langfang",,39.558157,116.720995,171,105,30,8,12,12,24,22,1010,89,2,20140901180000
464,"TCM Medical Material Company, Langfang",,39.519096,116.689914,139,67,38,3,4,11,24,20,1010,78,3,20140901180000
465,"BDA, Langfang",,39.576175,116.779041,124,53,25,2,6,10,24,20,1010,78,3,20140901180000
466,"North China Institute of Aerospace, Langfang",,39.53517,116.743027,169,71,31,17,5,13,24,22,1010,89,2,20140901180000
1170,"Guan Party School, Langfang",,39.446185,116.311026,186,78,56,13,5,10,24,22,1010,89,2,20140901180000
1171,"Xianghe EPA, Langfang",,39.76725,117.015252,137,21,68,9,9,11,24,22,1010,89,2,20140901180000
1172,"Wenan County EPA, Langfang",,38.880927,116.47001,169,76,63,11,21,8,24,22,1010,89,2,20140901180000
1173,"Three Rivers Department of Transportation, Langfang",,39.989419,117.091528,99,29,94,6,4,14,24,22,1010,89,2,20140901180000
1278,"Yongqing EPA , Langfang",,39.329071,116.510917,188,139,50,10,1,11,24,22,1010,89,2,20140901180000
1279,"Dacheng EPA, Langfang",,38.712628,116.665751,213,106,92,17,15,7,24,22,1010,89,2,20140901180000
467,Langfang,,39.539148,116.689668,139,67,38,3,6,11,24,20,1010,78,3,20140901180000
468,"Hengshui City EPB, Hengshui",,37.739679,115.695929,199,106,43,5,8,12,21,18,0,84,3,20140901180000
469,"Environmental Monitoring Station, Hengshui",,37.738593,115.648837,127,61,44,2,11,11,21,18,0,84,3,20140901180000
470,"Electrical Machine North Factory, Hengshui",,37.758686,115.70094,184,102,43,13,3,13,21,18,0,84,3,20140901180000
1174,"Anping EPA, Hengshui",,38.238559,115.537988,264,148,54,15,15,17,22,18,0,80,3,20140901180000
1175,"Jizhou EPA, Hengshui",,37.548552,115.58679,185,105,43,16,6,11,22,18,0,80,3,20140901180000
1280,"Zaoqiang EPA, Hengshui",,37.520698,115.714936,201,190,102,12,12,20,22,18,0,80,3,20140901180000
1281,"Wuyi EPA, Hengshui",,37.801554,115.898697,287,106,61,11,22,15,22,18,0,80,3,20140901180000
1282,"Wuqiang EPA , Hengshui",,38.03557,115.959767,13,190,44,16,19,18,22,18,0,80,3,20140901180000
1283,"Raoyang EPA , Hengshui",,38.230652,115.741041,-,-,-,-,-,-,-,-,0,-,-,20140901180000
1284,"Gucheng County , Hengshui",,37.347569,115.966707,185,98,47,12,9,13,22,18,0,80,3,20140901180000
471,Hengshui,,37.739562,115.676066,199,106,43,13,8,13,21,18,0,84,3,20140901180000
1176,"Xinji City Hall, Xinji",,37.949711,115.230084,204,107,56,13,17,9,22,18,0,80,3,20140901180000
474,"Qinjian street, Tianjin",,39.166588,117.15104,154,66,23,12,5,8,24,20,1010,78,3,20140901180000
475,"Nanjing Road, Tianjin",,39.120958,117.195112,160,62,29,11,6,6,24,22,1010,89,2,20140901180000
476,"Dazhigu No.8 road, Tianjin",,39.111811,117.25147,153,66,25,17,2,5,24,22,1010,89,2,20140901180000
477,"Qianjin street, Tianjin",,39.09371,117.207981,144,55,13,5,6,7,24,22,1010,89,2,20140901180000
478,"Huaihe street, Tianjin",,39.227167,117.191293,151,60,20,40,3,7,24,22,1010,89,2,20140901180000
479,"Xiangshan street, Tianjin",,39.134752,117.275125,161,9,40,8,2,7,24,22,1010,89,2,20140901180000
480,"Yuejin Road, Tianjin",,39.088177,117.320884,151,71,27,14,1,7,24,20,1010,78,3,20140901180000
481,"Zhujiang street, Tianjin",,39.064463,117.231268,-,-,-,-,-,-,-,-,0,-,-,20140901180000
482,"No.4 street, Tianjin",,39.035228,117.713424,109,54,19,17,4,4,24,20,1010,78,3,20140901180000
483,"Yongming road, Tianjin",,38.840392,117.463805,142,50,32,10,9,6,24,20,1010,78,3,20140901180000
484,"Xinhua street, Tianjin",,39.138671,117.010083,-,-,-,-,-,-,-,-,0,-,-,20140901180000
485,"Jingu Road, Tianjin",,38.985659,117.381254,129,50,43,5,5,10,24,22,1010,89,2,20140901180000
486,"Tanggu Yingkou street, Tianjin",,39.021768,117.656454,122,59,38,12,7,8,24,22,1010,89,2,20140901180000
487,"Hexi Yijing road, Tianjin",,39.248392,117.798043,114,62,32,8,4,7,24,22,1010,89,2,20140901180000
488,"Jianshe Road, Tianjin",,39.720075,117.310588,129,56,34,9,4,12,24,22,1010,89,2,20140901180000
489,"Quanzhou South road, Tianjin",,39.373857,117.050329,163,63,32,24,4,17,24,22,1010,89,2,20140901180000
490,"Donghuan road, Tianjin",,40.043144,117.451062,13,54,35,7,5,35,24,22,1010,89,2,20140901180000
491,"Tuanpowa, Tianjin",,38.920418,117.16299,165,65,29,13,3,9,24,22,1010,89,2,20140901180000
493,"Beiwei No.2 road, Tianjin",,38.943857,116.920624,180,67,46,11,23,10,24,22,1010,89,2,20140901180000
494,"Haitai fazhan No.2 road, Tianjin",,39.079608,117.096583,169,72,9,11,4,8,24,22,1010,89,2,20140901180000
495,"Hangtian road, Tianjin",,39.152244,117.381309,151,53,26,12,6,11,24,22,1010,89,2,20140901180000
496,"Hanbei road, Tianjin",,39.159768,117.770477,107,38,47,6,5,12,24,22,1010,89,2,20140901180000
497,"Baobai highway, Tianjin",,39.51757,117.349635,112,142,40,6,7,14,24,22,1010,89,2,20140901180000
498,Tianjin,,39.085164,117.207281,160,62,29,11,6,6,24,22,1010,89,2,20140901180000
499,"Wolong bridge, Hangzhou",,30.24371,120.132762,95,35,15,5,4,7,26,20,1010,69,2,20140901180000
500,"Hemu primary school, Hangzhou",,30.309669,120.124507,142,70,27,32,4,7,26,20,1010,69,2,20140901180000
501,"Zhejiang Agricultural University, Hangzhou",,30.265601,120.197583,124,59,18,27,4,9,26,20,1010,69,2,20140901180000
502,"Xiasha, Hangzhou",,30.303516,120.352618,149,56,26,6,10,6,26,20,1010,69,2,20140901180000
503,"Yunqi, Hangzhou",,30.178555,120.093142,91,38,10,5,4,8,26,21,1010,74,1,20140901180000
504,"Xixi, Hangzhou",,30.272425,120.068144,129,45,14,19,5,9,26,21,1010,74,1,20140901180000
505,"Chengxiang town, Hangzhou",,30.179493,120.274184,-,-,-,-,-,-,-,-,0,-,-,20140901180000
506,"Qiandao lake, Hangzhou",,29.638139,119.031092,68,26,14,7,4,1,26,21,1010,74,1,20140901180000
507,"Linping town, Hangzhou",,30.415948,120.305059,124,62,27,16,8,7,26,21,1010,74,1,20140901180000
509,"No.2 Middle School, Hangzhou",,30.044303,119.956356,87,52,6,11,5,7,26,21,1010,74,1,20140901180000
510,"City Hall, Hangzhou",,30.234185,119.723503,91,52,26,15,17,6,26,21,1010,74,1,20140901180000
511,"No. 4 middle school, Hangzhou",,30.229428,119.699591,95,37,16,9,4,9,26,21,1010,74,1,20140901180000
512,Hangzhou,,30.271756,120.159765,129,61,19,22,10,9,26,21,1010,74,1,20140901180000
513,"City Station, Wenzhou",,28.009715,120.679129,74,31,26,11,2,5,24,23,0,94,1,20140901180000
514,"Ouhai, Wenzhou",,28.001846,120.641982,70,36,20,23,3,6,24,23,0,94,1,20140901180000
515,"Longwan, Wenzhou",,27.968122,120.768393,78,40,28,26,5,6,24,23,0,94,1,20140901180000
516,"Nanpu, Wenzhou",,27.981763,120.683685,74,43,21,19,3,12,24,23,0,94,1,20140901180000
517,Wenzhou,,27.990985,120.703425,78,41,28,26,5,11,24,23,0,94,1,20140901180000
518,"Monitoring station, Jiaxing",,30.75437,120.767373,142,51,30,23,14,10,25,23,1009,89,3,20140901180000
519,"Jiaxing University, Jiaxing",,30.745099,120.735004,151,58,29,16,11,6,25,23,1009,89,3,20140901180000
520,"Qinghe Primary School, Jiaxing",,30.775685,120.747969,142,58,26,16,11,8,25,23,1009,89,3,20140901180000
521,Jiaxing,,30.751627,120.762862,151,58,30,23,14,10,25,23,1009,89,3,20140901180000
522,"Chengbei water plant, Huzhou",,30.891155,120.096593,99,56,14,17,15,9,25,23,1009,89,3,20140901180000
523,"Jishan new village, Huzhou",,30.859939,120.120168,132,55,20,18,15,10,25,23,1009,89,3,20140901180000
524,"Town west water plant, Huzhou",,30.862371,120.084577,104,63,14,13,9,8,25,23,1009,89,3,20140901180000
525,Huzhou,,30.892304,120.091694,132,63,20,18,15,10,25,23,1009,89,3,20140901180000
526,"Donghu middle school, Shaoxing",,29.990447,120.647547,97,43,20,18,12,10,25,21,1010,78,1,20140901180000
527,"City EPA station, Shaoxing",,30.001695,120.584318,151,66,20,20,15,10,25,21,1010,78,0,20140901180000
528,"Chengdong BDA committee, Shaoxing",,29.986643,120.613578,129,46,19,16,7,10,25,21,1010,78,1,20140901180000
529,"Paojiang station, Shaoxing",,30.07574,120.62154,155,79,25,24,18,8,25,21,1010,78,1,20140901180000
530,"Shaoxing technical school, Shaoxing",,29.930983,120.577131,117,51,9,8,7,9,25,21,1010,78,0,20140901180000
531,"Library, Shaoxing",,29.706266,120.253183,87,48,9,6,2,11,25,21,1010,78,0,20140901180000
532,"Transporation management station, Shaoxing",,29.726405,120.221602,89,53,12,4,4,18,25,21,1010,78,0,20140901180000
533,"Dongpu Town Governement, Shaoxing",,30.049601,120.539893,119,54,9,21,11,11,25,21,1010,78,0,20140901180000
534,Shaoxing,,29.993122,120.590182,155,79,25,24,18,10,-,-,0,-,-,20140901180000
535,"City Monitoring Station, Jinhua",,29.100031,119.690373,91,40,21,26,17,6,23,22,0,93,1,20140901180000
536,"No.15 middle school, Jinhua",,29.074022,119.652121,112,37,24,9,26,5,23,22,0,93,1,20140901180000
537,"No.4 middle school, Jinhua",,29.110109,119.653654,157,0,21,17,11,4,23,22,0,93,1,20140901180000
538,"Beiyuan, Jinhua",,29.332898,120.083351,95,54,8,17,22,7,23,22,0,93,1,20140901180000
539,"Jiangdong, Jinhua",,29.302486,120.095291,89,47,13,20,11,8,23,22,0,93,1,20140901180000
540,Jinhua,,29.076083,119.65215,157,40,24,26,26,6,23,22,0,93,1,20140901180000
541,"EPA building, Quzhou",,28.937291,118.876081,112,50,18,18,20,7,26,25,1011,90,1,20140901180000
542,"Experimental school, Quzhou",,28.961502,118.880916,109,43,22,15,15,2,26,25,1011,90,1,20140901180000
543,"Quzhou University, Quzhou",,28.971452,118.860052,93,45,6,14,6,8,26,25,1011,90,1,20140901180000
544,Quzhou,,28.966994,118.864252,112,50,18,18,20,8,26,25,1011,90,1,20140901180000
545,"Putuo east port, Zhoushan",,29.951412,122.317679,127,53,41,11,4,7,25,24,1010,94,2,20140901180000
546,"Dinghai tanfeng, Zhoushan",,30.018014,122.126566,102,56,49,6,3,11,25,24,1010,94,2,20140901180000
547,Zhoushan,,29.983049,122.210763,152,62,49,11,4,11,25,24,1010,94,2,20140901180000
548,"Taizhou EPA building, Taizhou",,28.651216,121.42331,117,59,16,12,4,8,25,24,0,94,2,20140901180000
549,"Luqiao Tian Yang Wang, Taizhou",,28.574364,121.381194,85,39,14,16,2,7,25,24,0,94,2,20140901180000
550,"Huangyan EPA building, Taizhou",,28.656151,121.285064,85,36,7,14,2,9,25,24,0,94,2,20140901180000
551,"Yu Zhuang Qian, Lishui",,28.419638,119.883884,80,38,15,20,3,6,26,24,1011,90,1,20140901180000
552,"Monitoring station building, Lishui",,28.444379,119.923103,99,42,7,8,4,4,26,24,1011,90,1,20140901180000
553,"Liandu primary school, Lishui",,28.450912,119.939332,76,48,15,11,2,6,26,24,1011,90,1,20140901180000
554,Lishui,,28.464224,119.927201,99,48,15,20,3,6,26,24,1011,90,1,20140901180000
1248,Jingningxian,,27.977454,119.634837,57,41,1,7,2,6,26,24,1011,90,1,20140901180000
555,Taigu Primary School,,29.858177,121.593738,112,50,29,12,6,8,25,24,1010,94,2,20140901180000
556,Qianhu shuihan,,29.862459,121.5328,139,57,27,11,4,7,25,24,1010,94,2,20140901180000
557,Sanjiang secondary schools,,29.884687,121.562713,117,52,27,22,15,10,25,24,1010,94,2,20140901180000
558,Longsai Hospital,,29.949294,121.720671,153,57,35,21,11,10,25,24,1010,94,2,20140901180000
559,Beilun District EPB,,29.899544,121.827597,139,58,29,14,6,9,25,24,1010,94,2,20140901180000
560,Wanli University,,29.896155,121.541154,112,51,35,11,5,9,25,24,1010,94,2,20140901180000
561,Qianhu water plant,,29.788156,121.652415,132,58,33,6,138,7,25,24,1010,94,2,20140901180000
562,Municipal management station,,29.893743,121.620269,137,58,28,12,39,10,25,24,1010,94,2,20140901180000
1177,Daxie Literary Museum,,29.891281,121.952741,129,79,20,9,2,9,25,24,1010,94,2,20140901180000
1178,Cixi EPB,,30.159852,121.242331,117,63,39,8,8,15,25,24,1010,94,2,20140901180000
1179,Cixi Experimently Primary School,,30.174341,121.262169,119,58,39,8,8,12,25,24,1010,94,2,20140901180000
1182,Fenghua EPB,,29.660537,121.414074,70,29,33,1,2,8,25,24,1010,94,2,20140901180000
1183,"Yuelong station, Ninghai",,29.290223,121.439263,93,43,21,8,5,8,25,24,1010,94,2,20140901180000
1184,"Wenfeng Primary School, Xiangshan",,29.470841,121.895054,89,28,37,3,2,7,25,24,1010,94,2,20140901180000
1185,"Chengnan Primary School, Ninghai",,29.282647,121.428839,89,46,25,6,5,6,25,24,1010,94,2,20140901180000
1186,"Xingang Primary School, Xiangshan",,29.199718,121.935879,78,30,37,4,3,6,25,24,1010,94,2,20140901180000
1294,Ningbo,,29.865766,121.548164,153,58,35,22,138,10,25,24,1010,94,2,20140901180000
1187,Fuyang,,30.046157,119.96468,87,52,6,11,5,7,-,-,0,-,-,20140901180000
1188,Yiwu,,29.304353,120.079794,95,54,13,20,22,8,-,-,0,-,-,20140901180000
1189,Zhuji,,29.711185,120.240748,89,53,12,6,4,18,25,21,1010,78,0,20140901180000
563,"Shanxi Road , Nanjing",,32.06795,118.779216,89,64,6,16,3,8,22,22,1010,100,0,20140901180000
564,"Ruijin Road , Nanjing",,32.029321,118.80817,112,43,4,23,2,6,22,22,1010,100,1,20140901180000
565,"Xuanwu Lake, Nanjing",,32.075423,118.800188,139,40,11,19,3,4,22,22,1010,100,1,20140901180000
566,"Olympic Center, Nanjing",,32.007171,118.742217,152,64,17,6,2,5,22,22,1010,100,1,20140901180000
567,"Xianlin University Town , Nanjing",,32.106958,118.919882,85,40,15,7,1,6,22,22,1010,100,0,20140901180000
568,Nanjing,,32.058179,118.802061,152,57,14,16,6,9,22,22,1010,100,0,20140901180000
569,"Shangfang hill , Suzhou",,31.24502,120.565211,80,33,20,22,9,9,25,23,1009,89,3,20140901180000
570,"Wuzhong District , Suzhou",,31.268105,120.61717,99,64,8,12,4,10,25,23,1009,89,3,20140901180000
571,"Suzhou New District , Suzhou",,31.297277,120.547262,95,33,21,16,12,10,25,23,1009,89,3,20140901180000
572,"Suzhou Industrial Area, Suzhou",,31.307603,120.673257,142,54,11,13,17,9,25,23,1009,89,3,20140901180000
573,"Xiangcheng district, Suzhou",,31.368674,120.645209,95,36,16,12,15,11,25,23,1009,89,3,20140901180000
574,Suzhou,,31.296701,120.589493,147,65,21,18,9,11,25,23,1009,89,3,20140901180000
575,"South suburb , Nantong",,31.957836,120.917218,65,27,27,6,6,3,23,23,1003,98,2,20140901180000
576,"Xinghu park, Nantong",,31.927873,120.944254,70,38,27,10,4,4,23,23,1003,98,2,20140901180000
577,"Zilang school, Nantong",,32.039638,120.814358,65,18,28,6,4,0,23,23,1003,98,2,20140901180000
578,Nantong,,31.978005,120.898555,70,38,27,10,5,6,23,23,1003,98,2,20140901180000
579,Lianyungang,,34.595509,119.226814,152,84,21,27,10,7,8,8,1016,96,0,20140901180000
580,"Hongmen police substation, Lianyungang",,34.588692,119.146693,59,23,34,7,6,4,23,22,1010,88,2,20140901180000
581,"Xugou Nuclear Expert Village , Lianyungang",,34.749957,119.373707,55,38,26,20,17,6,23,22,1010,88,2,20140901180000
582,"Hengrui pharmaceutical company, BDA, Lianyungang",,34.697574,119.353668,53,25,36,7,2,6,23,22,1010,88,2,20140901180000
583,"City Monitoring Station, Lianyungang",,34.586791,119.186929,42,22,34,6,3,4,23,22,1010,88,2,20140901180000
584,"Yellow river new village , Xuzhou",,34.271542,117.177241,42,29,22,10,8,7,22,20,1012,81,2,20140901180000
585,"Tongshan Veterinary Hospital , Xuzhou",,34.307086,117.197766,61,26,22,15,15,5,22,20,1012,81,2,20140901180000
586,"New Town , Xuzhou",,34.213992,117.261718,59,23,26,5,4,9,22,20,1012,81,2,20140901180000
587,"Taoyuan road, Xuzhou",,34.289822,117.249721,46,25,21,12,3,8,22,20,1012,81,2,20140901180000
588,"Agricultural Science Academy , Xuzhou",,34.27655,117.299079,46,30,15,10,14,6,21,20,1011,91,1,20140901180000
589,"Tongshan EPA, Xuzhou",,34.179384,117.171798,59,22,18,3,6,4,22,20,1012,81,2,20140901180000
590,Xuzhou,,34.20346,117.289825,59,26,22,12,9,8,22,20,1012,81,2,20140901180000
591,Yangzhou,,32.39233,119.418446,159,69,10,19,10,5,11,9,0,90,6,20140901180000
592,"Hanjiang Monitoring Station, Yangzhou",,32.374218,119.394484,53,15,16,6,7,3,22,22,0,99,1,20140901180000
593,"No. 4 Hospital, Yangzhou",,32.401394,119.44444,59,39,20,3,7,1,22,22,0,99,1,20140901180000
594,"City Monitoring Station, Yangzhou",,32.406588,119.41591,74,34,14,5,19,3,22,22,0,99,1,20140901180000
595,"University Town , Wuxi",,31.484752,120.273571,93,50,20,13,10,7,25,23,1009,89,3,20140901180000
596,"Shibei High School , Wuxi",,31.619969,120.279584,99,49,7,15,6,5,25,23,1009,89,3,20140901180000
597,"Yuhong Elementary School , Wuxi",,31.561155,120.249588,137,54,11,16,9,12,25,23,1009,89,3,20140901180000
598,Wuxi,,31.488746,120.31575,137,58,20,25,19,10,-,-,0,-,-,20140901180000
599,Changzhou,,31.808037,119.979205,172,86,6,22,36,13,11,9,0,88,5,20140901180000
600,"Chengjian School, Changzhou",,31.776476,119.937681,76,41,11,13,5,6,23,22,1003,98,2,20140901180000
601,"Changzhou Engineering Institute , Changzhou",,31.806828,119.966724,160,68,12,12,5,11,23,22,1003,98,2,20140901180000
602,"Wujin Monitoring Station, Changzhou",,31.701788,119.939676,158,70,10,12,7,8,23,22,1003,98,2,20140901180000
603,"City Monitoring Station, Changzhou",,31.777201,119.979426,160,63,13,14,3,10,23,22,1003,98,2,20140901180000
604,Zhenjiang,,32.18597,119.431281,170,79,4,39,15,13,9,8,0,93,5,20140901180000
605,"New District Administrative office , Zhenjiang",,32.186174,119.685021,63,18,21,7,6,8,22,22,1010,100,0,20140901180000
606,"Vocational Education Center , Zhenjiang",,32.212973,119.496253,59,31,14,3,3,7,22,22,1010,100,0,20140901180000
607,"Dantu Monitoring Station , Zhenjiang",,32.130026,119.435432,80,30,16,6,6,6,22,22,1010,100,0,20140901180000
608,"City Monitoring Station, Zhenjiang",,32.202178,119.439766,63,22,18,8,6,8,22,22,1010,100,0,20140901180000
609,"Gaogang Adminstrative office , Taizhoushi",,32.300768,119.886757,59,21,6,7,9,4,22,22,0,99,1,20140901180000
610,"Students Innovation Park , Taizhoushi",,32.461672,119.892761,134,66,22,2,9,3,22,22,0,99,1,20140901180000
611,Taizhoushi,,32.453555,119.927852,134,31,22,15,14,8,22,22,0,99,1,20140901180000
612,"Yancheng power station , Yancheng",,33.400859,120.123067,42,25,30,1,5,2,-,-,0,-,-,20140901180000
613,Yancheng,,33.345939,120.168504,144,52,30,5,3,7,11,10,1016,95,4,20140901180000
614,"Wenfeng Middle School , Yancheng",,33.370531,120.134041,42,13,16,23,4,4,-,-,0,-,-,20140901180000
615,"BDA Management Committe, Yancheng",,33.393191,120.22978,53,23,30,5,2,2,-,-,0,-,-,20140901180000
616,"City Monitoring Station, Yancheng",,33.390623,120.164423,65,24,28,1,2,3,22,22,0,99,1,20140901180000
617,Suqian,,33.960666,118.281004,160,87,24,7,5,7,11,10,0,91,6,20140901180000
618,"Suqian College , Suqian",,33.951472,118.298523,53,13,25,7,1,4,21,20,0,99,2,20140901180000
619,"Suqian Middle School , Suqian",,33.95784,118.249505,38,34,16,5,5,4,21,20,0,99,2,20140901180000
620,"Suyu District Environmental Protection Agency , Suqian",,33.94932,118.326569,55,19,23,1,3,5,21,20,0,99,2,20140901180000
621,"City Monitoring Station, Suqian",,33.956982,118.277022,72,23,11,1,3,4,21,20,0,99,2,20140901180000
622,Taizhou,,28.653436,121.425185,117,59,13,10,4,8,25,24,0,94,2,20140901180000
623,Donghu Liyuan,,30.572324,114.377844,61,40,12,15,6,7,23,22,1010,94,1,20140901180000
624,Yuehu Lake,,30.554662,114.256937,72,40,5,28,4,6,23,22,1010,94,1,20140901180000
625,Hankou Huaqiao ,,30.61724,114.287652,95,35,10,21,4,8,23,22,1010,94,1,20140901180000
626,Wuchang Ziyang ,,30.530801,114.309438,70,51,9,22,0,4,24,22,1010,89,2,20140901180000
627,Qingshan Ganghua,,30.622435,114.375599,85,36,13,19,10,5,24,22,1010,89,2,20140901180000
629,Donghu Gaoxin,,30.48095,114.40724,82,52,13,18,3,7,24,22,1010,89,2,20140901180000
630,Wujianshan,,30.63114,114.135907,99,45,10,20,-,7,24,22,1010,89,2,20140901190000
631,Yuanshun Road,,30.297142,113.858587,63,32,24,6,3,5,23,22,1010,94,1,20140901190000
632,Wuhan,,30.590689,114.310838,95,51,13,28,10,8,23,22,1010,94,1,20140901190000
1190,"Silingsan Factory, Yichang",,30.713288,111.306585,97,63,7,10,5,7,20,20,1011,96,2,20140901190000
633,Yichang,,30.689528,111.292131,97,63,15,11,18,15,20,20,1011,96,2,20140901190000
633,Yichang,,30.689528,111.292131,97,63,15,11,18,15,20,20,1011,96,2,20140901190000
1191,"City Library , Jingzhou",,30.31494,112.260844,104,40,7,5,3,11,23,22,1011,86,2,20140901190000
1192,"City committee communist party school, Jingzhou",,30.35054,112.20743,95,54,10,5,3,9,23,22,1011,86,2,20140901190000
1193,"kerong EPA, Jingzhou",,30.302965,112.29443,93,55,20,3,5,10,23,22,1011,86,2,20140901190000
634,Jingzhou,,30.332608,112.245451,104,55,20,5,5,11,23,22,1011,86,2,20140901190000
634,Jingzhou,,30.332608,112.245451,104,55,20,5,5,11,23,22,1011,86,2,20140901190000
635,Huangshi,,30.19723,115.043908,159,74,10,29,12,22,24,22,1012,98,2,20140901190000
635,Huangshi,,30.19723,115.043908,159,74,10,29,12,22,24,22,1012,98,2,20140901190000
1194,"Chenjiaying, Huangshi",,30.232823,115.067923,119,61,9,15,1,22,24,,1012,98,2,20140901190000
1195,"Chenjiawan , Huangshi",,30.200422,115.082138,129,65,9,18,9,22,24,,1012,98,2,20140901190000
1196,"Xinxialu, Huangshi",,30.17332,114.954357,114,60,10,29,12,18,24,,1012,98,2,20140901190000
1197,"Tie montian, Huangshi",,30.203885,114.906439,159,74,5,20,7,14,24,,1012,98,2,20140901190000
1198,"BDA, Huangshi",,30.207491,115.031739,127,62,15,13,2,19,24,,1012,98,2,20140901190000
636,Shiyan,,32.627208,110.803311,87,41,26,15,10,3,17,,946,100,1,20140901190000
636,Shiyan,,32.627208,110.803311,87,41,26,15,10,3,17,,946,100,1,20140901190000
1199,"Wudang Mountain , Shiyan",,32.392921,111.047655,13,6,21,1,2,6,18,,946,100,1,20140901190000
1200,"Riverside Village , Shiyan",,32.647286,110.785335,87,41,26,11,3,2,17,,946,100,1,20140901190000
1201,"Liujiagou , Shiyan",,32.636732,110.731129,87,39,18,15,10,3,17,,946,100,1,20140901190000
1202,"Yunyang County District automatic air station , Shiyan",,32.833065,110.816809,-,-,-,-,-,-,-,,0,-,-,20140901190000
637,Xiangyang,,32.007029,112.128496,85,23,27,3,3,6,20,,1013,94,4,20140901190000
637,Xiangyang,,32.007029,112.128496,85,23,27,3,3,6,20,,1013,94,4,20140901190000
638,Ezhou,,30.389244,114.899884,154,70,19,17,10,21,25,22,1020,98,1,20140901190000
638,Ezhou,,30.389244,114.899884,154,70,19,17,10,21,25,22,1020,98,1,20140901190000
1203,"City government, Ezhou",,30.391836,114.892822,127,57,6,17,9,13,25,,1020,97,1,20140901190000
1204,"Zhaojiaba, Ezhou",,30.368966,114.90365,154,70,9,8,8,19,25,,1020,97,1,20140901190000
1205,"Fankou BDA, Ezhou",,30.410759,114.818225,107,51,19,9,10,21,25,,1020,97,1,20140901190000
639,Jingmen,,31.033208,112.205093,65,-,28,-,-,11,-,20,0,-,-,20140901190000
639,Jingmen,,31.033208,112.205093,65,-,28,-,-,11,-,20,0,-,-,20140901190000
640,Xiaogan,,30.922089,113.922387,89,50,11,4,1,12,24,22,1011,88,2,20140901190000
640,Xiaogan,,30.922089,113.922387,89,50,11,4,1,12,24,22,1011,88,2,20140901190000
1206,"wenhua street, Shenyang , Xiaogan",,30.925856,113.92104,78,47,11,4,1,12,24,22,1010,88,2,20140901190000
1207,"Dongcheng District , Huludao , Xiaogan",,30.917963,113.943904,89,50,10,1,-,3,24,22,1010,88,2,20140901190000
641,Huanggang,,30.45124,114.877378,102,56,21,21,35,17,25,22,1020,97,1,20140901190000
641,Huanggang,,30.45124,114.877378,102,56,21,21,35,17,25,22,1020,97,1,20140901190000
1208,"Dazhou Island, Huanggang",,30.446205,114.900323,102,56,17,21,35,17,25,,1020,97,1,20140901190000
1209,"Workers Center , Huanggang",,30.469244,114.912504,74,33,21,6,4,17,25,,1020,97,1,20140901190000
642,Xianning,,29.838978,114.327898,144,66,24,7,9,14,22,22,985,98,1,20140901190000
642,Xianning,,29.838978,114.327898,144,66,24,7,9,14,22,22,985,98,1,20140901190000
1210,"Municipal Development and Reform Commission , Xianning",,29.818645,114.328461,127,56,18,7,9,14,22,,985,98,1,20140901190000
1211,"Xianan District Governement, Xianning",,29.51107,114.181864,112,60,12,9,4,15,22,,993,97,1,20140901190000
1212,"Yangtze River Industrial Park , Xianning",,29.883098,114.32909,144,66,24,3,5,14,22,,985,98,1,20140901190000
1213,"Qianshan Park, Xianning",,29.815351,114.328689,107,56,12,7,3,13,22,,985,98,1,20140901190000
644,Enshi,,30.292138,109.484562,87,-,36,-,-,25,-,21,0,-,-,20140901190000
644,Enshi,,30.269587,109.493042,87,-,36,-,-,25,-,21,0,-,-,20140901190000
645,Xiantao,,30.360228,113.460616,53,-,18,-,-,12,-,23,0,-,-,20140901190000
645,Xiantao,,30.360228,113.460616,53,-,18,-,-,12,-,23,0,-,-,20140901190000
646,Qianjiang,,30.399387,112.905661,65,-,28,-,-,11,-,20,0,-,-,20140901190000
646,Qianjiang,,30.399387,112.905661,65,-,28,-,-,11,-,20,0,-,-,20140901190000
647,Tianmen,,30.661027,113.172549,53,-,18,-,-,12,-,20,0,-,-,20140901190000
647,Tianmen,,30.661027,113.172549,53,-,18,-,-,12,-,20,0,-,-,20140901190000
1088,Shennongjia,,31.741307,110.685554,70,-,20,-,-,14,-,21,0,-,-,20140901190000
1088,Shennongjia,,31.741307,110.685554,70,-,20,-,-,14,-,21,0,-,-,20140901190000
1214,"Xiangcheng Yundong Street, Xiangfan",,32.017716,112.16102,85,23,27,3,3,6,20,,1013,94,4,20140901190000
655,"City Environmental Monitoring Station, Baotou",,40.657201,109.886738,70,43,21,9,7,10,,,0,,,20140901190000
656,"Donghe EPB, Baotou",,40.586213,110.002224,59,34,30,10,6,6,,,0,,,20140901190000
657,"Baotou shopping mall, Baotou",,40.508334,109.819085,114,63,26,5,6,9,,,0,,,20140901190000
658,"Huilong logistics, Baotou",,40.633436,109.879821,59,36,26,7,6,8,,,0,,,20140901190000
659,Baotou,,40.658597,109.846051,114,36,34,11,6,9,13,10,0,80,2,20140901190000
660,"Huatai Automobile Mall, Eerduosi",,39.837048,109.972209,30,11,48,3,2,6,13,10,1014,80,2,20140901190000
661,"Olympus Garden, Eerduosi",,39.789171,109.987742,50,13,44,6,3,5,13,10,1014,80,2,20140901190000
662,Eerduosi,,39.609284,109.78704,50,15,49,6,7,6,13,10,1014,80,2,20140901190000
663,"Tianyi Road, Chifeng",,42.275552,118.88507,38,27,47,6,4,2,15,15,1013,97,4,20140901190000
664,"Songshan No.1 Middle School, Chifeng",,42.329307,118.793045,34,34,38,2,8,6,15,15,1013,97,4,20140901190000
665,"Hada Street, Chifeng",,42.280714,118.988235,112,38,22,4,9,9,15,15,1013,97,4,20140901190000
666,"Songshan Road, Chifeng",,42.171487,118.89501,139,63,47,3,6,7,17,14,1013,78,6,20140901190000
667,Chifeng,,42.259752,118.893027,112,38,47,6,9,9,15,15,1013,97,4,20140901190000
674,Fuzhou,,26.071406,119.301294,99,96,43,28,4,7,28,24,1010,79,2,20140901190000
675,"Xidong, Xiamen",,24.815345,118.161848,65,27,87,12,3,4,28,26,1010,89,2,20140901190000
676,"Hongwen, Xiamen",,24.473969,118.156281,38,22,31,12,9,2,28,26,1010,89,2,20140901190000
677,"Gulangyu, Xiamen",,24.443168,118.068571,63,28,31,13,13,5,28,26,1010,89,2,20140901190000
678,"Huli, Xiamen",,24.51235,118.099146,74,35,33,18,14,2,28,26,1010,89,2,20140901190000
679,Xiamen,,24.477187,118.094402,74,35,33,18,14,5,-,-,0,-,-,20140901190000
680,"Qingyuan Montain, Quanzhou",,24.939503,118.598337,89,73,31,15,16,6,28,26,1010,89,2,20140901190000
681,"Tushan Street, Quanzhou",,24.90867,118.586397,152,159,17,9,14,5,28,26,1010,89,2,20140901190000
682,"Wanan, Quanzhou",,24.304154,118.070903,102,75,53,3,10,6,28,26,1010,89,2,20140901190000
683,Quanzhou,,24.87179,118.68001,152,159,53,16,24,6,28,26,1010,89,2,20140901190000
687,"Jiancaoping, Taiyuan",,37.887889,112.528383,82,45,26,12,5,8,18,16,1012,88,1,20140901190000
688,"Jianhe, Taiyuan",,37.910779,112.579258,104,58,24,9,7,7,18,16,1012,88,1,20140901190000
689,"Shanglan, Taiyuan",,38.011589,112.440679,82,57,24,22,3,7,18,16,1012,88,1,20140901190000
690,"Jinyuan, Taiyuan",,37.713164,112.475552,91,52,23,11,12,8,18,16,1012,88,1,20140901190000
691,"Xiaodian, Taiyuan",,37.782137,112.483533,112,47,11,22,12,8,18,16,1012,88,1,20140901190000
692,"Taoyuan, Taiyuan",,37.869752,112.543332,124,42,22,11,6,10,18,16,1012,88,1,20140901190000
693,"Wucheng, Taiyuan",,37.819998,112.576252,122,57,20,17,6,10,18,16,1012,88,1,20140901190000
694,"Nanzhai, Taiyuan",,37.985902,112.555312,91,59,24,6,6,11,18,16,1012,88,1,20140901190000
695,"Jinsheng, Taiyuan",,37.781205,112.494494,292,41,32,16,23,9,18,16,1012,88,1,20140901190000
696,Taiyuan,,37.871115,112.555178,124,45,26,12,6,10,-,-,0,-,-,20140901190000
697,"Monitoring station, Changzhi",,36.194062,113.10389,127,50,22,9,18,10,20,20,0,100,1,20140901190000
698,"Auditing bureau, Changzhi",,36.212787,113.095221,153,55,23,14,5,14,20,20,0,100,1,20140901190000
699,"Qinghua station, Changzhi",,36.154328,113.116385,114,46,19,5,14,12,20,20,0,100,1,20140901190000
700,"No.8 middle school, Changzhi",,36.185451,113.099481,127,48,19,8,19,19,,,0,,,20140901190000
701,Changzhi,,36.195553,113.12292,153,55,23,14,19,19,14,14,0,95,1,20140901190000
702,"Yungang Hotel, Datong",,40.076997,113.278079,63,29,27,1,6,9,14,13,1012,91,3,20140901190000
703,"college of education, Datong",,40.085608,113.27808,97,30,23,2,10,14,14,13,1012,91,3,20140901190000
704,Datong,,40.078016,113.307143,97,29,34,3,10,14,14,13,1012,91,3,20140901190000
705,"Technical Schools, Linfen",,36.07131,111.509046,112,44,23,11,4,29,14,12,0,92,2,20140901190000
706,"Municipal party committee, Linfen",,36.087425,111.508771,87,48,19,1,14,18,14,12,0,92,2,20140901190000
1073,"City Monitoring Station, Linfen",,36.097676,111.518739,122,52,17,10,7,18,14,12,0,92,2,20140901190000
707,"South Airport, Linfen",,36.041614,111.497968,95,45,9,4,2,18,14,12,0,92,2,20140901190000
708,Linfen,,36.087944,111.525098,122,52,23,11,15,49,13,12,0,94,2,20140901190000
709,"City center, Yangquan",,37.848012,113.578636,165,108,18,21,21,11,18,16,1012,88,1,20140901190000
710,Yangquan,,37.857475,113.586921,166,108,26,30,43,17,18,16,1012,88,1,20140901190000
711,"Water Company, Jincheng",,35.504787,112.857245,63,52,17,33,4,9,14,14,1013,95,1,20140901190000
712,"Baiyun shopping mall, Jincheng",,35.492858,112.841566,57,65,9,24,13,10,14,14,1013,95,1,20140901190000
713,"City EPA, Jincheng",,35.488422,112.858528,70,45,8,26,6,11,14,14,1013,95,1,20140901190000
714,"Institute of Technology, Jincheng",,35.484844,112.878073,78,52,19,23,7,10,14,14,1013,95,1,20140901190000
715,"No.1 middle school, Jincheng",,35.478725,112.838636,68,46,4,22,10,7,14,14,1013,95,1,20140901190000
716,Jincheng,,35.490287,112.85794,78,65,19,33,13,11,14,14,1013,95,1,20140901190000
718,"District Government, Shuozhou",,39.320857,112.430641,59,23,30,5,10,15,16,15,1010,91,1,20140901190000
719,"City EPA, Shuozhou",,39.331495,112.407997,59,49,30,5,6,15,16,15,1010,91,1,20140901190000
720,"No.2 middle school, Shuozhou",,39.377963,112.432877,65,47,34,4,6,8,16,15,1010,91,1,20140901190000
721,Shuozhou,,39.332756,112.439672,76,47,34,5,10,15,16,15,1010,91,1,20140901190000
722,"Jinlun compound, Jinzhong",,37.697891,112.771017,137,62,9,5,8,5,18,16,1012,88,1,20140901190000
723,"Hydraulic Component Factory, Jinzhong",,37.688355,112.725844,154,72,24,21,7,16,21,14,1013,64,2,20140901190000
724,"Nandu compound, Jinzhong",,37.713148,112.732036,151,63,2,6,2,11,18,16,1012,88,1,20140901190000
725,"Yuci district government, Jinzhong",,37.698228,112.714167,147,57,16,9,14,7,18,16,1012,88,1,20140901190000
726,Jinzhong,,37.687705,112.759187,151,63,16,9,14,11,18,16,1012,88,1,20140901190000
727,"Yuncheng Middle School, Yuncheng",,35.012345,111.003215,142,68,32,6,17,16,20,18,1011,88,1,20140901190000
728,"Yudou BDA, Yuncheng",,35.05065,111.029571,-,-,-,-,-,-,-,-,0,-,-,20140901190000
730,"Regional Technical School, Yuncheng",,35.028727,110.974076,154,65,23,1,4,21,20,18,1011,88,1,20140901190000
731,"Airport new district, Yuncheng",,35.084515,111.05339,95,62,24,7,19,20,20,18,1011,88,1,20140901190000
732,Yuncheng,,35.025675,111.013344,154,68,32,7,19,21,-,-,0,-,-,20140901190000
733,"Jiyin, Xinzhou",,38.413292,112.742432,182,110,19,-,52,17,24,14,1012,53,3,20140901190000
734,"BDA, Xinzhou",,38.450069,112.736723,91,34,16,4,30,13,18,16,1012,88,1,20140901190000
735,"Convention Center, Xinzhou",,38.492043,112.709772,152,50,10,6,24,13,18,16,1012,88,1,20140901190000
736,Xinzhou,,38.417244,112.740742,152,34,16,6,30,13,18,16,1012,88,1,20140901190000
737,"City EPA, Luliang",,37.522189,111.144365,61,52,16,7,13,14,17,16,0,87,1,20140901190000
738,"Soybean factory, Luliang",,37.51689,111.135101,80,27,16,14,10,14,17,16,0,87,1,20140901190000
739,"Water Company, Luliang",,37.53394,111.138834,57,40,18,12,2,15,17,16,0,87,1,20140901190000
740,Luliang,,25.027007,103.668566,80,52,18,14,13,15,17,16,0,87,1,20140901190000
741,"City government, Sanmenxia",,34.776251,111.198781,89,67,2,18,10,11,20,17,1012,82,1,20140901190000
743,"BDA, Sanmenxia",,34.800434,111.204332,134,73,8,24,4,9,20,18,1011,88,1,20140901190000
744,Sanmenxia,,34.771506,111.206129,134,73,15,24,4,12,20,18,1011,88,1,20140901190000
745,"Food Factory, Changchun",,43.919094,125.329521,117,50,13,10,3,13,16,14,1013,88,2,20140901190000
746,"Bus Factory, Changchun",,43.912337,125.293431,102,51,9,23,6,9,16,14,1013,88,2,20140901190000
747,"Institute of Posts and Telecommunications, Changchun",,43.842368,125.285005,97,47,5,23,3,11,16,14,1013,88,2,20140901190000
748,"Laodong Park, Changchun",,43.877293,125.371519,107,47,6,20,4,13,16,14,1013,88,2,20140901190000
749,"Forest area, Changchun",,43.871825,125.331519,109,49,8,15,3,10,16,14,1013,88,2,20140901190000
750,"Jinyuetan, Changchun",,43.79031,125.460561,89,40,26,8,1,6,16,14,1013,88,2,20140901190000
751,"Shuaiwanzi, Changchun",,43.552321,125.639086,82,50,25,5,1,4,16,14,1013,88,2,20140901190000
752,"Economic Development Zone Sanitation Department, Changchun",,43.869221,125.42365,117,47,7,19,3,8,16,14,1013,88,2,20140901190000
753,"High-tech Zone Administrative Committee, Changchun",,43.819064,125.256375,104,55,17,17,2,6,16,14,1013,88,2,20140901190000
754,"Daishan Park, Changchun",,43.852365,125.223399,127,79,14,35,5,6,16,14,1013,88,2,20140901190000
755,Changchun,,43.819415,125.329977,107,47,6,20,4,13,-,-,0,-,-,20140901190000
756,"Hadawan, Jilin",,43.888081,126.545727,157,102,5,30,5,11,15,11,0,76,2,20140901190000
757,"Fengman, Jilin",,43.768169,126.678802,68,28,28,2,1,4,15,11,0,76,2,20140901190000
758,"Electric Power College, Jilin",,43.827403,126.502281,97,56,20,17,3,6,15,11,0,76,2,20140901190000
759,"Jiangnan Park, Jilin",,43.83531,126.556519,89,56,12,16,4,7,14,10,0,76,2,20140901190000
760,"Dongjuzi, Jilin",,43.838597,126.590068,70,50,19,15,1,9,15,11,0,76,2,20140901190000
763,Jilin,,43.840137,126.555262,157,102,36,30,5,11,15,11,0,76,2,20140901190000
764,"Lingbei, Haerbin",,45.756979,126.548008,50,26,51,7,6,3,18,16,1014,88,2,20140901190000
765,"Songbei Commercial University, Haerbin",,45.818624,126.566963,42,45,3,18,5,3,18,16,1014,88,2,20140901190000
766,"Acheng huining, Haerbin",,45.544286,126.985183,65,32,38,10,5,4,18,16,1014,88,2,20140901190000
767,"Nangang College Street, Haerbin",,45.724121,126.604906,80,60,49,15,4,5,18,16,1014,88,2,20140901190000
768,"Taiping Hongwei Park, Haerbin",,45.775332,126.695101,147,60,50,20,4,6,18,16,1014,88,2,20140901190000
769,"Daowai Chengde Square, Haerbin",,45.768637,126.640955,65,49,-,16,2,4,18,16,1014,88,2,20140901190000
770,"Xiangfang Hongqi Street, Haerbin",,45.733936,126.691083,55,48,47,14,5,6,18,16,1014,88,2,20140901190000
771,"Dongli Heping Road, Haerbin",,45.727765,126.651974,82,53,45,18,6,4,18,16,1014,88,2,20140901190000
772,"Daoli Jianguo Road, Haerbin",,45.749715,126.59891,93,40,52,15,8,5,18,16,1014,88,2,20140901190000
773,"Pingfang Light Factory, Haerbin",,45.611951,126.620898,95,63,38,28,5,5,18,16,1014,88,2,20140901190000
774,"Hulan Normal College, Haerbin",,45.983745,126.616553,63,17,37,6,5,4,18,16,1014,88,2,20140901190000
775,"Provincial Academy of Agricultural Sciences, Haerbin",,45.686141,126.626517,89,80,39,-,7,4,18,16,1014,88,2,20140901190000
776,Haerbin,,45.805757,126.541007,50,45,51,18,6,3,-,-,0,-,-,20140901190000
777,"Anju Compound, Qiqihaer",,47.365672,123.937016,34,16,29,2,1,5,15,13,1014,81,1,20140901190000
778,"Farming Vehicule Factory, Qiqihaer",,47.326793,123.961427,57,14,29,4,1,7,15,13,1014,81,1,20140901190000
779,"Fuqu EPA, Qiqihaer",,47.1853,123.62322,55,20,38,1,1,10,15,13,1014,81,1,20140901190000
780,"City Center Square, Qiqihaer",,47.343096,123.96192,55,28,22,22,1,6,15,13,1014,81,1,20140901190000
1217,"City Environmental Monitoring Station, Qiqihaer",,47.303639,123.957551,57,43,26,1,3,5,15,13,1014,81,1,20140901190000
781,Qiqihaer,,47.356387,123.924736,57,43,38,22,3,10,15,13,1014,81,1,20140901190000
782,"Saertu District, Daqing",,46.582368,125.152904,42,18,32,9,2,2,16,14,1014,80,2,20140901190000
783,"Datong District, Daqing",,46.036786,124.842115,57,14,50,3,5,4,16,14,1014,80,2,20140901190000
784,"Honggang District, Daqing",,46.418381,124.88973,57,27,38,9,5,4,16,14,1014,80,2,20140901190000
785,"Longfeng District, Daqing",,46.535426,125.107043,46,15,45,4,4,4,16,14,1014,80,2,20140901190000
786,"Ranghulu District, Daqing",,46.635123,124.85648,72,25,47,10,7,3,16,14,1014,80,2,20140901190000
787,Daqing,,46.591414,125.110838,72,27,50,10,7,4,16,14,1014,80,2,20140901190000
788,"Locomotive Factory, Mudanjiang",,44.610589,129.652672,114,58,42,12,4,5,16,14,1015,84,1,20140901190000
789,"No. 1 hospital, Mudanjiang",,44.567775,129.617043,78,52,33,17,3,4,16,14,1015,84,1,20140901190000
1220,"EPA building, Mudanjiang",,44.567777,129.620658,74,54,5,12,8,3,16,14,1015,84,1,20140901190000
1221,"Cultural Square, Mudanjiang",,44.586388,129.623164,97,73,2,18,8,7,16,14,1015,84,1,20140901190000
790,Mudanjiang,,44.553619,129.640246,114,86,42,18,10,7,16,14,1015,84,1,20140901190000
791,"Mingzhu Plaza, Hefei",,31.782847,117.201512,87,35,29,4,2,8,22,22,1009,100,1,20140901190000
792,"Sanli Street, Hefei",,31.874637,117.312573,80,57,26,26,5,7,22,22,1009,100,1,20140901190000
793,"Hupo Compound, Hefei",,31.868583,117.264491,68,53,21,7,6,6,22,22,1009,100,1,20140901190000
794,"Dongpu Reservoir, Hefei",,31.90319,117.165584,74,27,25,4,1,3,22,22,1009,100,1,20140901190000
795,"Changjiang middle road, Hefei",,31.855185,117.255484,82,60,5,12,3,13,22,22,1009,100,1,20140901190000
796,"Luyang District, Hefei",,31.941771,117.271504,97,40,5,1,14,5,22,22,1009,100,1,20140901190000
797,"Yaohai District, Hefei",,31.856595,117.341644,91,62,17,5,5,6,22,22,1009,100,1,20140901190000
798,"Baohe District, Hefei",,31.793644,117.307554,99,35,4,1,1,8,22,22,1009,100,1,20140901190000
799,"Lake district, Hefei",,31.736619,117.283501,122,49,23,10,4,6,22,22,1009,100,1,20140901190000
800,"High-tech zone, Hefei",,31.849755,117.129624,72,42,16,7,6,2,22,22,1009,100,1,20140901190000
801,Hefei,,31.819449,117.232753,87,35,29,4,2,8,-,-,0,-,-,20140901190000
802,"Hudong Road No.4 Elementary School, Maanshan",,31.684121,118.511017,80,26,18,13,3,8,22,22,1010,100,0,20140901190000
803,"Tianping Garment Factory, Maanshan",,31.64197,118.488043,85,44,30,19,8,9,22,22,1010,100,0,20140901190000
804,"City education base, Maanshan",,31.711216,118.648913,-,-,-,-,-,-,-,-,0,-,-,20140901190000
805,"Cihu No.2 elementary school, Maanshan",,31.748546,118.515729,70,56,32,17,2,5,22,22,1010,100,0,20140901190000
806,"Maanshan steel factory power plant, Maanshan",,31.690864,118.48528,102,71,24,7,8,15,22,22,1010,100,0,20140901190000
807,Maanshan,,31.668461,118.511939,102,71,32,19,8,15,22,22,1010,100,0,20140901190000
808,"Science Innovation Center, Wuhu",,31.417056,118.375406,59,15,6,9,1,6,22,22,1010,100,0,20140901190000
809,"No.4 Water Plant, Wuhu",,31.315914,118.376231,87,44,35,18,7,3,22,22,1010,100,0,20140901190000
810,"Monitoring station, Wuhu",,31.348955,118.358154,80,29,14,10,14,6,22,22,1010,100,0,20140901190000
811,"Wuqierling Factory, Wuhu",,31.382068,118.407639,82,40,29,14,13,6,22,22,1010,100,0,20140901190000
812,Wuhu,,31.351007,118.438322,87,44,35,18,14,6,22,22,1010,100,0,20140901190000
1331,Chuzhou,,32.299549,118.322508,-,-,-,-,-,-,-,24,0,-,-,20140901190000
813,"Jiangxi Foreign Affairs Office, Nanchang",,28.678027,115.903436,109,65,12,4,3,9,26,24,1010,83,1,20140901190000
814,"Provincial forestry company, Nanchang",,28.69065,115.898546,109,56,16,6,4,10,26,24,1010,83,1,20140901190000
815,"Institute of Forestry, Nanchang",,28.731518,115.82478,102,55,20,1,3,14,26,24,1010,83,1,20140901190000
816,"Jingdong town government, Nanchang",,28.680659,115.972736,102,35,21,1,2,7,26,24,1010,83,1,20140901190000
817,"Contruction Industry College, Nanchang",,28.684018,115.865891,87,33,20,10,20,9,26,24,1010,83,1,20140901190000
818,"Xianghu, Nanchang",,28.637831,115.9033,109,52,19,12,11,12,26,24,1010,83,1,20140901190000
819,"Martial Arts School, Nanchang",,28.794538,115.752876,13,23,4,6,5,8,26,24,1010,83,1,20140901190000
820,"Petrifaction Company, Nanchang",,28.608634,115.912999,127,67,18,2,2,12,26,24,1010,83,1,20140901190000
821,"Provincial Station, Nanchang",,28.677155,115.941896,89,52,19,7,3,9,26,24,1010,83,1,20140901190000
822,Nanchang,,28.679883,115.863022,127,67,21,11,18,14,26,24,1010,83,1,20140901190000
823,"Lushan Mountain Observatory, Jiujiang",,29.5751,115.998926,65,27,27,1,1,1,20,20,1011,92,5,20140901190000
824,"Shili, Jiujiang",,29.668119,115.992381,97,39,14,6,23,6,20,20,1011,92,5,20140901190000
825,"Maoshantou, Jiujiang",,29.700819,115.967192,80,42,12,11,11,5,20,20,1011,92,5,20140901190000
826,"Xiyuan, Jiujiang",,29.723929,115.998206,72,37,15,9,8,6,20,20,1011,92,5,20140901190000
827,"Wuqierling Factory, Jiujiang",,29.640802,116.022713,72,28,15,6,12,2,20,20,1011,92,5,20140901190000
828,"Water Scientific Research Institute, Jiujiang",,29.679179,116.068081,65,30,13,3,9,4,20,20,1011,92,5,20140901190000
829,"Zonghe Industrial Park, Jiujiang",,29.592047,115.916335,72,33,9,19,9,2,20,20,1011,92,5,20140901190000
830,"Petrochemical General Plant, Jiujiang",,29.738832,116.09463,65,23,17,5,3,4,20,20,1011,92,5,20140901190000
831,Jiujiang,,29.70254,116.007025,97,42,17,11,23,6,20,20,1011,92,5,20140901190000
1332,"Feiyu, Xinyu",,27.844697,115.000136,139,92,7,12,36,,26,,1009,87,1,20140901190000
1333,"Beigang, Xinyu",,27.932491,115.103767,122,77,10,7,17,,26,,1009,87,1,20140901190000
1334,"No.2 water factory, Xinyu",,27.839577,114.933915,151,99,3,20,56,,26,,1009,87,1,20140901190000
1335,"Bureau of Meteorology, Xinyu",,27.81048,114.936507,139,92,5,13,41,,26,,1009,87,1,20140901190000
1336,Xinyu,,27.814351,114.922194,151,99,10,20,56,14,26,24,1009,87,1,20140901190000
832,"Tobacco Factory, Zhengzhou",,34.753419,113.687131,166,98,13,9,5,15,20,20,1011,100,1,20140901190000
833,"Textile Machinery Factory, Zhengzhou",,34.773366,113.647067,174,86,7,17,7,15,20,20,1011,100,1,20140901190000
834,"Banking College, Zhengzhou",,34.800856,113.681126,166,98,9,20,13,11,20,20,1011,100,1,20140901190000
835,"Water Supply Company, Zhengzhou",,34.807188,113.571089,175,80,9,19,18,17,20,20,1011,100,1,20140901190000
836,"Economic Development Zone Management Committee, Zhengzhou",,34.717652,113.733182,163,92,6,33,7,9,20,20,1011,100,1,20140901190000
837,"No. 47 middle school, Zhengzhou",,34.772211,113.74009,163,79,7,24,7,9,20,20,1011,100,1,20140901190000
838,"City Monitoring Station, Zhengzhou",,34.748404,113.60514,174,109,10,28,4,13,20,20,1011,100,1,20140901190000
839,"Henan Medical University, Zhengzhou",,34.752637,113.641658,169,98,15,20,7,8,20,20,1011,100,1,20140901190000
840,"Gangli Reservoir, Zhengzhou",,34.952652,113.64248,162,76,9,11,14,11,20,20,1011,100,1,20140901190000
841,Zhengzhou,,34.745417,113.631415,174,109,15,28,7,13,-,-,0,-,-,20140901190000
842,"Henan University No.1 Hospital, Kaifeng",,34.799302,114.352706,97,58,19,17,9,6,20,20,1011,100,1,20140901190000
843,"Maternity And Child Hospital, Kaifeng",,34.795803,114.386103,104,51,12,18,10,8,20,20,1011,100,1,20140901190000
844,"Cancer Hospital, Kaifeng",,34.775428,114.350292,117,57,6,28,9,11,20,20,1011,100,1,20140901190000
845,"Yellow River Conservancy Institute, Kaifeng",,34.826066,114.324772,-,-,-,-,-,-,-,-,0,-,-,20140901190000
846,"Shijixing Kindergarden, Kaifeng",,34.793606,114.302744,89,88,11,17,11,6,20,20,1011,100,1,20140901190000
847,Kaifeng,,34.796346,114.313426,117,88,19,28,11,11,20,20,1011,100,1,20140901190000
852,Jiaozuo,,35.215381,113.248188,152,61,15,6,7,11,20,20,1011,100,1,20140901190000
853,"Cotton Research Institute, Anyang",,36.081435,114.486451,122,47,16,-,8,6,21,19,1012,84,2,20140901190000
854,"Hongmiao Street, Anyang",,36.086733,114.326,156,72,14,17,14,12,21,19,1012,84,2,20140901190000
855,"Yinxing Compound, Anyang",,36.056519,114.36495,159,72,12,24,10,13,21,19,1012,84,2,20140901190000
856,"Tiefo Temple, Anyang",,36.110041,114.309309,170,76,10,22,9,12,21,19,1012,84,2,20140901190000
857,Anyang,,36.097767,114.398846,170,76,16,24,14,15,21,19,1012,84,2,20140901190000
858,"City Monitoring Station, Luoyang",,34.669055,112.439633,152,60,20,13,7,11,19,,1013,100,-,20140901190000
859,"BDA Management Committee, Luoyang",,34.622084,112.390759,65,31,23,6,4,20,19,,1013,100,-,20140901190000
860,"New municipal office, Luoyang",,34.623745,112.432973,122,46,29,7,3,27,19,,1013,100,-,20140901190000
861,"City committee communist party school, Luoyang",,34.650169,112.400212,114,59,31,18,3,13,19,,1013,100,-,20140901190000
862,"Henan Forestry College, Luoyang",,34.685566,112.509429,117,70,24,16,3,20,19,,1013,100,-,20140901190000
863,"CITIC No.2 Elementary School, Luoyang",,34.668212,112.36907,144,67,31,25,6,15,19,,1013,100,-,20140901190000
864,"Yuxi Hotel, Luoyang",,34.685949,112.472611,85,79,14,10,8,21,19,,1013,100,-,20140901190000
865,Luoyang,,34.617424,112.46054,152,79,31,25,8,27,19,14,1013,100,-,20140901190000
866,"City Planning Design Institute, Pingdingshan",,33.7352,113.297916,147,55,11,10,53,14,20,20,1011,100,1,20140901190000
867,"Xinhua Hotel, Pingdingshan",,33.737754,113.328814,134,66,16,19,21,9,20,20,1011,100,1,20140901190000
