locationid,stationname,chinesename,latitude,longitude,pm25,pm10,o3,no2,so2,co,temperature,dewpoint,pressure,humidity,wind,est_time
1,Dongcheng Dongsi,,39.9304,116.423239,169,-,72,26,3,9,29,24,1007,74,4,20140718170000
2,"Temple of Heaven, Dongcheng",,39.887403,116.41324,161,79,93,16,2,9,29,24,1007,74,4,20140718170000
3,West Park officials,,39.930333,116.345162,166,68,103,21,2,9,29,24,1007,74,4,20140718170000
4,West Wanshou Nishinomiya,,39.879354,116.358183,166,72,87,26,2,10,29,24,1007,74,4,20140718170000
5,Chaoyang Olympic Sports Center,,39.983406,116.403253,168,-,65,39,2,6,29,24,1007,74,4,20140718170000
6,Chaoyang Agricultural Exhibition Hall,,39.938331,116.46715,161,71,102,27,2,8,29,24,1007,74,4,20140718170000
7,Haidian Wanliu,,39.988245,116.293062,169,82,50,30,4,7,29,24,1007,74,4,20140718170000
8,The Haidian northern New Area,,40.091313,116.180194,244,-,38,18,6,15,29,24,1007,74,4,20140718170000
9,Haidian Beijing Botanical Garden,,40.003252,116.213097,175,-,82,12,2,17,29,24,1007,74,4,20140718170000
10,Fengtai garden,,39.86423,116.285037,164,-,99,12,2,8,29,24,1007,74,4,20140718170000
11,Fengtai Yungang,,39.82535,116.152237,174,-,98,12,2,9,29,24,1007,74,4,20140718170000
12,Shijingshan city,,39.915286,116.190144,184,113,84,39,2,9,29,24,1007,74,4,20140718170000
13,"Fangshan, Liangxiang",,39.743357,116.14225,165,-,62,13,2,8,29,24,1007,74,4,20140718170000
14,"Huangcunzhen, Daxing",,39.719389,116.410219,171,-,98,29,3,7,29,24,1007,74,4,20140718170000
15,BDA,,39.796197,116.51197,160,-,91,18,2,7,29,24,1007,74,4,20140718170000
16,Tongzhou New Town,,39.887113,116.6689,177,-,40,56,3,7,29,24,1007,74,4,20140718170000
17,Shunyi New Town ,,40.128111,116.660908,199,129,111,32,3,12,29,24,1007,74,4,20140718170000
18,Changping Town,,40.218245,116.236084,215,113,175,22,2,17,29,24,1007,74,4,20140718170000
19,"Mentougou, Longquan Town",,39.938397,116.112323,186,-,90,33,2,9,29,24,1007,74,4,20140718170000
20,Pinggu town,,40.144433,117.106563,197,-,122,6,2,12,29,24,1007,74,4,20140718170000
21,Huairou town,,40.329104,116.63387,240,119,124,10,2,16,29,24,1007,74,4,20140718170000
22,The town of Miyun,,40.371186,116.838053,201,-,129,15,3,17,29,24,1007,74,4,20140718170000
23,Yanqing town,,40.454217,115.978106,240,-,181,7,2,15,29,24,1007,74,4,20140718170000
24,Changping Dingling,,40.293269,116.226108,203,99,203,6,2,17,29,24,1007,74,4,20140718170000
25,Badaling Northwest,,40.36623,115.994146,221,-,113,42,2,16,29,24,1007,74,4,20140718170000
26,Miyun Reservoir,,40.500157,116.91701,221,-,144,1,2,18,29,24,1007,74,4,20140718170000
27,"Donggaocun Zhen, Pinggu",,40.10142,117.126556,180,-,142,16,4,8,29,24,1007,74,4,20140718170000
28,"Yongledianzhen, Tongzhou",,39.713192,116.78905,171,-,47,22,5,5,29,24,1007,74,4,20140718170000
29,"Yufazhen, Daxing",,39.521203,116.306026,155,-,48,4,2,6,29,24,1007,74,4,20140718170000
30,"Liulihezhen, Fangshan",,39.581169,116.006089,186,-,84,11,9,5,29,24,1007,74,4,20140718170000
31,"Qianmen E St, Dongcheng",,39.900402,116.401242,173,-,38,37,2,8,29,24,1007,74,4,20140718170000
32,Yongdingmen Inner St,,39.877401,116.400238,169,-,155,41,2,9,29,24,1007,74,2,20140718170000
33,Xizhimen N St,,39.955352,116.355187,170,-,50,28,4,9,29,24,1007,74,4,20140718170000
34,South Ring Road,,39.857377,116.37421,-,-,-,-,-,-,-,-,0,-,-,20140718170000
35,East Fourth Ring Road,,39.940273,116.489075,169,85,42,79,8,10,29,24,1007,74,4,20140718170000
36,Beijing,,39.955906,116.474246,161,71,102,27,3,9,29,24,1007,74,2,20140718170000
37,Putuo,,31.232979,121.415378,55,33,19,5,5,2,28,26,1009,87,3,20140718170000
38,Yangpu Sipiao,,31.263795,121.540311,62,23,18,7,3,5,28,26,1009,87,3,20140718170000
39,Shanghai Normal College Primary Division,,31.199031,121.487719,48,19,16,9,3,5,28,26,1009,87,3,20140718170000
40,Dianshan Lake,,31.091338,120.982293,62,26,20,10,6,7,28,26,1009,87,3,20140718170000
41,Hongkou Liangcheng,,31.298906,121.47155,33,17,17,8,5,4,28,26,1009,87,3,20140718170000
42,Jingan,,31.224251,121.429637,57,16,22,10,3,5,28,26,1009,87,3,20140718170000
43,Shanghai Normal University,,31.163531,121.416643,45,24,18,15,11,2,28,26,1009,87,3,20140718170000
44,Chuansha,,31.188626,121.707342,45,16,14,5,3,4,28,26,1009,87,3,20140718170000
45,Zhangjiang,,31.204896,121.581215,34,10,16,5,1,4,28,26,1009,87,3,20140718170000
46,Lingshan Road,,31.226286,121.537317,59,17,13,6,3,3,28,26,1009,87,3,20140718170000
1080,City average,,31.228451,121.478227,51,20,17,8,4,3,28,26,1009,87,3,20140718170000
47,Shanghai,,31.202842,121.453493,57,19,22,10,3,5,28,26,1009,87,7,20140718170000
48,Guangzhou,,23.138517,113.263701,61,19,3,15,10,7,27,24,1005,84,9,20140718170000
49,"Huadu town, Guangzhou",,23.389121,113.220062,50,16,13,7,8,5,27,24,1005,84,9,20140718170000
50,"Luogang Zhenlong, Guangzhou",,23.308027,113.567032,59,25,16,4,2,7,27,24,1005,84,9,20140718170000
51,"LuHu, Guangzhou",,23.151743,113.281842,61,19,3,17,7,4,27,24,1005,84,9,20140718170000
52,"Tianhu, Guangzhou",,23.647433,113.629715,21,9,23,3,3,4,27,24,1005,84,9,20140718170000
53,"Zhudong, Guangzhou",,23.418406,113.078552,50,20,16,9,8,5,27,24,1005,84,7,20140718170000
54,"Modiesha station, Guangzhou",,23.103814,113.338238,53,32,4,18,10,5,27,24,1005,84,9,20140718170000
55,Zhuhai,,22.225269,113.304202,50,29,26,9,2,9,29,26,1005,84,24,20140718170000
1075,"Huicai technical school, Foshan",,23.039667,113.105492,34,19,8,12,6,5,27,24,1005,84,9,20140718170000
56,"Sanshuiyun donghai, Foshan",,23.185788,112.865368,38,20,8,12,3,6,27,24,1005,84,9,20140718170000
57,"Nanhai Bureau of Meteorology, Foshan",,23.046836,113.145764,91,48,5,15,6,8,27,24,1005,84,9,20140718170000
58,"Sanshui Monitoring Station, Foshan",,23.163551,112.890843,42,19,7,12,5,7,27,24,1005,84,9,20140718170000
1087,Foshan,,22.999349,113.110189,91,48,8,16,9,8,27,24,1005,84,9,20140718170000
59,"Ronggui street committee, Shunde",,22.762729,113.258356,65,31,7,16,7,9,27,24,1005,84,9,20140718170000
60,Shunde,,22.806658,113.293112,65,39,7,19,13,9,-,-,0,-,-,20140718170000
61,"Donghu, Jiangmen",,22.590411,113.087351,46,21,8,11,5,5,29,26,1005,84,24,20140718170000
62,"Taoyuan Atmosphere Premier Station, Jiangmen",,22.72489,112.93404,25,17,8,6,3,5,29,26,1005,84,24,20140718170000
63,Jiangmen,,22.604218,113.109062,65,37,8,8,18,9,29,26,1005,84,24,20140718170000
64,"Kengkouzi station, Zhaoqing",,23.158865,112.570287,25,30,6,18,9,7,27,24,1005,84,9,20140718170000
65,"Mugangzi station, Zhaoqing",,23.067961,112.431934,53,25,11,11,3,6,27,24,1005,84,9,20140718170000
66,"Qixingyanzi station, Zhaoqing",,23.075974,112.477437,55,29,9,11,6,3,27,24,1005,84,9,20140718170000
67,Zhaoqing,,23.050167,112.476039,55,27,11,15,7,7,27,24,1005,84,9,20140718170000
68,"Jinguo Bay, Huizhou",,22.937223,114.385567,21,14,20,2,2,6,28,26,1005,89,7,20140718170000
1091,"Xiabu, Huizhou",,23.077493,114.410275,34,18,11,8,2,3,28,26,1005,89,7,20140718170000
69,"Xijiao, Huizhou",,23.338178,114.112867,25,19,14,2,2,4,28,26,1005,89,7,20140718170000
70,"Jiangbei, Huizhou",,23.111706,114.415274,53,15,17,7,3,2,28,26,1005,89,7,20140718170000
71,"Huiyang chuanhu, Huizhou",,22.814485,114.329292,42,12,13,8,5,6,28,26,1005,89,7,20140718170000
72,"Daya bay management committee, Huizhou",,22.739283,114.53631,50,19,13,1,4,3,28,26,1005,89,7,20140718170000
73,Huizhou,,23.079716,114.410253,53,15,17,7,3,11,28,26,1005,89,7,20140718170000
74,"Guancheng No.2 water plant, Dongguan",,23.057294,113.753254,42,21,10,12,7,6,28,26,1005,89,7,20140718170000
75,"Dongcheng Shijing, Dongguan",,23.010039,113.799529,46,22,9,12,5,7,28,26,1005,89,7,20140718170000
76,"Nancheng Xiping, Dongguan",,22.963051,113.743494,38,20,10,18,8,5,28,26,1005,89,7,20140718170000
77,"Nancheng Yuanling, Dongguan",,23.025058,113.751308,46,19,9,7,7,8,28,26,1005,89,7,20140718170000
78,Dongguan,,23.050873,113.787057,55,22,10,12,8,8,28,26,1005,89,7,20140718170000
79,"Zimaling, Zhongshan",,22.505112,113.407183,25,25,14,1,5,5,29,25,1004,79,23,20140718170000
80,"Yangtze River tourist area, Zhongshan",,22.48589,113.439054,25,26,16,1,2,6,29,25,1004,79,23,20140718170000
81,"Huabai Park, Zhongshan",,22.51839,113.374362,42,13,9,5,3,8,29,26,1005,84,24,20140718170000
82,Zhongshan,,22.545387,113.370459,42,26,16,2,5,8,29,25,1004,79,23,20140718170000
83,"No.8 middle school, Shaoguan",,24.767777,113.583537,5,27,13,4,1,11,28,23,1008,64,7,20140718170000
83,"No.8 middle school, Shaoguan",,24.767777,113.583537,5,27,13,4,1,11,28,23,1008,64,7,20140718170000
84,"Forest area, Shaoguan",,24.796107,113.612131,46,21,15,6,7,4,28,23,1008,64,7,20140718170000
84,"Forest area, Shaoguan",,24.796106,113.612131,46,21,15,6,7,4,28,23,1008,64,7,20140718170000
86,"Shaoguan University, Shaoguan",,24.790864,113.646599,42,17,19,2,12,4,28,23,1008,64,7,20140718170000
86,"Shaoguan University, Shaoguan",,24.790864,113.646598,42,17,19,2,12,4,28,23,1008,64,7,20140718170000
88,"Qujiang Monitoring Station, Shaoguan",,24.683042,113.60157,46,10,15,4,3,8,28,23,1008,64,7,20140718170000
88,"Qujiang Monitoring Station, Shaoguan",,24.683042,113.60157,46,10,15,4,3,8,28,23,1008,64,7,20140718170000
89,Shaoguan,,24.807342,113.602712,53,27,19,6,12,11,28,23,1008,64,7,20140718170000
90,"Chaonanzi Station, Shantou",,23.251213,116.406762,46,30,17,5,7,9,28,27,1009,94,7,20140718170000
91,Shantou,,23.350642,116.686306,50,43,20,8,4,11,28,27,1009,94,7,20140718170000
92,"City Environmental Monitoring Station, Zhanjiang",,21.220431,110.397317,-,-,-,-,-,-,-,-,0,-,-,20140718170000
93,"EPB Dormitory, Zhanjiang",,21.197376,110.406487,-,-,-,-,-,-,-,-,0,-,-,20140718170000
94,"Xiashan Swimming Park, Zhanjiang",,21.200431,110.415655,-,-,-,-,-,-,-,-,0,-,-,20140718170000
95,"Zhanjiang Theatre, Zhanjiang",,21.268177,110.366445,-,-,-,-,-,-,-,-,0,-,-,20140718170000
96,"Mazhang EPA, Zhanjiang",,21.265486,110.335993,-,-,-,-,-,-,-,-,0,-,-,20140718170000
97,"Potou District EPB, Zhanjiang",,21.247604,110.454508,-,-,-,-,-,-,-,-,0,-,-,20140718170000
98,Zhanjiang,,21.26832,110.363883,-,-,-,-,-,-,-,-,0,-,-,20140718170000
99,"Maogang sub-office EPB, Maoming",,21.466435,111.033462,57,32,19,1,2,3,29,26,0,84,37,20140718170000
100,"Petrochemical No. 7 elementaty school, Maoming",,21.648905,110.937861,5,10,19,1,2,2,28,25,0,83,35,20140718170000
101,"Jiankang road, Maoming",,21.662211,110.909482,17,16,14,1,1,5,28,25,0,83,35,20140718170000
102,"Gaoling, Maoming",,21.690558,110.871146,46,18,11,10,12,5,28,25,0,83,35,20140718170000
1094,Maoming,,21.660223,110.929968,46,25,19,11,10,5,28,25,0,83,35,20140718170000
103,"Jiaying University, Meizhou",,24.325415,116.12816,34,11,19,1,3,6,28,27,1009,94,7,20140718170000
104,"Mexian new town, Meizhou",,24.269283,116.084546,42,27,21,4,4,6,28,27,1009,94,7,20140718170000
105,"Environmental Monitoring Center, Meizhou",,24.262778,116.129621,38,33,19,4,4,7,28,27,1009,94,7,20140718170000
1095,Meizhou,,24.285988,116.127065,42,33,21,4,4,7,28,27,1009,94,7,20140718170000
106,"City EPA, Shanwei",,22.772349,115.370227,30,24,20,1,3,5,29,27,1008,92,9,20140718170000
107,"City government, Shanwei",,22.787161,115.375536,30,25,19,1,3,8,29,27,1008,92,9,20140718170000
108,"Xincheng Middle School, Shanwei",,22.789851,115.367124,30,14,20,1,2,7,29,27,1008,92,9,20140718170000
1099,Shanwei,,22.783576,115.38022,30,25,20,1,3,8,29,27,1008,92,9,20140718170000
109,"No.3 elementary school, Heyuan",,23.755946,114.699091,38,16,13,9,4,7,26,24,1008,91,2,20140718170000
109,"No.3 elementary school, Heyuan",,23.75435,114.703514,38,16,13,9,4,7,26,24,1008,91,2,20140718170000
111,"City water company, Heyuan",,23.754246,114.682459,53,15,13,10,3,7,26,24,1008,91,2,20140718170000
111,"City water company, Heyuan",,23.688709,114.954652,53,15,13,10,3,7,26,24,1008,91,2,20140718170000
113,"Heyuan high school, Heyuan",,23.720666,114.693879,42,16,11,8,9,7,26,24,1008,91,2,20140718170000
113,"Heyuan high school, Heyuan",,23.720037,114.699563,42,16,11,8,9,7,26,24,1008,91,2,20140718170000
115,Heyuan,,23.740888,114.705147,53,18,13,12,9,7,26,24,1008,91,2,20140718170000
116,"Yuanyang Lake, Yangjiang",,21.855869,111.983676,34,24,20,1,2,5,28,23,1001,70,18,20140718170000
1100,Yangjiang,,21.855227,111.987308,38,24,20,1,2,5,28,23,1001,70,18,20140718170000
118,"Town governement, Qingyuan",,23.708005,113.026215,9,5,8,6,3,14,27,24,1005,84,9,20140718170000
119,"Fupin district, Qingyuan",,24.185415,113.419369,34,12,7,8,7,12,27,24,1005,84,9,20140718170000
119,"Fupin district, Qingyuan",,23.624781,113.067713,34,12,7,8,7,12,27,24,1005,84,9,20140718170000
121,"Environment protection office, Qingyuan",,23.691109,113.047948,5,5,10,6,4,7,27,24,1005,84,7,20140718170000
121,"Environment protection office, Qingyuan",,23.685931,113.053239,5,5,10,6,4,7,27,24,1005,84,7,20140718170000
123,"Fengcheng Subdistrict, Qingyuan",,23.695447,113.068189,9,2,8,4,3,14,27,24,1005,84,9,20140718170000
124,Qingyuan,,23.679304,113.061513,34,12,9,8,7,14,27,24,1005,84,9,20140718170000
125,"Xiyuan Road, Chaozhou",,23.668654,116.638272,53,21,17,3,8,13,28,27,1009,94,7,20140718170000
126,"Archives Bureau, Chaozhou",,23.667881,116.649104,72,34,20,2,8,9,28,27,1009,94,7,20140718170000
127,"Municipal Corporation, Chaozhou",,23.65035,116.621859,30,20,16,3,6,14,28,27,1009,94,7,20140718170000
1101,Chaozhou,,23.654204,116.626969,72,34,20,3,8,14,28,27,1009,94,7,20140718170000
128,"Donghu Park, Jieyang",,23.532877,116.374427,63,30,14,7,10,10,28,27,1009,94,7,20140718170000
129,"Yuhu Middle School, Jieyang",,23.52682,116.414123,55,20,18,3,4,9,28,27,1009,94,7,20140718170000
130,"Experimental Primary School, Jieyang",,23.571473,116.364137,53,31,11,11,8,10,28,27,1009,94,7,20140718170000
1102,Jieyang,,23.547596,116.37754,63,32,18,10,10,11,28,27,1009,94,7,20140718170000
131,"City Environmental Monitoring Station, Yunfu",,22.936779,112.042248,25,6,13,9,6,9,27,24,1005,84,9,20140718170000
132,"The new city government headquarters, Yunfu",,22.914275,112.044475,30,11,10,10,8,9,27,24,1005,84,9,20140718170000
133,"Muyang police sub-station, Yunfu",,22.951267,112.05923,9,7,11,11,8,9,27,24,1005,84,7,20140718170000
1103,Yunfu,,22.912436,112.049811,30,11,13,13,9,9,27,24,1005,84,9,20140718170000
134,Yantian,,22.587949,114.266899,25,42,32,3,3,15,28,26,1005,89,7,20140718170000
135,Kwai Chung,,22.572837,113.867166,50,20,20,15,3,12,28,26,1005,89,7,20140718170000
135,Kwai Chung,,22.354168,114.134558,50,20,20,15,3,12,28,26,1005,89,7,20140718170000
135,Kwai Chung,,22.627947,114.428875,50,20,20,15,3,12,28,26,1005,89,7,20140718170000
137,Nanyou,,22.513802,113.928051,38,37,29,4,4,12,28,26,1005,89,7,20140718170000
138,Meisha,,22.59611,114.318345,132,45,13,1,2,9,28,26,1005,89,7,20140718170000
139,Xi xiang,,22.717524,114.252304,30,47,11,12,2,11,28,26,1005,89,7,20140718170000
140,Liyuan,,22.54732,114.101205,46,27,7,6,1,9,28,26,1005,89,7,20140718170000
1072,Kwai Chung,,22.354168,114.134558,25,11,23,4,3,20,28,26,1005,89,7,20140718170000
1072,Kwai Chung,,22.627947,114.428875,25,11,23,4,3,20,28,26,1005,89,7,20140718170000
141,OCT,,22.539549,113.992458,34,22,11,9,1,12,28,26,1005,89,7,20140718170000
142,Honghu,,22.559647,114.121976,34,20,17,4,1,5,28,26,1005,89,7,20140718170000
143,Mission Hills,,22.694131,114.050496,21,20,6,3,2,9,28,26,1005,89,7,20140718170000
144,Shenzhen,,22.540382,114.062982,132,45,32,15,4,20,-,-,0,-,-,20140718170000
145,Chengdu,,30.622581,104.069564,129,58,44,44,3,8,24,22,1006,89,4,20140718170000
146,"Jinquan lianghe, Chengdu",,30.710359,103.974209,144,66,47,21,3,8,27,23,1005,79,4,20140718170000
147,"Shilidian, Chengdu",,30.684718,104.17845,112,60,80,25,3,6,27,23,1005,79,4,20140718170000
148,"Sanwayao, Chengdu",,30.568159,104.081524,112,52,-,1,-,9,27,23,1005,79,4,20140718170000
149,"Shahepu, Chengdu",,30.633685,104.120536,134,56,46,39,3,9,27,23,1005,79,4,20140718170000
150,"Liang Lane, Chengdu",,30.682601,104.076522,114,57,40,44,3,7,27,23,1005,79,4,20140718170000
151,"Caotang Temple, Chengdu",,30.651891,104.0284,114,58,44,31,2,8,27,23,1005,79,4,20140718170000
152,"Lingyansi, Chengdu",,31.025729,103.615022,152,69,47,10,6,4,27,23,1005,79,4,20140718170000
153,"Fuleshan, Mianyang",,31.472493,104.7806,80,36,39,10,2,6,27,21,1002,63,4,20140718170000
154,"High-tech Zone Water Company, Mianyang",,31.463309,104.674293,107,39,39,8,5,4,27,21,1002,63,4,20140718170000
155,"No.3 water company, Mianyang",,31.505002,104.731054,76,32,41,14,8,2,27,21,1002,63,4,20140718170000
156,Mianyang,,31.465174,104.681731,107,39,41,14,8,7,27,21,1002,63,4,20140718170000
157,"Dongshan Park, Deyang",,31.118648,104.424587,80,55,30,10,4,5,27,23,1005,79,4,20140718170000
158,"Xixiaoqu, Deyang",,31.131159,104.390972,55,35,41,8,7,7,27,23,1005,79,4,20140718170000
159,"City Procuratorate, Deyang",,31.114554,104.407986,89,34,38,7,7,3,27,23,1005,79,4,20140718170000
160,"Refractory Factory, Deyang",,31.108606,104.356506,13,50,38,5,11,3,27,23,1005,79,4,20140718170000
161,Deyang,,31.124715,104.400703,89,55,41,10,11,7,27,23,1005,79,4,20140718170000
162,"Nongnongping, Panzhihua",,26.566698,101.695438,99,55,39,10,8,14,23,17,0,62,4,20140718170000
163,"Hemenkou, Panzhihua",,26.589072,101.578312,124,65,34,10,3,8,23,17,0,62,4,20140718170000
164,"Bingcaogang, Panzhihua",,26.58143,101.718473,151,89,24,37,9,13,23,17,0,62,4,20140718170000
165,"Renhe, Panzhihua",,26.498166,101.746887,82,38,31,6,5,12,23,17,0,62,4,20140718170000
166,"Jinjina, Panzhihua",,26.553226,101.84862,142,95,24,13,54,15,23,17,0,62,4,20140718170000
167,Panzhihua,,26.578779,101.720211,151,95,39,37,54,15,23,17,0,62,4,20140718170000
168,"Shima Middle School, Yibin",,28.815979,104.599199,124,80,28,20,14,8,28,20,1002,54,2,20140718170000
169,"Municipal party committee, Yibin",,28.762654,104.624834,85,32,23,20,52,6,28,20,1002,54,2,20140718170000
170,"No. 4 middle school, Yibin",,28.783257,104.608407,97,60,20,19,19,5,28,20,1002,54,2,20140718170000
171,"City government, Yibin",,28.760477,104.644079,70,37,29,9,27,5,28,20,1002,54,2,20140718170000
172,"Huangjinzui, Yibin",,28.712319,104.578389,80,47,27,15,7,6,28,20,1002,54,2,20140718170000
173,"Shaping Middle School, Yibin",,28.795569,104.681393,72,34,27,6,15,5,28,20,1002,54,2,20140718170000
174,Yibin,,28.748384,104.645766,124,80,29,20,52,8,28,20,1002,54,2,20140718170000
175,"Datang Hill, Zigong",,29.359969,104.757388,149,71,18,20,30,13,25,22,0,83,4,20140718170000
176,"Yanma Road, Zigong",,29.355752,104.724036,142,88,5,17,17,4,25,22,0,83,4,20140718170000
177,"Tanmulin Street, Zigong",,29.353555,104.777397,122,53,40,7,10,3,25,22,0,83,4,20140718170000
178,"Chunhua Road, Zigong",,29.33825,104.771895,158,54,20,24,10,6,25,22,0,83,4,20140718170000
179,Zigong,,29.33617,104.781138,158,88,40,24,30,13,25,22,0,83,4,20140718170000
180,"Jiushi Hill, Luzhou",,28.955347,105.434207,132,49,42,8,4,4,25,22,0,83,5,20140718170000
181,"Xiaoshishang Port, Luzhou",,28.899583,105.447192,112,62,76,18,30,6,25,22,0,83,5,20140718170000
182,"Lantianxian Bridge, Luzhou",,28.852766,105.4358,142,83,83,17,6,4,25,22,0,83,5,20140718170000
183,"City Environment Monitoring Station, Luzhou",,28.895898,105.435802,104,54,46,20,1,6,25,22,0,83,5,20140718170000
184,Luzhou,,28.868782,105.445938,142,83,83,20,30,6,25,22,0,83,5,20140718170000
185,"City Committee, Nanchong",,30.799993,106.082906,104,53,17,16,16,2,29,23,1003,64,2,20140718170000
186,"Refinery Factory, Nanchong",,30.819412,106.10712,132,61,18,16,12,2,29,23,1003,64,2,20140718170000
187,"Gaoping District Monitoring Station, Nanchong",,30.783291,106.110417,127,57,33,10,14,5,29,23,1003,64,2,20140718170000
188,"Jialing District EPB, Nanchong",,30.761255,106.06818,155,80,12,6,17,5,29,23,1003,64,2,20140718170000
189,"City Environmental Monitoring Station, Nanchong",,30.836519,106.11272,137,71,38,22,7,4,29,23,1003,64,2,20140718170000
190,Nanchong,,30.835511,106.114717,155,80,38,22,17,5,29,23,1003,64,2,20140718170000
191,Shenyang US Consulate,,41.785668,123.432865,162,83,13,18,20,9,25,22,1009,83,4,20140718170000
192,"Huishan, Shenyang",,41.835421,123.647773,159,79,13,6,2,9,25,22,1009,83,4,20140718170000
193,"Hunnan, Shenyang",,41.758263,123.540809,153,83,44,26,1,8,25,22,1009,83,4,20140718170000
194,"Zhangshi, Shenyang",,41.771679,123.289859,159,76,42,25,19,7,24,22,1009,89,4,20140718170000
195,"Artillery College, Shenyang",,41.835749,123.547799,80,108,101,17,7,7,25,22,1009,83,7,20140718170000
196,"Beiling, Shenyang",,41.849633,123.434146,159,88,63,23,13,8,25,22,1009,83,4,20140718170000
197,"Wenyi Road, Shenyang",,41.767444,123.416144,168,83,76,18,20,8,25,22,1009,83,4,20140718170000
198,"Xiaoheyan, Shenyang",,41.779828,123.484015,134,63,111,22,6,9,25,22,1009,83,4,20140718170000
199,"Taiyuan Street, Shenyang",,41.799646,123.406146,172,88,0,20,6,0,25,22,1009,83,4,20140718170000
200,"Ermao, Shenyang",,41.783011,123.366679,177,93,117,23,12,7,25,22,1009,83,4,20140718170000
201,"Liaoning University, Shenyang",,41.830704,123.361071,172,91,33,16,3,8,25,22,1009,83,4,20140718170000
202,Shenyang,,41.808126,123.437611,172,88,0,20,6,0,25,22,1009,83,4,20140718170000
1104,"wenhua street, Shenyang , Shenyang",,41.774139,123.441839,156,80,88,26,12,8,24,22,1009,89,4,20140718170000
1105,"Tanglin Road , Shenyang , Shenyang",,41.823665,123.562317,160,65,102,15,4,7,25,22,1009,83,4,20140718170000
203,"Ganjingzi, Dalian",,38.9747,121.616893,194,111,34,35,2,6,26,21,1010,74,4,20140718170000
204,"Zhoushuizi, Dalian",,38.951928,121.569981,147,57,41,17,4,9,26,21,1010,74,4,20140718170000
205,"Xinghai No 3 station, Dalian",,38.885779,121.568864,153,193,46,40,8,4,26,21,1010,74,4,20140718170000
206,"Qingniwa Bridge, Dalian",,38.91274,121.638018,132,56,53,19,4,7,26,21,1010,74,4,20140718170000
207,"Fujiazhuang, Dalian",,38.864647,121.629947,117,69,30,9,8,5,26,21,1010,74,4,20140718170000
208,"Qixianling, Dalian",,38.856978,121.523169,144,61,43,23,5,11,26,21,1010,74,4,20140718170000
209,"Lushun, Dalian",,38.808946,121.264063,189,98,35,7,3,3,26,21,1010,74,4,20140718170000
210,"Jinzhou, Dalian",,39.132192,121.753259,160,74,31,18,2,3,26,21,1010,74,4,20140718170000
211,"BDA, Dalian",,39.05213,121.782022,144,52,7,17,2,3,26,21,1010,74,4,20140718170000
212,"D&D Port, Dalian",,39.064087,121.981874,99,44,22,11,1,9,26,21,1010,74,4,20140718170000
213,Dalian,,38.91478,121.619625,132,69,53,19,8,7,26,21,1010,74,4,20140718170000
214,"Bearing Factory, Dandong",,40.068929,124.345703,42,14,17,5,10,4,22,22,1011,95,2,20140718170000
215,"Financial school, Dandong",,40.158723,124.432593,55,20,22,3,5,14,22,22,1011,95,2,20140718170000
216,"Yuanbaoshan water, Dandong",,40.149431,124.391698,50,12,20,3,9,12,22,22,1011,95,2,20140718170000
217,"Experimental Primary School, Dandong",,39.887343,124.158056,65,29,19,6,3,17,22,22,1011,95,2,20140718170000
218,Dandong,,40.002046,124.360479,68,30,20,6,3,17,22,22,1011,95,2,20140718170000
1106,"minzhu bridge, Dandong , Dandong",,40.112974,124.373604,68,30,20,6,3,17,22,22,1011,95,2,20140718170000
1107,"yuanbaoshan, Dandong , Dandong",,40.146298,124.399081,53,14,19,8,9,12,22,22,1011,95,2,20140718170000
1108,"linjiang houjie, Dandong , Dandong",,40.152757,124.431745,59,20,22,3,5,14,22,22,1011,95,2,20140718170000
219,"BDA, Panjin",,41.157144,122.06645,194,99,49,4,2,11,23,22,0,98,6,20140718170000
220,"Xinglongtai, Panjin",,41.140948,122.111343,159,95,49,6,8,7,23,22,0,98,6,20140718170000
221,"Dingxiang, Panjin",,41.16139,121.928781,171,75,71,4,6,4,23,22,0,98,6,20140718170000
222,Panjin,,41.122089,122.076206,194,99,49,4,2,11,23,22,0,98,6,20140718170000
223,"No.3 water company, Yingkou",,40.682052,122.385352,119,54,36,6,1,5,26,22,1009,77,4,20140718170000
224,"Yingkou University, Yingkou",,40.683689,122.388285,95,50,62,5,3,8,26,22,1009,77,4,20140718170000
225,"Botanical garden, Yingkou",,40.711674,122.281568,158,65,44,11,4,8,26,22,1009,77,4,20140718170000
226,Yingkou,,40.668578,122.24059,155,68,80,9,4,12,26,22,1009,77,4,20140718170000
1109,"jinghu west street, Yingkou , Yingkou",,40.653831,122.221943,124,56,40,6,1,5,26,22,1009,77,4,20140718170000
1110,"Daqing Road , Yingkou , Yingkou",,40.709181,122.28243,155,62,49,9,4,8,26,22,1009,77,4,20140718170000
227,"Xishanpo, Huludao",,40.724078,120.921974,193,123,123,4,7,7,23,22,0,98,6,20140718170000
228,"Huagong hospital, Huludao",,40.755662,120.848435,178,127,33,6,2,8,23,22,0,98,6,20140718170000
229,"New district park, Huludao",,40.723415,120.853801,187,137,46,6,4,9,23,22,0,98,6,20140718170000
230,"Lianshan district governement, Huludao",,40.775488,120.872292,387,330,81,10,5,6,23,22,0,98,6,20140718170000
231,Huludao,,40.712501,120.842107,384,354,104,8,8,9,-,-,0,-,-,20140718170000
1111,"Dongcheng District , Huludao , Huludao",,40.775362,120.871706,384,354,85,8,5,7,,,,,,20140718170000
1112,"huagong street, Huludao , Huludao",,40.758901,120.842935,187,138,33,7,2,9,,,,,,20140718170000
232,Anshan,,41.110466,123.000147,163,93,50,7,11,13,25,22,1009,83,4,20140718170000
233,"Qianshan Park, Anshan",,41.033486,123.143897,152,56,28,2,1,5,25,22,1009,83,4,20140718170000
234,"Tiexi, Anshan",,41.121636,122.97506,161,81,31,15,2,12,25,22,1009,83,4,20140718170000
235,"Taiping Station, Anshan",,41.153322,123.052433,162,71,21,4,4,17,25,22,1009,83,4,20140718170000
236,"Central Station, Anshan",,41.106731,123.002736,165,95,39,8,11,13,25,22,1009,83,4,20140718170000
237,"Shengou Temple, Anshan",,41.137157,123.031901,153,60,44,5,3,13,25,22,1009,83,4,20140718170000
1113,"Qianshan , Anshan , Anshan",,41.014521,123.122538,151,56,41,1,1,4,25,22,1009,83,4,20140718170000
1114,"Tiexi Sandao jie, Anshan",,41.103264,122.978613,160,79,41,12,2,12,25,22,1009,83,4,20140718170000
1115,"Taiyang, Anshan",,41.094946,123.019037,163,93,50,7,11,13,25,22,1009,83,4,20140718170000
238,Fushun,,41.883028,123.962984,151,64,75,20,9,15,24,22,1009,89,4,20140718170000
239,"Shenfu new town, Fushun",,41.804638,123.631684,102,60,75,12,2,10,24,22,1009,89,4,20140718170000
240,"Reservoir, Fushun",,41.8464,123.802857,78,40,37,3,4,9,25,22,1009,83,4,20140718170000
241,"Train Station, Fushun",,41.89726,124.017604,104,57,29,8,6,11,25,22,1009,83,4,20140718170000
242,"Dongzhou, Fushun",,41.855578,124.044738,114,41,31,1,1,9,25,22,1009,83,4,20140718170000
243,"Xinhua, Fushun",,41.888598,123.932932,87,46,27,15,10,13,25,22,1009,83,4,20140718170000
244,"Wanghua, Fushun",,41.888825,123.093723,129,64,48,19,11,15,25,22,1009,83,4,20140718170000
245,Benxi,,41.296267,123.772371,157,107,26,26,4,45,24,22,1009,89,4,20140718170000
246,"Weining, Benxi",,41.349663,123.826071,74,62,26,26,3,45,24,22,1009,89,4,20140718170000
247,"Occupational disease hospital, Benxi",,41.305432,123.74645,109,44,27,6,4,20,25,22,1009,83,4,20140718170000
248,"Dongming, Benxi",,41.292369,123.765058,102,38,27,25,4,31,24,22,1009,89,4,20140718170000
249,"Caitun, Benxi",,41.301591,123.746039,157,107,20,14,3,14,24,22,1009,89,4,20140718170000
250,"Xihu, Benxi",,41.331332,123.773537,134,52,18,23,20,12,24,22,1009,89,4,20140718180000
251,"Dayu, Benxi",,41.308091,123.818442,119,47,40,14,9,16,25,24,1009,94,2,20140718180000
1116,"Xinlitun , Benxi , Benxi",,41.264104,123.811523,99,47,35,5,5,20,24,22,1009,89,4,20140718180000
252,Jinzhou,,41.097169,121.132647,225,121,83,8,13,9,26,24,1008,86,7,20140718180000
253,"Beihu Park, Jinzhou",,41.141447,121.137339,184,97,81,6,4,8,26,24,1008,86,7,20140718180000
254,"Monitoring station, Jinzhou",,41.113441,121.140911,191,91,64,7,5,8,26,24,1008,86,7,20140718180000
255,"Nanshan, Jinzhou",,41.570689,122.046753,184,104,71,5,6,9,26,24,1008,86,7,20140718180000
1118,"BDA, Jinzhou",,40.853915,121.061756,225,96,59,6,13,9,26,24,1008,86,7,20140718180000
1119,"tianan street, Jinzhou , Jinzhou",,41.124468,121.126119,199,99,82,6,5,9,26,24,1008,86,7,20140718180000
1120,"baigu street, Jinzhou, Jinzhou",,41.12214,121.21027,203,107,73,8,5,8,26,24,1008,86,7,20140718180000
1121,Chaoyang,,41.576022,120.456053,181,125,73,14,18,39,-,-,0,-,-,20140718180000
1122,"Agricultural Area, Chaoyang",,43.93968,125.247371,163,85,40,11,1,13,28,24,1006,72,7,20140718180000
1123,Tieling,,42.225197,123.732174,167,105,49,20,11,12,24,22,1009,89,4,20140718180000
260,"Waterpark, Tieling",,42.297031,123.880748,167,84,27,16,8,10,24,22,1009,89,4,20140718180000
1124,"Huigong Street West , Tieling , Tieling",,42.311115,123.845614,162,96,49,8,11,12,24,22,1009,89,4,20140718180000
1125,Liaoyang,,41.269312,123.24268,156,89,49,3,10,22,25,22,1009,83,4,20140718180000
1126,"Riverside Road , Liaoyang , Liaoyang",,41.176884,123.419859,154,77,49,4,42,19,25,22,1009,83,4,20140718180000
1127,Fuxin,,42.02373,121.675733,321,167,76,26,7,16,22,22,0,99,5,20140718180000
266,"Agricultural Area, Fuxin",,42.071291,121.696445,164,144,50,26,7,15,22,22,0,99,5,20140718180000
267,"Industrial Area, Fuxin",,42.041052,121.715554,321,167,43,26,1,7,22,22,0,99,5,20140718180000
1128,"Yulong Metro , Fuxin , Fuxin",,42.035091,121.666531,189,135,61,19,3,16,22,22,0,99,5,20140718180000
1129,"Dongyuan , Fuxin , Fuxin",,42.029119,121.681553,-,-,-,-,-,-,-,-,0,-,-,20140718180000
268,"City Monitoring Station, Jinan",,36.662614,117.054645,163,82,66,6,9,5,29,22,1009,58,4,20140718180000
269,"Shandong Institute of Economics, Jinan",,36.63819,117.074975,153,68,53,6,9,5,29,22,1009,58,4,20140718180000
270,"Quancheng Plaza, Jinan",,36.661711,117.027043,153,81,47,11,15,3,29,22,1009,58,4,20140718180000
271,"Kegansuo, Jinan",,36.611582,116.99384,149,72,60,7,10,5,29,22,1009,58,4,20140718180000
272,"Agriculture Science Institute, Jinan",,36.663115,116.95063,153,112,46,19,12,8,29,22,1009,58,4,20140718180000
273,"Lanxiang technical school, Jinan",,36.700421,116.95342,134,87,75,21,17,5,29,22,1009,58,4,20140718180000
274,"Chemical factory, Jinan",,36.687463,116.994406,157,87,49,27,15,3,29,22,1009,58,4,20140718180000
275,"Provincial Seed Warehouse, Jinan",,36.685706,117.066348,154,71,86,9,20,7,29,22,1009,58,4,20140718180000
276,"Shandong Architecture University, Jinan",,36.681732,117.191868,155,82,34,19,16,9,29,22,1009,58,4,20140718180000
277,"Baosheng cable company, Jinan",,36.724638,117.130855,142,92,36,44,17,6,29,22,1009,58,4,20140718180000
278,"Paomaling, Jinan",,36.47869,117.219027,119,59,91,6,17,9,29,22,1009,58,4,20140718180000
279,"Changqing District Communist Party School, Jinan",,36.548797,116.770859,82,58,49,22,26,7,29,22,1009,58,4,20140718180000
280,"BDA, Jinan",,36.685835,117.130851,134,83,46,10,12,8,29,22,1009,58,4,20140718180000
281,Jinan,,36.651426,117.126625,163,112,93,21,17,8,29,22,1009,58,4,20140718180000
282,"Shinan district No. 1, Qingdao",,36.065534,120.40839,95,52,40,16,8,4,27,23,1010,79,9,20140718180000
283,"Shibei district No. 1, Qingdao",,36.069919,120.341264,132,66,38,5,10,7,27,23,1010,79,9,20140718180000
284,"Shibei district No. 2, Qingdao",,36.104146,120.36637,151,51,68,6,6,8,27,23,1010,79,9,20140718180000
285,"Huangdao District No. 1, Qingdao",,35.958935,120.191041,142,88,37,8,8,4,27,23,1010,79,9,20140718180000
286,"Huangdao District No. 2, Qingdao",,35.970487,120.160339,142,86,37,1,4,6,27,23,1010,79,9,20140718180000
287,"Laoshan District No. 1, Qingdao",,36.085881,120.451839,114,54,48,7,10,6,27,23,1010,79,9,20140718180000
288,"Laoshan District No. 2, Qingdao",,36.091075,120.490388,117,56,71,10,8,7,27,23,1010,79,9,20140718180000
289,"Licang District No. 1, Qingdao",,36.184872,120.38533,104,90,27,10,11,5,27,23,1010,79,9,20140718180000
290,"Licang District No. 2, Qingdao",,36.154369,120.432287,151,51,39,17,14,5,27,23,1010,79,9,20140718180000
291,"Chengyang District No. 1, Qingdao",,36.308502,120.40008,102,66,27,12,10,8,27,23,1010,79,9,20140718180000
292,"Chengyang District No. 2, Qingdao",,36.308429,120.465806,85,59,45,7,13,4,27,23,1010,79,9,20140718180000
293,Qingdao,,36.067358,120.387773,142,88,40,16,10,7,27,23,1010,79,9,20140718180000
294,"Zichuan Meteo. Stations, Zibo",,36.637916,117.960222,156,74,41,33,49,8,27,22,1015,73,6,20140718180000
295,"Dongfeng Chemical factory, Zibo",,36.838576,118.050785,153,106,45,63,78,16,26,22,1015,76,6,20140718180000
296,"Boshan shuangshan, Zibo",,36.497278,117.853581,109,49,39,22,35,12,26,22,1015,76,6,20140718180000
297,"Linzi Putian Park, Zibo",,36.820171,118.315022,154,111,34,42,53,17,26,22,1015,76,6,20140718180000
298,"Qilu Petrochemical, Zibo",,36.765907,118.254967,155,109,37,24,26,19,26,22,1015,76,6,20140718180000
299,"Zhoucun sanjin Group, Zibo",,36.8044,117.85694,162,71,37,46,22,19,26,22,1015,76,6,20140718180000
300,"Vocational College, Zibo",,36.825208,117.926305,160,106,36,52,50,18,26,22,1015,76,6,20140718180000
301,"BDA, Zibo",,36.905214,118.021824,153,99,17,47,32,20,26,22,1015,76,6,20140718180000
302,Zibo,,36.813618,118.060948,173,106,41,63,78,16,26,22,1015,76,6,20140718180000
303,"Shizhong District Government, Zaozhuang",,34.850397,117.569545,124,83,43,12,13,5,29,24,1009,70,9,20140718180000
304,"Sewage treatment plant, Zaozhuang",,34.818951,117.595345,158,75,34,20,15,6,29,24,1009,70,9,20140718180000
305,"Xuecheng EPA, Zaozhuang",,34.790214,117.272455,156,71,45,19,11,5,29,24,1009,70,9,20140718180000
306,"Yicheng District government, Zaozhuang",,34.772806,117.57647,151,90,39,17,7,6,29,24,1009,70,9,20140718180000
307,"Taierzhuang EPA, Zaozhuang",,34.579462,117.741067,155,82,44,13,5,9,29,24,1009,70,9,20140718180000
308,"Shanting EPA, Zaozhuang",,35.070373,117.457691,93,54,50,7,13,7,29,24,1009,70,9,20140718180000
309,"City EPA, Zaozhuang",,34.809466,117.320608,152,74,54,7,6,4,29,24,1009,70,9,20140718180000
310,"High-tech zone, Zaozhuang",,34.821779,117.363495,156,66,34,3,7,4,29,24,1009,70,9,20140718180000
311,Zaozhuang,,34.809693,117.329634,156,90,50,19,13,9,29,24,1009,70,9,20140718180000
312,"City EPA, Dongying",,37.432052,118.672871,134,72,86,8,13,9,28,22,0,73,9,20140718180000
313,"Vocational College, Dongying",,37.438653,118.630567,137,86,102,18,16,6,28,22,0,73,9,20140718180000
314,"Xianhe Oil Production Plant, Dongying",,37.442419,118.510222,142,84,120,17,18,18,28,22,0,73,9,20140718180000
315,"Gengjin village, Dongying",,37.445072,118.55839,151,86,51,17,18,8,28,22,0,73,9,20140718180000
316,"City environmental company, Dongying",,37.466599,118.508012,160,97,102,8,12,9,28,22,0,73,9,20140718180000
317,"Hekou  district, Dongying",,37.883786,118.522171,163,79,154,6,9,10,28,22,0,73,9,20140718180000
318,"BDA, Dongying",,37.435162,118.701827,104,73,119,11,12,9,28,22,0,73,9,20140718180000
319,Dongying,,37.435429,118.680434,163,97,154,18,18,18,28,22,0,73,9,20140718180000
320,"Bearing Factory, Yantai",,37.544126,121.376956,152,57,32,11,5,9,,,,,,20140718180000
321,"Xijiao Chemical Station, Yantai",,37.547148,121.323695,95,29,63,6,5,8,,,,,,20140718180000
322,"Fushan Monitoring Stations, Yantai",,37.472245,121.260116,129,16,41,3,1,9,,,,,,20140718180000
323,"Mouping EPA, Yantai",,37.376681,121.586509,137,55,35,6,9,6,,,,,,20140718180000
324,"Laishan EPA, Yantai",,37.478422,121.44829,159,68,37,4,6,6,,,,,,20140718180000
325,"Laishan Shengquan Industrial Park, Yantai",,37.4271,121.408386,114,65,49,2,2,6,,,,,,20140718180000
326,"China Agricultural University, Yantai",,37.423568,121.511838,102,68,45,4,7,6,,,,,,20140718180000
327,"BDA EPA, Yantai",,37.560827,121.257954,147,76,28,13,2,8,,,,,,20140718180000
329,"Dajijia, Yantai",,37.673849,121.071465,78,40,41,8,8,6,,,,,,20140718180000
330,Yantai,,37.464793,121.453142,159,68,63,11,12,9,24,22,0,88,9,20140718180000
331,"BDA, Weifang",,36.720022,119.054064,91,55,41,14,10,3,,,,,,20140718180000
332,"Business School, Weifang",,36.682442,119.105909,97,53,48,18,14,4,,,,,,20140718180000
333,"Hanting District, Weifang",,36.773484,119.199705,109,66,55,10,17,5,,,,,,20140718180000
334,"Gongda Company, Weifang",,36.657635,119.167266,112,78,48,12,16,4,,,,,,20140718180000
335,"City EPA, Weifang",,36.701272,119.16838,95,74,45,35,16,5,,,,,,20140718180000
336,"City Arbitration Committee, Weifang",,36.702422,119.145927,104,72,87,11,15,6,,,,,,20140718180000
337,"Xinhui Group, Weifang",,36.641581,119.11679,112,62,48,22,19,25,,,,,,20140718180000
338,"Jincheng Middle School, Weifang",,36.773611,119.115539,102,54,89,12,16,6,,,,,,20140718180000
339,Weifang,,36.707217,119.167638,112,72,89,22,19,25,28,22,0,73,9,20140718180000
340,"City Monitoring Station, Jining",,35.408443,116.623917,82,68,35,17,33,8,30,24,1008,66,2,20140718180000
1090,"Shengdi Hollidays Resort, Jining",,35.424746,116.699093,119,70,35,17,27,8,30,24,1008,66,2,20140718180000
341,"Sewage treatment plant, Jining",,35.364286,116.609177,157,67,31,17,5,5,30,24,1008,66,2,20140718180000
342,"Electrochemical Factory, Jining",,35.390473,116.552956,89,58,40,14,8,6,30,24,1008,66,2,20140718180000
343,"Rencheng BDA, Jining",,35.390484,116.662995,157,59,32,28,16,8,30,24,1008,66,2,20140718180000
344,"Agricultural School, Jining",,35.44235,116.601682,151,74,34,24,23,5,30,24,1008,66,2,20140718180000
345,"BDA Huojucheng, Jining",,35.436377,116.642953,151,66,35,16,29,9,30,24,1008,66,2,20140718180000
346,Jining,,35.414473,116.59239,157,74,40,28,33,9,30,24,1008,66,2,20140718180000
347,"Taishan monitoring station, Taian",,36.194362,117.159648,85,53,35,13,17,11,19,19,0,99,11,20140718180000
348,"Shandong Electric Power School, Taian",,36.176071,117.12413,63,51,26,31,10,5,19,19,0,99,11,20140718180000
349,"Population Education school, Taian",,36.194417,117.104131,89,48,32,7,6,11,19,19,0,99,11,20140718180000
350,"Houfeng company, Taian",,36.204863,117.19015,89,58,18,1,6,10,19,19,0,99,11,20140718180000
351,"Nongda new campus, Taian",,36.170179,117.165191,99,82,21,22,5,12,19,19,0,99,11,20140718180000
352,"Transportation technical school, Taian",,36.202126,117.047068,74,50,26,11,7,12,19,19,0,99,11,20140718180000
353,"ICT Technology, Taian",,36.116621,117.107458,85,56,27,14,6,10,19,19,0,99,11,20140718180000
354,Taian,,36.200502,117.093682,99,82,35,22,17,12,19,19,0,99,11,20140718180000
355,"City Environmental Monitoring Station, Weihai",,37.513939,122.067058,87,40,39,1,2,7,24,22,0,88,9,20140718180000
356,"Woodworking Factory, Weihai",,37.325455,122.160777,112,58,46,19,1,3,24,22,0,88,9,20140718180000
357,"Lantian Hotel, Weihai",,37.514641,122.146276,114,51,41,4,4,11,24,22,0,88,9,20140718180000
358,"Zhang village government, Weihai",,37.485561,122.049436,95,46,43,4,3,7,24,22,0,88,9,20140718180000
359,"Gao District Bank, Weihai",,37.534919,122.056294,104,50,54,1,8,4,24,22,0,88,9,20140718180000
360,"Huxia technical school, Weihai",,37.427951,122.130811,97,52,37,2,4,6,24,22,0,88,9,20140718180000
361,Weihai,,37.5141,122.125477,114,51,41,4,4,11,24,22,0,88,9,20140718180000
362,"City governement square, Rizhao",,35.4075,119.526008,124,80,27,11,10,7,28,25,1010,78,2,20140718180000
363,"Port Authority, Rizhao",,35.381297,119.55396,157,95,16,36,12,5,28,25,1010,78,2,20140718180000
364,"City Monitoring Station, Rizhao",,35.388683,119.496405,152,60,38,7,7,5,28,25,1010,78,2,20140718180000
365,"Professor Garden, Rizhao",,35.462161,119.574193,155,111,32,7,13,8,28,25,1010,78,2,20140718180000
366,"Vocational and Technical College, Rizhao",,35.441939,119.538187,161,95,27,16,9,5,28,25,1010,78,2,20140718180000
367,"Lanshan EPA branch, Rizhao",,35.293405,119.345716,139,68,25,7,11,7,28,25,1010,78,2,20140718180000
368,"Jinma Industrial Park, Rizhao",,35.373339,119.514108,119,75,36,15,8,6,28,25,1010,78,2,20140718180000
369,Rizhao,,35.416089,119.532316,161,111,36,36,13,8,28,25,1010,78,2,20140718180000
370,"Vegetable oil factory, Laiwu",,36.205028,117.700917,161,80,32,14,56,13,27,22,1010,68,2,20140718180000
371,"Nursing home, Laiwu",,36.266067,117.652769,122,92,23,20,2,17,27,22,1010,68,2,20140718180000
372,"Xinyi middle school, Laiwu",,36.245086,117.739025,95,77,17,33,39,13,27,22,1010,68,2,20140718180000
373,"Risheng International School, Laiwu",,36.208125,117.730959,157,79,35,34,60,9,27,22,1010,68,2,20140718180000
374,"Gangcheng EPA, Laiwu",,36.066836,117.871823,114,74,28,17,56,11,27,22,1010,68,2,20140718180000
375,"City EPA, Laiwu",,36.228913,117.694797,9,74,26,44,56,15,27,22,1010,68,2,20140718180000
376,Laiwu,,36.213688,117.682612,161,92,35,34,60,17,-,-,0,-,-,20140718180000
377,"Lunan Pharmaceutical Factory, Linyi",,35.061671,118.299527,151,115,19,38,4,26,25,24,0,95,3,20140718180000
378,"Yihe compound, Linyi",,35.056752,118.34739,163,81,22,30,62,15,25,24,0,95,3,20140718180000
379,"Linyi University, Linyi",,35.114777,118.293414,166,77,17,47,38,18,25,24,0,95,3,20140718180000
380,City EPA,Nanfang,35.104871,118.353518,102,71,12,15,17,20,25,24,0,95,3,20140718180000
381,"Xinguang woolen factory, Linyi",,34.981004,118.282,134,86,25,41,51,19,25,24,0,95,3,20140718180000
382,"Hongfu Baijiu Factory, Linyi",,34.998788,118.257275,129,88,13,22,23,18,25,24,0,95,3,20140718180000
384,"Hedong insurance company, Linyi",,35.089354,118.40812,124,60,45,15,33,18,30,24,0,71,6,20140718180000
385,"Jianghua vehicule center, Linyi",,35.010082,118.435749,122,79,14,14,4,15,25,24,0,95,3,20140718180000
386,Linyi,,35.10428,118.362202,166,115,25,47,62,26,25,24,0,95,3,20140718180000
387,"Heima group, Dezhou",,37.466063,116.314134,153,80,40,17,12,8,31,23,1008,52,2,20140718180000
388,"Monitoring station, Dezhou",,37.433107,116.377312,154,117,23,36,13,6,31,23,1008,52,2,20140718180000
389,"Supervision Station, Dezhou",,37.449689,116.324709,72,111,28,20,28,11,31,23,1008,52,2,20140718180000
390,"Huayu technical school, Dezhou",,37.462809,116.357559,99,105,43,21,18,10,31,23,1008,52,2,20140718180000
391,"Shuangyi group, Dezhou",,37.478848,116.316362,169,111,25,32,7,8,31,23,1008,52,2,20140718180000
392,Dezhou,,37.434959,116.363366,169,117,25,36,13,8,31,23,1008,52,2,20140718180000
393,"Dongchang District Government, Liaocheng",,36.444473,115.971733,119,70,27,17,5,10,30,24,1008,62,2,20140718180000
394,"Light Machinery Factory No. 2, Liaocheng",,36.456788,116.002383,144,86,33,17,5,12,30,24,1008,62,2,20140718180000
395,"City committee communist party school, Liaocheng",,36.479537,115.989288,129,46,27,10,8,11,30,24,1008,62,2,20140718180000
396,"Customs, Liaocheng",,36.431933,115.956974,97,76,32,17,4,11,30,24,1008,62,2,20140718180000
397,"Hongshun Garden, Liaocheng",,36.471124,115.960319,95,76,27,7,6,16,30,24,1008,62,2,20140718180000
398,"BDA, Liaocheng",,36.459407,116.043621,132,77,24,13,8,10,30,24,1008,62,2,20140718180000
399,Liaocheng,,36.456792,115.991051,144,86,33,17,5,12,30,24,1008,62,2,20140718180000
400,"City EPA, Binzhou",,37.38024,118.026895,99,64,34,9,10,10,32,24,1008,57,2,20140718180000
401,"Beizhong new school, Binzhou",,37.38374,117.988996,95,70,24,28,1,12,32,24,1008,57,2,20140718180000
402,"No.2 water factory, Binzhou",,37.36155,118.002648,102,72,22,17,9,10,32,24,1008,57,2,20140718180000
403,"Keling Chemical factory, Binzhou",,37.396138,117.943609,109,63,23,12,3,10,32,24,1008,57,2,20140718180000
404,"Yinhe logistics company, Binzhou",,37.356122,117.943326,97,67,24,17,13,9,32,24,1008,57,2,20140718180000
405,"Bilin compond, Binzhou",,37.36815,117.978964,127,69,12,16,10,11,32,24,1008,57,2,20140718180000
406,Binzhou,,37.382639,117.976606,127,72,34,28,13,12,32,24,1008,57,2,20140718180000
407,"Bureau of Meteorology, Heze",,35.248625,115.428775,99,48,34,10,10,11,26,24,0,86,5,20140718180000
408,"Sewage treatment plant, Heze",,35.222517,115.531511,117,53,25,9,7,10,26,24,0,86,5,20140718180000
409,"Municipal CPPCC, Heze",,35.237125,115.480591,102,48,30,10,15,11,26,24,0,86,5,20140718180000
410,"Huarun Pharmaceutical Company, Heze",,35.261463,115.524873,80,54,25,20,7,14,26,24,0,86,5,20140718180000
411,"Heze University, Heze",,35.269706,115.460934,74,54,37,10,10,11,26,24,0,86,5,20140718180000
412,Heze,,35.233354,115.486503,127,58,37,20,15,14,26,24,0,86,5,20140718180000
413,"Shiji Park, Shijiazhuang",,38.03155,114.547873,182,104,38,17,9,3,27,25,1008,89,4,20140718180000
414,"Xinan College, Shijiazhuang",,38.012764,114.473163,166,93,25,21,6,4,27,25,1008,89,4,20140718180000
415,"Chemical College, Shijiazhuang",,38.055503,114.569816,144,81,24,22,6,3,27,25,1008,89,4,20140718180000
416,"Worker hospital, Shijiazhuang",,38.051784,114.461209,161,96,37,20,14,4,27,25,1008,89,4,20140718180000
417,"Northwest Water Company, Shijiazhuang",,38.140638,114.508038,180,88,34,24,10,2,27,25,1008,89,4,20140718180000
418,"High-tech zone, Shijiazhuang",,38.040482,114.610775,117,68,18,12,3,5,27,25,1008,89,4,20140718180000
419,"Fenglong Montain, Shijiazhuang",,37.910829,114.360264,213,100,39,8,23,4,27,25,1008,89,4,20140718180000
1130,"Zhengding Unicom, Shijiazhuang",,38.159458,114.59879,158,96,33,28,6,4,26,25,1008,94,4,20140718180000
1131,"Luancheng Communications, Shijiazhuang",,37.906534,114.638785,161,75,31,9,22,3,26,25,1008,94,4,20140718180000
1132,"Gaocheng Experimental School, Shijiazhuang",,38.039518,114.867812,191,127,17,17,4,5,26,25,1008,94,4,20140718180000
1133,"Wuji EPA, Shijiazhuang",,38.17862,114.997012,177,94,31,24,12,5,26,25,1008,94,4,20140718180000
1134,"Shenze Power Supply Bureau, Shijiazhuang",,38.197674,115.219126,159,84,32,22,17,5,26,25,1008,94,4,20140718180000
1135,"Zhaoxian EPA, Shijiazhuang",,37.77171,114.775957,171,80,36,6,6,2,26,25,1008,94,4,20140718180000
1136,"Gaoyi County City Hall, Shijiazhuang",,37.623535,114.612729,164,69,40,8,8,1,26,25,1008,94,4,20140718180000
1137,"Zanhuang County City Hall, Shijiazhuang",,37.672898,114.398269,190,112,27,18,1,1,26,25,1008,94,4,20140718180000
1138,"Jingxing Bureau of Meteorology, Shijiazhuang",,38.038788,114.158406,142,87,32,23,9,7,26,25,1008,94,4,20140718180000
1139,"Pingshan Ye River, Shijiazhuang",,38.266657,114.210275,157,91,40,29,8,5,26,25,1008,94,4,20140718180000
420,Shijiazhuang,,38.042926,114.520834,182,104,38,24,14,5,27,25,1008,89,4,20140718180000
421,"No. 12 middle school, Tangshan",,39.659306,118.190271,114,67,14,32,6,4,-,-,0,-,-,20140718180000
422,"Ceramics Company, Tangshan",,39.669255,118.225185,200,106,40,3,1,6,28,24,1008,79,4,20140718180000
1089,"Xiaoshanzi Station, Tangshan",,39.631273,118.206223,-,-,-,-,-,-,-,-,0,-,-,20140718180000
423,"Commodities Bureau, Tangshan",,39.642301,118.191265,173,111,41,7,6,5,28,24,1008,79,4,20140718180000
424,"Leidazhanzi Station, Tangshan",,39.644375,118.150383,249,150,31,22,17,30,28,24,1008,79,4,20140718180000
425,"Supply and marketing cooperatives, Tangshan",,39.632334,118.17232,209,113,34,8,5,4,28,24,1008,79,4,20140718180000
1140,"Guye District City Hall, Tangshan",,39.741379,118.460246,277,177,32,16,1,15,28,25,1008,84,4,20140718180000
1141,"Kaiping Stations, Tangshan",,39.675246,118.275149,245,216,34,9,1,9,28,25,1008,84,4,20140718180000
1142,"Fengnan District City Hall, Tangshan",,39.5834,118.097454,274,148,56,7,5,22,28,25,1008,84,4,20140718180000
1143,"Fengrun City Hall, Tangshan",,39.840355,118.175338,215,188,59,19,7,19,28,25,1008,84,2,20140718180000
1144,"Qianxi EPA, Tangshan",,40.153339,118.317265,220,135,68,24,3,17,28,25,1008,84,4,20140718180000
1145,"Caofeidian Xinli  Primary School, Tangshan",,39.291232,118.462182,225,135,110,8,12,12,28,25,1008,84,4,20140718180000
1146,"Zunhua EPA, Tangshan",,40.206249,117.997315,241,163,80,27,9,21,28,25,1008,84,4,20140718180000
1147,"Qianan No.1 middle school, Tangshan",,40.004248,118.717055,280,176,46,17,3,15,28,25,1008,84,4,20140718180000
426,Tangshan,,39.632175,118.186472,249,157,45,22,17,30,28,24,1008,79,4,20140718180000
427,"City Monitoring Station, Qinhuangdao",,39.958109,119.607773,197,30,59,11,9,8,,,,,,20140718180000
428,"Beidaihe, Qinhuangdao",,39.829209,119.53194,169,83,23,12,12,9,,,,,,20140718180000
429,"Shanhai Pass, Qinhuangdao",,40.019298,119.767898,178,91,7,24,19,7,,,,,,20140718180000
430,"Contruction Plazz, Qinhuangdao",,39.943187,119.542912,174,90,49,17,2,8,,,,,,20140718180000
431,"City government, Qinhuangdao",,39.93711,119.612769,177,66,48,27,15,7,,,,,,20140718180000
598,Wuxi,,31.488746,120.31575,87,73,26,18,10,10,28,25,1009,84,11,20140718180000
1148,"Qinglong EPA, Qinhuangdao",,40.419223,118.958002,214,111,97,2,1,23,28,25,1008,84,4,20140718180000
1149,"Changli EPA, Qinhuangdao",,39.714369,119.173237,271,134,42,11,12,9,,,,,,20140718180000
432,Qinhuangdao,,39.936485,119.606263,177,83,48,27,15,9,28,24,1008,79,4,20140718180000
433,"CongTai Park, Handan",,36.620197,114.501891,124,59,31,6,1,4,28,24,1008,70,4,20140718180000
434,"City EPA, Handan",,36.618145,114.518822,139,51,32,17,9,6,28,24,1008,70,4,20140718180000
435,"East Sewage Factory, Handan",,36.616064,114.548714,152,89,15,5,8,2,28,24,1008,70,4,20140718190000
436,"Mine Hospital, Handan",,36.578149,114.509854,155,67,18,13,3,3,28,24,1008,70,4,20140718190000
1150,"Fengfeng mine Inland Revenue Department, Handan",,36.423085,114.245994,154,88,27,11,1,8,26,24,1008,78,2,20140718190000
1151,"Shexian EPA, Handan",,36.589084,113.692341,156,74,120,15,1,4,,,,,,20140718190000
1152,"Ci County Vocational Education Center, Handan",,36.380247,114.390119,117,62,31,11,3,2,,,,,,20140718190000
1153,"Yongnian government guesthouse, Handan",,36.783297,114.502905,142,64,35,8,6,0,30,24,1008,62,2,20140718190000
1154,"Wuan BDA, Handan",,36.686223,114.269009,164,123,23,1,1,11,,,,,,20140718190000
1085,Handan,,36.625683,114.544812,155,89,32,17,9,6,28,24,1008,70,4,20140718190000
437,"Road and Bridge Corporation, Xingtai",,37.096415,114.538799,127,99,12,43,21,1,28,24,1008,70,4,20140718190000
438,"Dahuo fontain, Xingtai",,37.097563,114.488001,91,84,22,32,18,1,28,24,1008,70,4,20140718190000
439,"Xingtai Normal College, Xingtai",,37.053404,114.531819,171,116,12,28,10,2,28,24,1008,70,4,20140718190000
440,"Environment protection office, Xingtai",,37.06253,114.490985,152,80,21,33,13,3,28,24,1008,70,4,20140718190000
1155,"Cultural centers within the mound, Xingtai",,37.293569,114.524873,171,90,28,32,1,3,30,24,1008,62,2,20140718190000
383,Xingtai,,37.071066,114.510749,171,116,22,43,21,3,28,24,1008,70,4,20140718190000
441,"City Monitoring Station, Baoding",,38.871737,115.527103,151,110,74,6,3,13,27,24,1008,78,2,20140718190000
442,"Surface water Company, Baoding",,38.842891,115.467326,144,80,23,30,32,6,27,24,1008,78,2,20140718190000
443,"Huadian II, Baoding",,38.896748,115.528102,112,59,62,9,5,7,27,24,1008,78,2,20140718190000
444,"Reception Center, Baoding",,38.911905,115.477301,153,61,34,17,2,2,27,24,1008,78,2,20140718190000
445,"Film Factory, Baoding",,38.876949,115.448383,13,69,20,17,6,7,27,24,1008,78,2,20140718190000
446,"Natatorium, Baoding",,38.863815,115.499212,162,63,139,13,9,6,32,24,1006,56,4,20140718190000
1156,"Qingyuan City Hall, Baoding",,38.771758,115.502189,157,73,40,12,5,3,32,24,1006,56,4,20140718190000
1157,"Xushui EPA, Baoding",,39.025781,115.668023,153,70,85,2,11,7,32,24,1006,56,4,20140718190000
590,Xuzhou,,34.20346,117.289825,154,62,33,12,16,8,28,25,1009,78,4,20140718190000
1158,"Zhouzhou Monitoring Stations, Baoding",,39.493241,116.040187,170,82,35,9,5,3,32,24,1006,56,4,20140718190000
1159,"Gaobeidian EPA, Baoding",,39.3329,115.885891,155,76,45,10,28,5,32,24,1006,56,4,20140718190000
447,Baoding,,38.874791,115.471124,153,110,74,30,32,13,27,24,1008,78,2,20140718190000
448,"Century Compound, Zhangjiakou",,40.770279,114.909106,160,146,37,6,7,10,26,21,1006,71,9,20140718190000
449,"North Pumping Station, Zhangjiakou",,40.874362,114.910119,175,75,201,9,20,17,27,22,1006,64,11,20140718190000
450,"Hardware Warehouse, Zhangjiakou",,40.81232,114.887119,72,63,43,9,15,19,26,21,1006,71,9,20140718190000
451,"Tanji Chang, Zhangjiakou",,40.796301,114.89811,167,79,0,17,41,13,26,21,1006,71,9,20140718190000
1160,"Xiahuayuan EPA, Zhangjiakou",,40.509345,115.302442,278,163,139,6,8,12,27,22,1006,64,11,20140718190000
1161,"Huaian EPA, Zhangjiakou",,40.68157,114.398646,258,159,109,12,40,12,27,22,1006,64,11,20140718190000
1162,"Huailai Fuqian Primary School, Zhangjiakou",,40.422204,115.530285,277,145,138,3,26,8,27,22,1006,64,11,20140718190000
452,Zhangjiakou,,40.825744,114.893659,178,79,167,17,41,19,26,21,1006,71,9,20140718190000
453,"Railway, Chengde",,40.917557,117.972331,176,95,28,32,3,11,24,22,1009,88,2,20140718190000
454,"Cultural Center, Chengde",,40.974625,117.824437,192,93,30,12,2,11,24,22,1009,88,2,20140718190000
455,"Bank of China, Chengde",,40.985582,117.958304,153,86,30,22,9,11,24,22,1009,88,2,20140718190000
456,"BDA, Chengde",,40.937567,117.969325,179,102,40,16,11,10,24,22,1009,88,2,20140718190000
457,"Ligong, Chengde",,41.012579,117.94428,206,89,15,11,1,10,24,22,1009,88,2,20140718190000
1163,"Chengde County EPA, Chengde",,40.776643,118.17646,276,178,69,14,1,12,26,23,1009,82,2,20140718190000
1164,"Xinglong County City Hall, Chengde",,40.424301,117.513488,202,119,60,16,4,16,26,23,1009,82,2,20140718190000
1165,"Luanping EPA, Chengde",,40.950792,117.350715,230,123,127,17,2,16,26,23,1009,82,2,20140718190000
1166,"Fengning County City Hall, Chengde",,41.216739,116.658037,264,135,143,1,5,13,26,23,1009,82,2,20140718190000
458,Chengde,,40.955652,117.968737,206,102,40,32,11,11,24,22,1009,88,2,20140718190000
459,"Municipal EPB, Cangzhou",,38.323507,116.876746,174,80,35,10,5,5,28,25,1008,84,4,20140718190000
460,"Cangxian Urban Construction Bureau, Cangzhou",,38.299495,116.890734,206,87,30,11,8,4,28,24,1008,79,4,20140718190000
461,"TV Broadcast Station, Cangzhou",,38.325525,116.863761,166,83,31,8,14,3,28,24,1008,79,4,20140718190000
1167,"Qing County City Hall, Cangzhou",,38.589643,116.815876,188,68,19,33,18,2,28,25,1008,84,4,20140718190000
1168,"Poyoushi City Hall, Cangzhou",,38.089516,116.590575,173,96,83,26,40,4,28,25,1008,84,4,20140718190000
1169,"Huanghua Finance Bureau Training Center, Cangzhou",,38.377793,117.343356,184,110,46,8,39,0,28,25,1008,84,4,20140718190000
462,Cangzhou,,38.305035,116.844625,206,83,31,11,14,4,28,24,1008,79,4,20140718190000
463,"Environmental Monitoring Supervision Center, Langfang",,39.558157,116.720995,109,89,42,12,4,6,28,25,1008,84,4,20140718190000
464,"TCM Medical Material Company, Langfang",,39.519096,116.689914,158,79,38,14,4,6,28,24,1008,79,4,20140718190000
465,"BDA, Langfang",,39.576175,116.779041,152,73,38,14,8,7,28,24,1008,79,4,20140718190000
466,"North China Institute of Aerospace, Langfang",,39.53517,116.743027,151,76,35,13,4,7,28,25,1008,84,4,20140718190000
1170,"Guan Party School, Langfang",,39.446185,116.311026,159,71,47,19,4,5,28,25,1008,84,4,20140718190000
1171,"Xianghe EPA, Langfang",,39.76725,117.015252,188,112,68,27,8,9,28,25,1008,84,4,20140718190000
1172,"Wenan County EPA, Langfang",,38.880927,116.47001,151,85,44,9,21,2,28,25,1008,84,4,20140718190000
1173,"Three Rivers Department of Transportation, Langfang",,39.989419,117.091528,241,155,37,24,2,11,28,25,1008,84,4,20140718190000
467,Langfang,,39.539148,116.689668,158,79,38,14,8,7,28,25,1008,84,4,20140718190000
468,"Hengshui City EPB, Hengshui",,37.739679,115.695929,147,71,33,8,5,4,28,21,0,67,6,20140718190000
469,"Environmental Monitoring Station, Hengshui",,37.738593,115.648837,109,89,37,12,5,4,28,21,0,67,6,20140718190000
470,"Electrical Machine North Factory, Hengshui",,37.758686,115.70094,112,66,21,5,4,2,28,21,0,67,6,20140718190000
1174,"Anping EPA, Hengshui",,38.238559,115.537988,170,79,29,20,10,4,28,21,0,64,7,20140718190000
1175,"Jizhou EPA, Hengshui",,37.548552,115.58679,155,89,39,11,9,5,28,21,0,64,7,20140718190000
471,Hengshui,,37.739562,115.676066,147,89,37,12,5,4,28,21,0,67,6,20140718190000
1176,"Xinji City Hall, Xinji",,37.949711,115.230084,153,68,40,10,8,4,28,21,0,64,7,20140718190000
472,"Fukang road, Tianjin",,39.098136,117.157621,203,115,46,19,13,7,28,24,1008,79,4,20140718190000
473,"Nankou road, Tianjin",,39.174022,117.199688,157,69,46,11,14,9,28,24,1008,79,4,20140718190000
474,"Qinjian street, Tianjin",,39.166588,117.15104,190,88,39,14,13,13,28,24,1008,79,4,20140718190000
475,"Nanjing Road, Tianjin",,39.120958,117.195112,174,104,37,18,1,9,28,24,1008,79,4,20140718190000
476,"Dazhigu No.8 road, Tianjin",,39.111811,117.25147,172,84,37,16,17,12,28,24,1008,79,4,20140718190000
477,"Qianjin street, Tianjin",,39.09371,117.207981,172,94,43,20,2,8,28,24,1008,79,4,20140718190000
478,"Huaihe street, Tianjin",,39.227167,117.191293,170,92,48,22,3,8,28,24,1008,79,4,20140718190000
479,"Xiangshan street, Tianjin",,39.134752,117.275125,175,90,40,15,1,11,28,24,1008,79,4,20140718190000
480,"Yuejin Road, Tianjin",,39.088177,117.320884,178,100,38,27,2,8,28,24,1008,79,4,20140718190000
481,"Zhujiang street, Tianjin",,39.064463,117.231268,179,105,38,22,1,10,28,24,1008,79,4,20140718190000
482,"No.4 street, Tianjin",,39.035228,117.713424,178,111,29,45,2,10,28,24,1008,79,4,20140718190000
483,"Yongming road, Tianjin",,38.840392,117.463805,206,102,45,17,8,10,28,24,1008,79,4,20140718190000
484,"Xinhua street, Tianjin",,39.138671,117.010083,165,86,22,13,6,9,28,24,1008,79,4,20140718190000
485,"Jingu Road, Tianjin",,38.985659,117.381254,180,94,30,8,3,14,28,24,1008,79,4,20140718190000
486,"Tanggu Yingkou street, Tianjin",,39.021768,117.656454,163,93,42,26,5,8,28,24,1008,79,4,20140718190000
487,"Hexi Yijing road, Tianjin",,39.248392,117.798043,179,100,46,27,3,11,28,24,1008,79,4,20140718190000
488,"Jianshe Road, Tianjin",,39.720075,117.310588,174,105,43,14,4,13,28,24,1008,79,4,20140718190000
489,"Quanzhou South road, Tianjin",,39.373857,117.050329,99,74,44,12,4,11,28,24,1008,79,4,20140718190000
490,"Donghuan road, Tianjin",,40.043144,117.451062,181,83,95,21,6,20,28,24,1008,79,4,20140718190000
491,"Tuanpowa, Tianjin",,38.920418,117.16299,198,136,41,28,20,19,28,24,1008,79,4,20140718190000
492,"Guangming Road, Tianjin",,39.329193,117.822791,-,-,-,-,-,-,-,-,0,-,-,20140718190000
493,"Beiwei No.2 road, Tianjin",,38.943857,116.920624,187,94,33,21,6,6,28,24,1008,79,4,20140718190000
494,"Haitai fazhan No.2 road, Tianjin",,39.079608,117.096583,199,115,31,25,6,14,28,24,1008,79,4,20140718190000
495,"Hangtian road, Tianjin",,39.152244,117.381309,177,76,36,24,3,27,28,24,1008,79,4,20140718190000
496,"Hanbei road, Tianjin",,39.159768,117.770477,179,100,25,47,3,9,28,24,1008,79,4,20140718190000
497,"Baobai highway, Tianjin",,39.51757,117.349635,175,163,38,11,8,7,28,24,1008,79,4,20140718190000
498,Tianjin,,39.085164,117.207281,179,105,43,22,2,10,28,25,1008,84,4,20140718190000
499,"Wolong bridge, Hangzhou",,30.24371,120.132762,80,42,9,12,2,4,30,23,1009,66,2,20140718190000
500,"Hemu primary school, Hangzhou",,30.309669,120.124507,89,33,23,18,4,7,30,23,1009,66,2,20140718190000
501,"Zhejiang Agricultural University, Hangzhou",,30.265601,120.197583,61,44,12,15,3,5,30,23,1009,66,2,20140718190000
502,"Xiasha, Hangzhou",,30.303516,120.352618,91,41,15,22,6,4,30,23,1009,66,2,20140718190000
503,"Yunqi, Hangzhou",,30.178555,120.093142,91,52,13,8,2,7,30,23,1009,66,4,20140718190000
504,"Xixi, Hangzhou",,30.272425,120.068144,112,52,13,25,2,7,30,23,1009,66,2,20140718190000
505,"Chengxiang town, Hangzhou",,30.179493,120.274184,68,25,15,7,6,5,30,23,1009,66,4,20140718190000
506,"Qiandao lake, Hangzhou",,29.638139,119.031092,57,22,24,5,2,5,30,23,1009,66,2,20140718190000
507,"Linping town, Hangzhou",,30.415948,120.305059,132,53,12,28,11,5,30,23,1009,66,2,20140718190000
509,"No.2 Middle School, Hangzhou",,30.044303,119.956356,82,53,6,19,4,8,30,23,1009,66,4,20140718190000
510,"City Hall, Hangzhou",,30.234185,119.723503,114,65,32,15,21,7,30,23,1009,66,4,20140718190000
511,"No. 4 middle school, Hangzhou",,30.229428,119.699591,85,52,2,12,3,7,30,23,1009,66,4,20140718190000
512,Hangzhou,,30.271756,120.159765,112,52,23,25,4,7,30,23,1009,66,2,20140718190000
513,"City Station, Wenzhou",,28.009715,120.679129,57,36,4,12,5,4,24,23,0,96,2,20140718190000
514,"Ouhai, Wenzhou",,28.001846,120.641982,50,28,2,12,2,7,24,23,0,96,2,20140718190000
515,"Longwan, Wenzhou",,27.968122,120.768393,50,30,9,10,4,5,24,23,0,96,2,20140718190000
516,"Nanpu, Wenzhou",,27.981763,120.683685,55,32,3,9,4,6,24,23,0,96,2,20140718190000
517,Wenzhou,,27.990985,120.703425,57,36,9,12,5,7,24,23,0,96,2,20140718190000
518,"Monitoring station, Jiaxing",,30.75437,120.767373,53,25,11,19,2,5,28,25,1009,84,11,20140718190000
519,"Jiaxing University, Jiaxing",,30.745099,120.735004,68,24,10,7,2,8,28,25,1009,84,11,20140718190000
520,"Qinghe Primary School, Jiaxing",,30.775685,120.747969,53,22,12,9,5,4,28,25,1009,84,11,20140718190000
521,Jiaxing,,30.751627,120.762862,53,25,12,9,5,8,28,25,1009,84,11,20140718190000
522,"Chengbei water plant, Huzhou",,30.891155,120.096593,87,52,12,21,2,8,28,25,1009,84,11,20140718190000
523,"Jishan new village, Huzhou",,30.859939,120.120168,99,51,12,22,6,8,28,25,1009,84,11,20140718190000
524,"Town west water plant, Huzhou",,30.862371,120.084577,89,56,12,20,1,7,28,25,1009,84,11,20140718190000
525,Huzhou,,30.892304,120.091694,99,56,12,22,6,8,28,25,1009,84,11,20140718190000
526,"Donghu middle school, Shaoxing",,29.990447,120.647547,-,-,-,-,-,-,-,-,0,-,-,20140718190000
527,"City EPA station, Shaoxing",,30.001695,120.584318,57,33,19,8,2,2,30,23,1009,66,4,20140718190000
528,"Chengdong BDA committee, Shaoxing",,29.986643,120.613578,53,0,16,6,6,4,30,23,1009,66,4,20140718190000
529,"Paojiang station, Shaoxing",,30.07574,120.62154,13,20,23,7,9,6,30,23,1009,66,4,20140718190000
530,"Shaoxing technical school, Shaoxing",,29.930983,120.577131,342,0,4,4,2,6,30,23,1009,66,4,20140718190000
531,"Library, Shaoxing",,29.706266,120.253183,68,37,12,7,2,8,30,23,1009,66,4,20140718190000
532,"Transporation management station, Shaoxing",,29.726405,120.221602,65,49,17,12,5,6,30,23,1009,66,4,20140718190000
533,"Dongpu Town Governement, Shaoxing",,30.049601,120.539893,57,27,25,3,3,5,30,23,1009,66,4,20140718190000
534,Shaoxing,,29.993122,120.590182,57,20,23,8,9,6,30,23,1009,66,2,20140718190000
535,"City Monitoring Station, Jinhua",,29.100031,119.690373,55,18,19,11,4,4,24,23,0,95,4,20140718190000
536,"No.15 middle school, Jinhua",,29.074022,119.652121,50,22,18,4,7,4,24,23,0,95,4,20140718190000
537,"No.4 middle school, Jinhua",,29.110109,119.653654,55,25,18,6,5,4,24,23,0,95,4,20140718190000
538,"Beiyuan, Jinhua",,29.332898,120.083351,53,27,14,5,9,4,24,23,0,95,4,20140718190000
539,"Jiangdong, Jinhua",,29.302486,120.095291,34,25,24,7,7,5,25,24,0,90,5,20140718190000
597,"Yuhong Elementary School , Wuxi",,31.561155,120.249588,99,73,18,16,10,7,28,25,1009,84,9,20140718190000
540,Jinhua,,29.076083,119.65215,55,25,19,11,7,4,24,23,0,95,4,20140718190000
541,"EPA building, Quzhou",,28.937291,118.876081,76,17,16,4,22,5,28,24,1009,73,7,20140718190000
542,"Experimental school, Quzhou",,28.961502,118.880916,74,46,13,10,9,2,28,24,1009,73,7,20140718190000
543,"Quzhou University, Quzhou",,28.971452,118.860052,63,30,21,13,8,6,28,24,1009,73,7,20140718190000
544,Quzhou,,28.966994,118.864252,74,46,21,13,9,6,28,24,1009,73,7,20140718190000
545,"Putuo east port, Zhoushan",,29.951412,122.317679,46,21,6,4,2,7,28,26,1010,89,7,20140718190000
546,"Dinghai tanfeng, Zhoushan",,30.018014,122.126566,30,15,7,3,2,7,28,26,1010,89,7,20140718190000
547,Zhoushan,,29.983049,122.210763,30,15,7,3,2,7,28,26,1010,89,7,20140718190000
548,"Taizhou EPA building, Taizhou",,28.651216,121.42331,46,27,6,4,1,3,24,24,0,99,2,20140718190000
549,"Luqiao Tian Yang Wang, Taizhou",,28.574364,121.381194,38,20,7,6,1,4,24,24,0,99,2,20140718190000
550,"Huangyan EPA building, Taizhou",,28.656151,121.285064,42,19,10,5,1,9,24,24,0,99,2,20140718190000
551,"Yu Zhuang Qian, Lishui",,28.419638,119.883884,50,28,26,16,6,3,29,23,1011,65,2,20140718190000
552,"Monitoring station building, Lishui",,28.444379,119.923103,38,19,15,6,2,2,29,23,1011,65,2,20140718190000
553,"Liandu primary school, Lishui",,28.450912,119.939332,55,28,15,8,2,4,29,23,1011,65,2,20140718190000
554,Lishui,,28.464224,119.927201,55,28,26,16,6,4,29,23,1011,65,2,20140718190000
555,Taigu Primary School,,29.858177,121.593738,34,16,6,7,4,4,28,26,1010,89,7,20140718190000
556,Qianhu shuihan,,29.862459,121.5328,46,22,5,6,9,4,28,26,1010,89,7,20140718190000
557,Sanjiang secondary schools,,29.884687,121.562713,50,23,5,8,3,4,28,26,1010,89,7,20140718190000
558,Longsai Hospital,,29.949294,121.720671,25,12,10,4,4,4,28,26,1010,89,7,20140718190000
559,Beilun District EPB,,29.899544,121.827597,61,21,9,2,3,3,28,26,1010,89,7,20140718190000
560,Wanli University,,29.896155,121.541154,38,15,6,5,2,4,28,26,1010,89,7,20140718190000
561,Qianhu water plant,,29.788156,121.652415,57,12,7,3,4,5,28,26,1010,89,7,20140718190000
562,Municipal management station,,29.893743,121.620269,34,16,7,4,2,3,28,26,1010,89,7,20140718190000
1177,Daxie Literary Museum,,29.891281,121.952741,34,18,10,4,2,4,28,26,1010,89,7,20140718190000
1178,Cixi EPB,,30.159852,121.242331,46,19,10,2,2,4,28,26,1010,89,7,20140718190000
1179,Cixi Experimently Primary School,,30.174341,121.262169,42,15,12,5,3,3,28,26,1010,89,7,20140718190000
1180,"Yongsan Park, Yuyao",,30.045532,121.157602,50,19,13,3,2,16,28,26,1010,89,7,20140718190000
1181,"Qilupu Water Company, Yuyao",,30.039112,121.133416,53,19,11,2,3,2,28,26,1010,89,7,20140718190000
1182,Fenghua EPB,,29.660537,121.414074,38,14,9,5,2,8,28,26,1010,89,7,20140718190000
1183,"Yuelong station, Ninghai",,29.290223,121.439263,87,23,8,7,5,4,28,26,1010,89,7,20140718190000
1184,"Wenfeng Primary School, Xiangshan",,29.470841,121.895054,59,13,7,1,2,5,28,26,1010,89,7,20140718190000
1185,"Chengnan Primary School, Ninghai",,29.282647,121.428839,61,29,9,6,8,4,28,26,1010,89,7,20140718190000
1186,"Xingang Primary School, Xiangshan",,29.199718,121.935879,21,25,10,4,2,4,28,26,1010,89,7,20140718190000
1187,Fuyang,,30.046157,119.96468,82,53,6,19,4,8,30,23,1009,66,4,20140718190000
1188,Yiwu,,29.304353,120.079794,53,27,14,5,9,4,24,23,0,95,4,20140718190000
1189,Zhuji,,29.711185,120.240748,68,49,17,12,5,8,30,23,1009,66,2,20140718190000
563,"Shanxi Road , Nanjing",,32.06795,118.779216,177,95,41,18,21,9,27,26,1008,94,4,20140718190000
564,"Ruijin Road , Nanjing",,32.029321,118.80817,175,92,16,18,15,10,27,26,1008,94,4,20140718190000
565,"Xuanwu Lake, Nanjing",,32.075423,118.800188,173,91,39,15,20,7,27,26,1008,94,4,20140718190000
566,"Olympic Center, Nanjing",,32.007171,118.742217,169,91,35,7,4,8,27,26,1008,94,4,20140718190000
567,"Xianlin University Town , Nanjing",,32.106958,118.919882,165,95,30,7,6,11,28,27,1008,94,2,20140718190000
568,Nanjing,,32.058179,118.802061,182,104,48,17,16,11,27,26,1008,94,4,20140718190000
569,"Shangfang hill , Suzhou",,31.24502,120.565211,80,42,16,14,8,6,28,25,1009,84,9,20140718190000
570,"Wuzhong District , Suzhou",,31.268105,120.61717,65,29,8,17,4,5,28,25,1009,84,9,20140718190000
571,"Suzhou New District , Suzhou",,31.297277,120.547262,87,-,11,10,13,5,28,25,1009,84,9,20140718190000
572,"Suzhou Industrial Area, Suzhou",,31.307603,120.673257,80,26,11,7,2,4,28,25,1009,84,9,20140718190000
573,"Xiangcheng district, Suzhou",,31.368674,120.645209,-,30,18,15,9,7,28,25,1009,84,11,20140718190000
574,Suzhou,,31.296701,120.589493,87,36,24,14,7,7,28,25,1009,84,11,20140718190000
575,"South suburb , Nantong",,31.957836,120.917218,85,51,10,13,12,4,24,24,0,95,7,20140718190000
576,"Xinghu park, Nantong",,31.927873,120.944254,91,53,11,15,12,6,24,23,0,95,6,20140718190000
577,"Zilang school, Nantong",,32.039638,120.814358,114,52,19,26,17,0,24,24,0,95,7,20140718190000
578,Nantong,,31.978005,120.898555,91,53,9,15,12,6,24,23,0,95,6,20140718190000
579,Lianyungang,,34.595509,119.226814,152,84,21,27,10,7,8,8,1016,96,0,20140718190000
580,"Hongmen police substation, Lianyungang",,34.588692,119.146693,157,64,26,9,2,8,29,26,1010,79,2,20140718190000
581,"Xugou Nuclear Expert Village , Lianyungang",,34.749957,119.373707,107,32,19,5,6,8,29,26,1010,79,2,20140718190000
582,"Hengrui pharmaceutical company, BDA, Lianyungang",,34.697574,119.353668,164,92,10,8,5,8,29,26,1010,79,2,20140718190000
583,"City Monitoring Station, Lianyungang",,34.586791,119.186929,161,89,27,9,3,9,29,26,1010,79,2,20140718190000
584,"Yellow river new village , Xuzhou",,34.271542,117.177241,124,65,27,8,9,7,28,25,1009,78,4,20140718190000
585,"Tongshan Veterinary Hospital , Xuzhou",,34.307086,117.197766,154,63,31,12,7,6,28,25,1009,78,4,20140718190000
586,"New Town , Xuzhou",,34.213992,117.261718,139,63,28,9,7,8,28,25,1009,78,4,20140718190000
587,"Taoyuan road, Xuzhou",,34.289822,117.249721,129,54,37,8,7,7,29,24,1009,70,9,20140718190000
588,"Agricultural Science Academy , Xuzhou",,34.27655,117.299079,152,62,33,8,2,5,28,25,1009,78,4,20140718190000
589,"Tongshan EPA, Xuzhou",,34.179384,117.171798,139,51,31,4,6,4,29,24,1009,70,9,20140718190000
591,Yangzhou,,32.39233,119.418446,159,69,10,19,10,5,11,9,0,90,6,20140718190000
592,"Hanjiang Monitoring Station, Yangzhou",,32.374218,119.394484,171,97,25,17,15,12,25,24,0,98,5,20140718190000
593,"No. 4 Hospital, Yangzhou",,32.401394,119.44444,260,186,27,15,6,10,25,25,0,98,5,20140718190000
594,"City Monitoring Station, Yangzhou",,32.406588,119.41591,180,106,23,15,21,10,25,25,0,98,5,20140718190000
595,"University Town , Wuxi",,31.484752,120.273571,55,36,19,11,4,5,28,25,1009,84,9,20140718190000
596,"Shibei High School , Wuxi",,31.619969,120.279584,78,46,19,16,10,5,28,25,1009,84,9,20140718190000
599,Changzhou,,31.808037,119.979205,172,86,6,22,36,13,11,9,0,88,5,20140718190000
600,"Chengjian School, Changzhou",,31.776476,119.937681,124,62,17,29,7,8,25,24,0,96,5,20140718190000
601,"Changzhou Engineering Institute , Changzhou",,31.806828,119.966724,104,58,15,23,3,9,25,24,0,96,5,20140718190000
602,"Wujin Monitoring Station, Changzhou",,31.701788,119.939676,97,44,36,19,14,7,25,24,0,96,5,20140718190000
603,"City Monitoring Station, Changzhou",,31.777201,119.979426,155,75,12,28,30,9,25,24,0,96,5,20140718190000
604,Zhenjiang,,32.18597,119.431281,170,79,4,39,15,13,9,8,0,93,5,20140718190000
605,"New District Administrative office , Zhenjiang",,32.186174,119.685021,171,81,15,24,11,17,28,27,1008,94,2,20140718190000
606,"Vocational Education Center , Zhenjiang",,32.212973,119.496253,185,99,13,27,12,7,28,27,1008,94,2,20140718190000
607,"Dantu Monitoring Station , Zhenjiang",,32.130026,119.435432,193,94,5,18,6,13,28,27,1008,94,2,20140718190000
608,"City Monitoring Station, Zhenjiang",,32.202178,119.439766,218,109,11,26,9,10,28,27,1008,94,2,20140718190000
609,"Gaogang Adminstrative office , Taizhoushi",,32.300768,119.886757,169,91,14,13,13,13,25,24,0,98,5,20140718190000
610,"Students Innovation Park , Taizhoushi",,32.461672,119.892761,161,101,21,11,10,9,25,24,0,98,5,20140718190000
611,Taizhoushi,,32.453555,119.927852,175,120,21,16,17,11,25,24,0,98,5,20140718190000
612,"Yancheng power station , Yancheng",,33.400859,120.123067,109,61,31,7,2,6,-,-,0,-,-,20140718190000
613,Yancheng,,33.345939,120.168504,144,52,30,5,3,7,11,10,1016,95,4,20140718190000
614,"Wenfeng Middle School , Yancheng",,33.370531,120.134041,82,54,30,13,11,7,-,-,0,-,-,20140718190000
615,"BDA Management Committe, Yancheng",,33.393191,120.22978,87,65,20,9,9,6,-,-,0,-,-,20140718190000
616,"City Monitoring Station, Yancheng",,33.390623,120.164423,109,65,14,14,5,4,25,24,0,98,5,20140718190000
617,Suqian,,33.960666,118.281004,160,87,24,7,5,7,11,10,0,91,6,20140718190000
618,"Suqian College , Suqian",,33.951472,118.298523,167,90,27,17,10,7,25,25,0,96,4,20140718190000
619,"Suqian Middle School , Suqian",,33.95784,118.249505,152,84,21,14,2,5,26,25,0,94,5,20140718190000
620,"Suyu District Environmental Protection Agency , Suqian",,33.94932,118.326569,163,78,30,21,7,7,26,25,0,94,5,20140718190000
621,"City Monitoring Station, Suqian",,33.956982,118.277022,171,86,34,4,7,5,25,25,0,96,4,20140718190000
622,Taizhou,,28.653436,121.425185,46,26,9,6,2,9,23,23,0,99,2,20140718190000
623,Donghu Liyuan,,30.572324,114.377844,78,28,9,19,2,6,26,24,1008,89,7,20140718190000
624,Yuehu Lake,,30.554662,114.256937,78,60,7,23,0,5,26,24,1008,89,7,20140718190000
625,Hankou Huaqiao ,,30.61724,114.287652,76,48,8,30,2,7,26,24,1008,89,7,20140718190000
626,Wuchang Ziyang ,,30.530801,114.309438,91,63,8,25,3,5,26,24,1008,89,7,20140718190000
627,Qingshan Ganghua,,30.622435,114.375599,95,1,8,29,8,8,26,24,1008,89,7,20140718190000
628,Dunkou Xinou,,30.480091,114.162176,74,53,4,21,5,6,26,24,1008,89,7,20140718190000
629,Donghu Gaoxin,,30.48095,114.40724,65,50,5,16,1,6,26,24,1008,89,7,20140718200000
630,Wujianshan,,30.63114,114.135907,82,27,4,23,0,7,26,24,1008,89,7,20140718200000
631,Yuanshun Road,,30.297142,113.858587,30,19,13,3,0,4,26,24,1008,89,7,20140718200000
632,Wuhan,,30.591973,114.306887,95,63,8,30,9,8,26,24,1008,89,7,20140718200000
1190,"Silingsan Factory, Yichang",,30.713288,111.306585,42,15,9,8,22,6,23,22,1009,98,7,20140718200000
633,Yichang,,30.689528,111.292131,53,25,10,8,22,7,23,22,1009,98,7,20140718200000
633,Yichang,,30.689528,111.292131,53,25,10,8,22,7,23,22,1009,98,7,20140718200000
1191,"City Library , Jingzhou",,30.31494,112.260844,46,21,18,8,9,6,24,24,1008,93,2,20140718200000
1192,"City committee communist party school, Jingzhou",,30.35054,112.20743,95,45,11,7,6,10,24,24,1008,93,2,20140718200000
1193,"kerong EPA, Jingzhou",,30.302965,112.29443,74,30,17,12,14,8,24,24,1008,93,2,20140718200000
634,Jingzhou,,30.332608,112.245451,95,45,18,12,14,10,24,24,1008,93,2,20140718200000
634,Jingzhou,,30.332608,112.245451,95,45,18,12,14,10,24,24,1008,93,2,20140718200000
635,Huangshi,,30.19723,115.043908,129,71,8,25,29,0,27,24,1010,95,2,20140718200000
635,Huangshi,,30.19723,115.043908,129,71,8,25,29,0,27,24,1010,95,2,20140718200000
1194,"Chenjiaying, Huangshi",,30.232823,115.067923,68,51,,10,2,0,27,,1010,95,2,20140718200000
1195,"Chenjiawan , Huangshi",,30.200422,115.082138,127,61,,10,5,0,27,,1010,95,2,20140718200000
1196,"Xinxialu, Huangshi",,30.17332,114.954357,129,71,,25,29,0,27,,1010,95,2,20140718200000
1197,"Tie montian, Huangshi",,30.203885,114.906439,117,73,,6,1,0,27,,1009,90,3,20140718200000
1198,"BDA, Huangshi",,30.207491,115.031739,97,58,,12,3,0,27,,1010,95,2,20140718200000
636,Shiyan,,32.627208,110.803311,95,52,8,7,500,0,22,22,941,93,1,20140718200000
636,Shiyan,,32.627208,110.803311,95,52,8,7,500,0,22,22,941,93,1,20140718200000
1199,"Wudang Mountain , Shiyan",,32.392921,111.047655,61,18,,1,1,0,22,,941,93,1,20140718200000
1200,"Riverside Village , Shiyan",,32.647286,110.785335,65,50,,7,500,0,22,,941,93,1,20140718200000
1201,"Liujiagou , Shiyan",,32.636732,110.731129,76,43,,7,12,0,22,,941,93,1,20140718200000
1202,"Yunyang County District automatic air station , Shiyan",,32.833065,110.816809,107,54,,2,1,0,22,,941,93,1,20140718200000
637,Xiangyang,,32.007029,112.128496,65,27,,8,12,0,28,,1007,80,4,20140718200000
637,Xiangyang,,32.007029,112.128496,65,27,,8,12,0,28,,1007,80,4,20140718200000
638,Ezhou,,30.389244,114.899884,119,52,8,7,4,0,28,24,1016,90,3,20140718200000
638,Ezhou,,30.389244,114.899884,119,52,8,7,4,0,28,24,1016,90,3,20140718200000
1203,"City government, Ezhou",,30.391836,114.892822,70,36,,7,4,-,28,,1016,90,3,20140718200000
1204,"Zhaojiaba, Ezhou",,30.368966,114.90365,119,52,,5,2,0,28,,1016,90,3,20140718200000
1205,"Fankou BDA, Ezhou",,30.410759,114.818225,50,29,,6,2,0,28,,1016,90,3,20140718200000
639,Jingmen,,31.033208,112.205093,124,45,18,5,3,10,26,22,1002,94,1,20140718200000
639,Jingmen,,31.033208,112.205093,124,45,18,5,3,10,26,22,1002,94,1,20140718200000
640,Xiaogan,,30.922089,113.922387,70,34,8,2,1,0,25,24,1008,94,1,20140718200000
640,Xiaogan,,30.922089,113.922387,70,34,8,2,1,0,25,24,1008,94,1,20140718200000
1206,"wenhua street, Shenyang , Xiaogan",,30.925856,113.92104,70,29,4,2,1,0,25,24,1008,94,1,20140718200000
1207,"Dongcheng District , Huludao , Xiaogan",,30.917963,113.943904,65,34,4,1,1,0,25,24,1008,94,1,20140718200000
641,Huanggang,,30.45124,114.877378,76,37,8,9,6,0,28,24,1016,90,3,20140718200000
641,Huanggang,,30.45124,114.877378,76,37,8,9,6,0,28,24,1016,90,3,20140718200000
1208,"Dazhou Island, Huanggang",,30.446205,114.900323,46,37,,6,1,0,28,,1016,90,3,20140718200000
1209,"Workers Center , Huanggang",,30.469244,114.912504,76,28,,9,6,0,28,,1016,90,3,20140718200000
642,Xianning,,29.838978,114.327898,65,19,8,3,2,0,26,24,981,88,1,20140718200000
642,Xianning,,29.838978,114.327898,65,19,8,3,2,0,26,24,981,88,1,20140718200000
1210,"Municipal Development and Reform Commission , Xianning",,29.818645,114.328461,-,-,,-,-,-,-,,0,-,-,20140718200000
1211,"Xianan District Governement, Xianning",,29.51107,114.181864,57,35,,4,3,0,-,,0,-,-,20140718200000
1212,"Yangtze River Industrial Park , Xianning",,29.883098,114.32909,65,38,,1,2,0,26,,981,88,1,20140718200000
1213,"Qianshan Park, Xianning",,29.815351,114.328689,-,-,,-,-,-,-,,0,-,-,20140718200000
643,Suizhou,,31.688342,113.388675,68,27,,10,1,0,27,,1002,90,2,20140718200000
643,Suizhou,,31.688342,113.388675,68,27,,10,1,0,27,,1002,90,2,20140718200000
644,Enshi,,30.269587,109.493042,30,31,44,14,4,17,23,22,910,90,3,20140718200000
644,Enshi,,30.269587,109.493042,30,31,44,14,4,17,23,22,910,90,3,20140718200000
645,Xiantao,,30.360228,113.460616,70,10,6,9,29,0,27,24,1015,92,3,20140718200000
645,Xiantao,,30.360228,113.460616,70,10,6,9,29,0,27,24,1015,92,3,20140718200000
646,Qianjiang,,30.399387,112.905661,95,23,18,1,7,10,28,24,1014,93,3,20140718200000
646,Qianjiang,,30.399387,112.905661,95,23,18,1,7,10,28,24,1014,93,3,20140718200000
647,Tianmen,,30.661027,113.172549,70,10,18,11,4,0,27,24,1015,92,3,20140718200000
647,Tianmen,,30.661027,113.172549,70,10,18,11,4,0,27,24,1015,92,3,20140718200000
1088,Shennongjia,,31.741307,110.685554,95,14,10,17,1,0,17,22,878,96,1,20140718200000
1088,Shennongjia,,31.741307,110.685554,95,14,10,17,1,0,17,22,878,96,1,20140718200000
1214,"Xiangcheng Yundong Street, Xiangfan",,32.017716,112.16102,65,31,,1,1,0,28,,1007,80,4,20140718200000
655,"City Environmental Monitoring Station, Baotou",,40.657201,109.886738,139,68,46,17,20,7,,,,,,20140718200000
656,"Donghe EPB, Baotou",,40.586213,110.002224,112,80,49,15,26,6,,,,,,20140718200000
657,"Baotou shopping mall, Baotou",,40.508334,109.819085,137,89,46,17,18,9,,,,,,20140718200000
658,"Huilong logistics, Baotou",,40.633436,109.879821,104,90,47,17,19,8,,,,,,20140718200000
659,Baotou,,40.658597,109.846051,153,90,56,17,26,9,22,11,1003,40,7,20140718200000
660,"Huatai Automobile Mall, Eerduosi",,39.837048,109.972209,149,73,167,6,13,4,22,11,1003,40,7,20140718200000
661,"Olympus Garden, Eerduosi",,39.789171,109.987742,151,81,156,14,29,7,22,11,1003,40,7,20140718200000
662,Eerduosi,,39.609284,109.78704,151,89,194,14,33,8,22,11,1003,40,7,20140718200000
663,"Tianyi Road, Chifeng",,42.275552,118.88507,185,99,212,4,11,15,23,20,1008,82,2,20140718200000
664,"Songshan No.1 Middle School, Chifeng",,42.329307,118.793045,184,116,94,3,5,13,23,20,1008,82,2,20140718200000
665,"Hada Street, Chifeng",,42.280714,118.988235,185,118,207,6,5,1,23,20,1008,82,2,20140718200000
666,"Songshan Road, Chifeng",,42.171487,118.89501,188,112,215,5,3,5,23,20,1008,82,2,20140718200000
667,Chifeng,,42.259752,118.893027,188,118,215,6,11,15,23,20,1008,82,2,20140718200000
674,Fuzhou,,26.071406,119.301294,17,10,20,3,4,9,27,26,1009,94,9,20140718200000
675,"Xidong, Xiamen",,24.815345,118.161848,53,18,49,10,2,3,29,26,1009,84,4,20140718200000
676,"Hongwen, Xiamen",,24.473969,118.156281,38,9,37,11,7,5,29,26,1009,84,4,20140718200000
677,"Gulangyu, Xiamen",,24.443168,118.068571,9,9,38,7,3,6,29,26,1009,84,4,20140718200000
678,"Huli, Xiamen",,24.51235,118.099146,17,8,43,11,1,3,29,26,1009,84,4,20140718200000
679,Xiamen,,24.477187,118.094402,17,9,43,11,3,6,29,26,1009,84,4,20140718200000
680,"Qingyuan Montain, Quanzhou",,24.939503,118.598337,61,17,33,4,2,4,29,26,1009,84,4,20140718200000
681,"Tushan Street, Quanzhou",,24.90867,118.586397,59,35,26,2,3,4,29,26,1009,84,4,20140718200000
682,"Wanan, Quanzhou",,24.304154,118.070903,55,24,19,6,2,6,29,26,1009,84,4,20140718200000
683,Quanzhou,,24.87179,118.68001,61,35,33,6,5,6,29,26,1009,84,4,20140718200000
687,"Jiancaoping, Taiyuan",,37.887889,112.528383,170,114,53,12,1,10,23,19,1011,78,9,20140718200000
688,"Jianhe, Taiyuan",,37.910779,112.579258,171,119,49,38,7,9,23,19,1011,78,9,20140718200000
689,"Shanglan, Taiyuan",,38.011589,112.440679,154,100,93,4,3,10,23,19,1011,78,9,20140718200000
690,"Jinyuan, Taiyuan",,37.713164,112.475552,169,103,70,13,15,8,23,19,1011,78,9,20140718200000
691,"Xiaodian, Taiyuan",,37.782137,112.483533,155,73,91,9,15,8,23,19,1011,78,9,20140718200000
692,"Taoyuan, Taiyuan",,37.869752,112.543332,154,81,100,5,6,9,23,19,1011,78,9,20140718200000
693,"Wucheng, Taiyuan",,37.819998,112.576252,162,96,62,10,4,9,23,19,1011,78,9,20140718200000
694,"Nanzhai, Taiyuan",,37.985902,112.555312,162,106,49,36,5,10,23,19,1011,78,9,20140718200000
695,"Jinsheng, Taiyuan",,37.781205,112.494494,164,93,98,20,40,10,23,19,1011,78,9,20140718200000
696,Taiyuan,,37.871115,112.555178,170,114,100,12,5,10,23,19,1011,78,9,20140718200000
697,"Monitoring station, Changzhi",,36.194062,113.10389,142,72,9,13,40,15,25,23,1008,89,4,20140718200000
698,"Auditing bureau, Changzhi",,36.212787,113.095221,153,75,23,13,15,13,25,23,1008,89,4,20140718200000
699,"Qinghua station, Changzhi",,36.154328,113.116385,102,65,21,13,5,10,25,23,1008,89,4,20140718200000
700,"No.8 middle school, Changzhi",,36.185451,113.099481,102,70,18,14,5,12,,,,,,20140718200000
701,Changzhi,,36.195553,113.12292,153,77,23,14,40,15,25,21,1007,73,2,20140718200000
702,"Yungang Hotel, Datong",,40.076997,113.278079,168,87,44,9,10,13,18,16,1006,84,0,20140718200000
703,"college of education, Datong",,40.085608,113.27808,177,70,41,9,9,12,18,16,1006,84,0,20140718200000
704,Datong,,40.078016,113.307143,177,99,45,16,11,13,18,16,1006,84,0,20140718200000
705,"Technical Schools, Linfen",,36.07131,111.509046,82,52,21,9,10,18,18,17,0,89,7,20140718200000
706,"Municipal party committee, Linfen",,36.087425,111.508771,76,36,25,13,7,6,18,17,0,89,7,20140718200000
1073,"City Monitoring Station, Linfen",,36.097676,111.518739,107,50,11,3,9,8,19,17,0,86,7,20140718200000
707,"South Airport, Linfen",,36.041614,111.497968,85,40,21,7,9,25,18,17,0,89,7,20140718200000
708,Linfen,,36.087944,111.525098,89,40,30,10,9,25,18,17,0,89,7,20140718200000
709,"City center, Yangquan",,37.848012,113.578636,155,117,37,27,10,8,24,19,1011,73,9,20140718200000
710,Yangquan,,37.857475,113.586921,157,198,30,103,27,15,24,19,1011,73,9,20140718200000
711,"Water Company, Jincheng",,35.504787,112.857245,157,77,23,13,3,4,25,21,1007,73,2,20140718200000
712,"Baiyun shopping mall, Jincheng",,35.492858,112.841566,149,75,5,10,18,6,25,21,1007,73,2,20140718200000
713,"City EPA, Jincheng",,35.488422,112.858528,157,97,9,17,4,6,25,21,1007,73,2,20140718200000
714,"Institute of Technology, Jincheng",,35.484844,112.878073,139,82,16,17,3,6,25,21,1007,73,2,20140718200000
715,"No.1 middle school, Jincheng",,35.478725,112.838636,114,79,7,10,6,1,25,21,1007,73,2,20140718200000
716,Jincheng,,35.490287,112.85794,157,97,23,17,18,6,25,21,1007,73,2,20140718200000
718,"District Government, Shuozhou",,39.320857,112.430641,178,87,78,4,16,24,25,18,1006,57,4,20140718200000
719,"City EPA, Shuozhou",,39.331495,112.407997,178,79,82,8,10,24,25,18,1006,57,4,20140718200000
720,"No.2 middle school, Shuozhou",,39.377963,112.432877,171,61,49,18,7,17,25,18,1006,57,4,20140718200000
721,Shuozhou,,39.332756,112.439672,178,87,82,18,7,24,25,18,1006,57,4,20140718200000
722,"Jinlun compound, Jinzhong",,37.697891,112.771017,160,87,39,10,14,11,23,19,1011,78,9,20140718200000
723,"Hydraulic Component Factory, Jinzhong",,37.688355,112.725844,164,79,62,9,12,7,23,19,1011,78,9,20140718200000
724,"Nandu compound, Jinzhong",,37.713148,112.732036,162,83,32,7,6,9,23,19,1011,78,9,20140718200000
725,"Yuci district government, Jinzhong",,37.698228,112.714167,162,69,67,5,6,8,23,19,1011,78,9,20140718200000
726,Jinzhong,,37.687705,112.759187,164,87,67,10,14,11,23,19,1011,78,9,20140718200000
727,"Yuncheng Middle School, Yuncheng",,35.012345,111.003215,109,62,29,6,17,16,28,20,1004,50,4,20140718200000
728,"Yudou BDA, Yuncheng",,35.05065,111.029571,76,57,32,3,27,18,28,20,1004,50,4,20140718200000
730,"Regional Technical School, Yuncheng",,35.028727,110.974076,129,57,34,1,23,1,28,20,1004,50,4,20140718200000
731,"Airport new district, Yuncheng",,35.084515,111.05339,80,56,86,4,27,0,28,20,1004,50,4,20140718200000
732,Yuncheng,,35.025675,111.013344,129,62,86,6,27,18,28,20,1004,50,4,20140718200000
733,"Jiyin, Xinzhou",,38.413292,112.742432,-,-,-,23,9,15,23,19,1011,78,9,20140718200000
734,"BDA, Xinzhou",,38.450069,112.736723,163,102,17,22,1,15,23,19,1011,78,9,20140718200000
735,"Convention Center, Xinzhou",,38.492043,112.709772,198,110,44,13,3,18,23,19,1011,78,9,20140718200000
736,Xinzhou,,38.417244,112.740742,198,110,44,23,9,18,23,19,1011,78,9,20140718200000
737,"City EPA, Luliang",,37.522189,111.144365,153,72,15,16,42,19,16,15,0,87,4,20140718200000
738,"Soybean factory, Luliang",,37.51689,111.135101,139,72,8,36,19,21,16,15,0,87,4,20140718200000
739,"Water Company, Luliang",,37.53394,111.138834,152,84,12,37,20,18,16,15,0,87,4,20140718200000
740,Luliang,,25.027007,103.668566,153,84,15,37,42,21,16,15,0,87,4,20140718200000
741,"City government, Sanmenxia",,34.776251,111.198781,154,77,42,19,29,15,28,20,1004,50,4,20140718200000
743,"BDA, Sanmenxia",,34.800434,111.204332,158,72,33,32,20,6,28,20,1004,50,4,20140718200000
744,Sanmenxia,,34.771506,111.206129,171,95,42,32,30,15,28,20,1004,50,4,20140718200000
745,"Food Factory, Changchun",,43.919094,125.329521,139,67,11,17,2,8,20,19,1010,94,4,20140718200000
746,"Bus Factory, Changchun",,43.912337,125.293431,124,68,8,31,2,9,20,19,1010,94,4,20140718200000
747,"Institute of Posts and Telecommunications, Changchun",,43.842368,125.285005,129,79,4,22,2,8,20,19,1010,94,4,20140718200000
748,"Laodong Park, Changchun",,43.877293,125.371519,124,58,10,18,1,9,20,19,1010,94,4,20140718200000
749,"Forest area, Changchun",,43.871825,125.331519,159,89,13,14,4,9,20,19,1010,94,4,20140718200000
750,"Jinyuetan, Changchun",,43.79031,125.460561,97,34,15,2,2,6,20,19,1010,94,4,20140718200000
751,"Shuaiwanzi, Changchun",,43.552321,125.639086,74,50,25,6,1,5,20,19,1010,94,4,20140718200000
824,"Shili, Jiujiang",,29.678969,115.992271,137,69,19,10,5,6,22,22,1009,94,0,20140718200000
752,"Economic Development Zone Sanitation Department, Changchun",,43.869221,125.42365,157,62,15,14,2,6,20,19,1010,94,4,20140718200000
753,"High-tech Zone Administrative Committee, Changchun",,43.819064,125.256375,104,66,21,8,2,6,20,19,1010,94,4,20140718200000
754,"Daishan Park, Changchun",,43.852365,125.223399,119,93,8,35,2,7,20,19,1010,94,4,20140718200000
755,Changchun,,43.819415,125.329977,129,79,10,22,2,9,20,19,1010,94,4,20140718200000
756,"Hadawan, Jilin",,43.888081,126.545727,85,23,8,16,2,8,19,18,0,95,4,20140718200000
757,"Fengman, Jilin",,43.768169,126.678802,42,16,23,2,2,3,19,18,0,95,4,20140718200000
758,"Electric Power College, Jilin",,43.827403,126.502281,76,33,15,12,3,10,19,18,0,95,4,20140718200000
759,"Jiangnan Park, Jilin",,43.83531,126.556519,63,27,15,9,3,5,19,18,0,95,4,20140718200000
760,"Dongjuzi, Jilin",,43.838597,126.590068,42,20,21,4,1,6,19,18,0,95,4,20140718200000
763,Jilin,,43.840137,126.555262,85,35,30,16,3,10,19,18,0,95,4,20140718200000
764,"Lingbei, Haerbin",,45.756979,126.548008,70,46,36,13,6,10,20,20,1009,100,4,20140718200000
765,"Songbei Commercial University, Haerbin",,45.818624,126.566963,102,33,26,9,4,6,20,20,1009,100,4,20140718200000
766,"Acheng huining, Haerbin",,45.544286,126.985183,72,29,47,5,2,6,20,20,1009,100,4,20140718200000
767,"Nangang College Street, Haerbin",,45.724121,126.604906,78,76,42,25,3,11,20,20,1009,100,4,20140718200000
768,"Taiping Hongwei Park, Haerbin",,45.775332,126.695101,161,57,41,18,3,-,20,20,1009,100,4,20140718200000
769,"Daowai Chengde Square, Haerbin",,45.768637,126.640955,87,55,43,32,3,7,20,20,1009,100,4,20140718200000
770,"Xiangfang Hongqi Street, Haerbin",,45.733936,126.691083,109,54,39,12,2,13,20,20,1009,100,4,20140718200000
771,"Dongli Heping Road, Haerbin",,45.727765,126.651974,153,71,44,34,7,11,20,20,1009,100,4,20140718200000
772,"Daoli Jianguo Road, Haerbin",,45.749715,126.59891,80,56,40,24,-,8,20,20,1009,100,4,20140718200000
773,"Pingfang Light Factory, Haerbin",,45.611951,126.620898,55,39,44,12,3,4,20,20,1009,100,4,20140718200000
774,"Hulan Normal College, Haerbin",,45.983745,126.616553,159,37,35,13,3,6,20,20,1009,100,4,20140718200000
775,"Provincial Academy of Agricultural Sciences, Haerbin",,45.686141,126.626517,87,45,38,22,1,5,20,20,1009,100,4,20140718200000
776,Haerbin,,45.805757,126.541007,102,46,39,13,6,10,20,20,1009,100,4,20140718200000
777,"Anju Compound, Qiqihaer",,47.365672,123.937016,50,23,34,7,2,6,23,20,1008,78,2,20140718200000
778,"Farming Vehicule Factory, Qiqihaer",,47.326793,123.961427,65,26,35,22,2,5,23,20,1008,78,2,20140718200000
779,"Fuqu EPA, Qiqihaer",,47.1853,123.62322,78,24,64,2,5,9,23,20,1008,78,2,20140718200000
780,"City Center Square, Qiqihaer",,47.343096,123.96192,53,23,37,8,2,4,23,20,1008,78,2,20140718200000
1217,"City Environmental Monitoring Station, Qiqihaer",,47.303639,123.957551,57,43,36,4,2,5,23,20,1008,78,2,20140718200000
781,Qiqihaer,,47.356387,123.924736,78,43,75,22,5,9,23,20,1008,78,2,20140718200000
782,"Saertu District, Daqing",,46.582368,125.152904,124,64,20,14,8,6,20,18,1008,92,0,20140718200000
783,"Datong District, Daqing",,46.036786,124.842115,76,37,47,4,12,5,20,18,1008,92,0,20140718200000
784,"Honggang District, Daqing",,46.418381,124.88973,117,57,45,7,6,6,20,18,1008,92,0,20140718200000
785,"Longfeng District, Daqing",,46.535426,125.107043,117,45,42,13,6,7,20,18,1008,92,0,20140718200000
786,"Ranghulu District, Daqing",,46.635123,124.85648,93,39,79,8,7,4,20,18,1008,92,0,20140718200000
787,Daqing,,46.591414,125.110838,124,64,94,14,12,7,20,18,1008,92,0,20140718200000
788,"Locomotive Factory, Mudanjiang",,44.610589,129.652672,114,45,48,9,3,4,20,18,1009,83,2,20140718200000
789,"No. 1 hospital, Mudanjiang",,44.567775,129.617043,161,52,35,14,3,3,20,18,1009,83,2,20140718200000
1220,"EPA building, Mudanjiang",,44.567777,129.620658,82,53,23,5,1,3,20,18,1009,83,2,20140718200000
1221,"Cultural Square, Mudanjiang",,44.586388,129.623164,99,49,19,7,4,5,20,18,1009,83,2,20140718200000
790,Mudanjiang,,44.553619,129.640246,161,53,59,14,11,5,20,18,1009,83,2,20140718200000
791,"Mingzhu Plaza, Hefei",,31.782847,117.201512,198,34,132,11,5,17,27,27,1009,100,4,20140718200000
792,"Sanli Street, Hefei",,31.874637,117.312573,184,95,41,30,2,15,27,27,1009,100,4,20140718200000
793,"Hupo Compound, Hefei",,31.868583,117.264491,234,119,83,15,3,14,27,27,1009,100,4,20140718200000
794,"Dongpu Reservoir, Hefei",,31.90319,117.165584,225,101,67,15,1,16,27,27,1009,100,4,20140718200000
795,"Changjiang middle road, Hefei",,31.855185,117.255484,187,99,7,11,5,18,27,27,1008,100,4,20140718200000
796,"Luyang District, Hefei",,31.941771,117.271504,199,124,15,1,14,9,27,27,1009,100,4,20140718200000
797,"Yaohai District, Hefei",,31.856595,117.341644,193,55,14,2,2,12,27,27,1009,100,4,20140718200000
798,"Baohe District, Hefei",,31.793644,117.307554,227,20,10,7,1,12,27,27,1009,100,4,20140718200000
799,"Lake district, Hefei",,31.736619,117.283501,258,154,28,19,2,17,27,27,1009,100,4,20140718200000
800,"High-tech zone, Hefei",,31.849755,117.129624,207,108,31,13,9,-,27,27,1009,100,4,20140718200000
801,Hefei,,31.819449,117.232753,198,99,132,11,5,17,27,27,1009,100,4,20140718200000
802,"Hudong Road No.4 Elementary School, Maanshan",,31.684121,118.511017,152,69,26,8,7,8,27,26,1008,94,2,20140718200000
803,"Tianping Garment Factory, Maanshan",,31.64197,118.488043,155,79,28,10,1,12,27,26,1008,94,2,20140718200000
804,"City education base, Maanshan",,31.711216,118.648913,154,79,4,5,4,4,28,27,1008,94,2,20140718200000
805,"Cihu No.2 elementary school, Maanshan",,31.748546,118.515729,184,71,20,2,1,11,28,27,1008,94,2,20140718200000
806,"Maanshan steel factory power plant, Maanshan",,31.690864,118.48528,162,71,2,1,4,7,27,26,1008,94,2,20140718200000
807,Maanshan,,31.668461,118.511939,162,79,28,10,7,12,27,26,1008,94,2,20140718200000
808,"Science Innovation Center, Wuhu",,31.417056,118.375406,174,78,25,7,7,10,27,26,1008,94,2,20140718200000
809,"No.4 Water Plant, Wuhu",,31.315914,118.376231,169,79,19,14,48,6,27,26,1008,94,2,20140718200000
810,"Monitoring station, Wuhu",,31.348955,118.358154,159,68,18,2,16,5,27,26,1008,94,2,20140718200000
811,"Wuqierling Factory, Wuhu",,31.382068,118.407639,180,92,33,6,11,8,27,26,1008,94,2,20140718200000
812,Wuhu,,31.351007,118.438322,180,92,33,14,48,10,27,26,1008,94,2,20140718200000
813,"Jiangxi Foreign Affairs Office, Nanchang",,28.681036,115.897845,9,41,12,14,2,6,26,22,1008,75,2,20140718200000
814,"Provincial forestry company, Nanchang",,28.694646,115.892851,13,6,9,12,4,7,26,22,1008,75,2,20140718200000
815,"Institute of Forestry, Nanchang",,28.74099,115.818017,38,12,13,6,2,10,26,22,1008,75,2,20140718200000
816,"Jingdong town government, Nanchang",,28.693649,115.97793,9,14,15,6,2,7,26,22,1008,75,2,20140718200000
817,"Contruction Industry College, Nanchang",,28.683582,115.856915,34,11,12,14,5,9,26,22,1008,75,2,20140718200000
818,"Xianghu, Nanchang",,28.639112,115.896843,25,45,13,12,8,6,26,22,1008,75,2,20140718200000
819,"Martial Arts School, Nanchang",,28.796292,115.747122,38,9,10,2,5,4,26,22,1008,75,2,20140718200000
820,"Petrifaction Company, Nanchang",,28.609697,115.916832,25,20,13,11,6,8,26,22,1008,75,2,20140718200000
821,"Provincial Station, Nanchang",,28.681053,115.935848,34,7,17,12,5,7,26,22,1008,75,2,20140718200000
822,Nanchang,,28.679883,115.863022,34,11,12,14,5,9,26,22,1008,75,2,20140718200000
823,"Lushan Mountain Observatory, Jiujiang",,29.584073,115.998671,61,23,20,2,1,2,22,22,1009,94,0,20140718200000
825,"Maoshantou, Jiujiang",,29.702089,115.963113,124,93,12,15,1,9,22,22,1009,94,0,20140718200000
826,"Xiyuan, Jiujiang",,29.726646,115.993055,127,67,10,11,6,6,22,22,1009,94,0,20140718200000
827,"Wuqierling Factory, Jiujiang",,29.650969,116.022581,97,42,26,2,5,9,22,22,1009,94,0,20140718200000
828,"Water Scientific Research Institute, Jiujiang",,29.690223,116.067992,104,81,11,10,12,6,22,22,1009,94,0,20140718200000
829,"Zonghe Industrial Park, Jiujiang",,29.601135,115.916354,112,45,7,5,2,4,22,22,1009,94,0,20140718200000
830,"Petrochemical General Plant, Jiujiang",,29.75101,116.094516,61,72,13,12,30,8,22,22,1009,94,0,20140718200000
831,Jiujiang,,29.70254,116.007025,142,93,26,15,30,9,22,22,1009,94,0,20140718200000
832,"Tobacco Factory, Zhengzhou",,34.753419,113.687131,95,66,16,15,5,7,25,23,1008,89,4,20140718200000
833,"Textile Machinery Factory, Zhengzhou",,34.773366,113.647067,95,60,16,17,11,6,25,23,1008,89,4,20140718200000
834,"Banking College, Zhengzhou",,34.800856,113.681126,91,67,21,11,2,12,25,23,1008,89,4,20140718200000
835,"Water Supply Company, Zhengzhou",,34.807188,113.571089,80,57,19,23,10,17,25,23,1008,89,4,20140718200000
836,"Economic Development Zone Management Committee, Zhengzhou",,34.717652,113.733182,149,71,17,19,4,8,25,23,1008,89,4,20140718200000
837,"No. 47 middle school, Zhengzhou",,34.772211,113.74009,134,76,20,18,5,5,25,23,1008,89,4,20140718200000
838,"City Monitoring Station, Zhengzhou",,34.748404,113.60514,152,55,16,22,4,8,25,23,1008,89,4,20140718200000
839,"Henan Medical University, Zhengzhou",,34.752637,113.641658,99,72,7,11,6,3,25,23,1008,89,4,20140718210000
840,"Gangli Reservoir, Zhengzhou",,34.952652,113.64248,74,41,7,13,4,7,25,23,1008,89,4,20140718210000
841,Zhengzhou,,34.745417,113.631415,152,72,16,22,6,8,25,23,1008,89,4,20140718210000
842,"Henan University No.1 Hospital, Kaifeng",,34.799302,114.352706,151,54,17,7,8,8,25,23,1008,89,4,20140718210000
843,"Maternity And Child Hospital, Kaifeng",,34.795803,114.386103,152,59,16,12,8,8,25,23,1008,89,4,20140718210000
844,"Cancer Hospital, Kaifeng",,34.775428,114.350292,91,53,17,8,26,5,25,23,1008,89,4,20140718210000
845,"Yellow River Conservancy Institute, Kaifeng",,34.826066,114.324772,93,38,20,9,5,14,25,23,1008,89,4,20140718210000
846,"Shijixing Kindergarden, Kaifeng",,34.793606,114.302744,153,59,13,10,9,5,25,23,1008,89,4,20140718210000
847,Kaifeng,,34.796346,114.313426,153,59,17,8,26,8,25,23,1008,89,4,20140718210000
852,Jiaozuo,,35.215381,113.248188,119,54,29,18,13,8,25,23,1008,89,4,20140718210000
853,"Cotton Research Institute, Anyang",,36.081435,114.486451,-,-,-,-,-,-,-,-,0,-,-,20140718210000
854,"Hongmiao Street, Anyang",,36.086733,114.326,137,96,24,8,3,7,26,24,1008,78,2,20140718210000
855,"Yinxing Compound, Anyang",,36.056519,114.36495,124,57,22,6,2,9,26,24,1008,78,2,20140718210000
856,"Tiefo Temple, Anyang",,36.110041,114.309309,154,60,18,15,1,9,26,24,1008,78,2,20140718210000
857,Anyang,,36.097767,114.398846,154,96,28,15,9,9,26,24,1008,78,2,20140718210000
858,"City Monitoring Station, Luoyang",,34.669055,112.439633,89,62,10,13,12,11,,,,,,20140718210000
859,"BDA Management Committee, Luoyang",,34.622084,112.390759,70,20,19,7,7,17,,,,,,20140718210000
860,"New municipal office, Luoyang",,34.623745,112.432973,85,43,19,16,8,10,,,,,,20140718210000
861,"City committee communist party school, Luoyang",,34.650169,112.400212,78,54,13,6,9,13,,,,,,20140718210000
862,"Henan Forestry College, Luoyang",,34.685566,112.509429,97,75,17,22,22,18,,,,,,20140718210000
863,"CITIC No.2 Elementary School, Luoyang",,34.668212,112.36907,78,55,20,23,8,11,,,,,,20140718210000
864,"Yuxi Hotel, Luoyang",,34.685949,112.472611,89,54,9,28,17,14,,,,,,20140718210000
865,Luoyang,,34.617424,112.46054,97,75,20,28,22,18,25,21,1007,73,2,20140718210000
866,"City Planning Design Institute, Pingdingshan",,33.7352,113.297916,87,51,19,9,4,6,25,23,1008,89,4,20140718210000
867,"Xinhua Hotel, Pingdingshan",,33.737754,113.328814,74,29,15,10,9,3,25,23,1008,89,4,20140718210000
868,"Engineering College, Pingdingshan",,33.772474,113.188235,70,32,19,14,27,5,25,23,1008,89,4,20140718210000
869,"High Voltage Switchgear Factory, Pingdingshan",,33.719941,113.312665,109,45,12,14,9,6,25,23,1008,89,4,20140718210000
870,Pingdingshan,,33.764754,113.199082,109,51,19,14,27,6,25,23,1008,89,4,20140718210000
871,"Economic Development Zone EPA, Changsha",,28.239029,113.087873,50,16,101,5,5,2,24,22,1006,89,4,20140718210000
872,"High-tech Zone EPA, Changsha",,28.216766,112.893403,200,14,100,10,8,4,24,22,1006,89,4,20140718210000
873,"Mapoling, Changsha",,28.197926,113.083865,61,57,118,3,5,2,24,22,1006,89,4,20140718210000
874,"Hunan Normal University, Changsha",,28.186202,112.949459,93,53,40,6,6,12,24,22,1006,89,4,20140718210000
875,"Yuqua District EPB, Changsha",,28.139661,113.008649,63,55,94,4,5,2,24,22,1006,89,4,20140718210000
876,"Wujialing, Changsha",,28.256286,112.98457,65,23,8,9,7,7,24,22,1006,89,4,20140718210000
877,"New train station, Changsha",,28.191052,113.006646,57,48,124,7,2,6,24,22,1006,89,4,20140718210000
878,"Tianxin District EPB, Changsha",,28.114406,112.989577,65,64,151,6,3,3,24,22,1006,89,4,20140718210000
879,"Hunan University of Traditional Chinese Medicine, Changsha",,28.127269,112.896395,61,63,210,4,6,3,24,22,1006,89,4,20140718210000
880,"Shaping, Changsha",,28.355246,113.00164,55,32,159,6,3,2,24,22,1006,89,4,20140718210000
881,Changsha,,28.224701,112.944264,93,23,40,9,7,12,24,22,1006,89,4,20140718210000
883,"City Monitoring Station, Xiangtan",,27.854149,112.901062,72,25,36,12,8,5,24,22,1006,89,4,20140718210000
884,"HKUST, Xiangtan",,27.908165,112.912881,74,33,73,22,20,5,24,22,1006,89,4,20140718210000
885,Xiangtan,,27.826289,112.949479,82,49,130,23,26,5,24,22,1006,89,4,20140718210000
886,"Zhuye Hospital, Zhuzhou",,27.883542,113.101131,63,53,61,11,5,8,24,22,1006,89,4,20140718210000
887,"No.4 middle school, Zhuzhou",,27.794671,113.195938,59,16,48,5,2,4,24,22,1006,89,4,20140718210000
888,"Railway station, Zhuzhou",,27.8349,113.149149,68,20,114,5,1,3,24,22,1006,89,4,20140718210000
889,"City Monitoring Station, Zhuzhou",,27.849638,113.135836,59,24,72,9,2,3,24,22,1006,89,4,20140718210000
890,"Dajing, Zhuzhou",,27.830311,113.25706,61,54,39,3,5,5,24,22,1006,89,4,20140718210000
891,Zhuzhou,,27.824409,113.139832,159,53,114,11,5,8,24,22,1006,89,4,20140718210000
896,Yueyang,,29.354548,113.134922,80,61,229,11,111,11,25,24,1008,92,4,20140718210000
897,"Dingcheng District EPB, Changde",,29.014303,111.691833,63,17,27,1,3,5,23,23,1008,97,2,20140718210000
898,"Baihe Hill, Changde",,29.072606,111.735659,102,48,13,7,1,10,23,23,1008,97,2,20140718210000
899,"Municipal Technical Supervision Bureau, Changde",,29.038038,111.6736,63,38,21,6,3,8,23,23,1008,97,2,20140718210000
900,"No.2 middle school, Changde",,28.96732,111.707138,87,42,21,5,10,5,23,23,1008,97,2,20140718210000
901,Changde,,29.028648,111.704107,87,62,105,6,10,8,23,23,1008,97,2,20140718210000
902,"Yuanjiajie, Zhangjiajie",,29.297387,110.421733,25,10,31,1,2,8,23,23,1008,97,2,20140718210000
903,"Power Administration Bureau, Zhangjiajie",,29.126345,110.47192,25,27,44,3,2,6,23,23,1008,97,2,20140718210000
906,Zhangjiajie,,29.114231,110.484134,30,27,44,4,13,16,23,23,1008,97,2,20140718210000
907,"Zhenning Garden, Nanning",,22.784688,108.304953,50,25,18,3,5,6,27,22,995,74,25,20140718210000
908,"City Monitoring Station, Nanning",,22.819736,108.32499,57,20,9,2,3,7,27,22,995,74,25,20140718210000
909,"Daziran Garden, Nanning",,22.802327,108.387089,34,43,16,6,5,8,27,22,995,74,25,20140718210000
910,"Xianhu, Nanning",,22.7879,108.443064,38,69,19,4,6,5,27,22,995,74,25,20140718210000
911,"District Agricultural Vocational College, Nanning",,22.843566,108.24292,57,14,14,2,5,7,27,22,995,74,25,20140718210000
912,"Yinghua jiayuan, Nanning",,22.732221,108.331999,34,30,25,4,4,5,27,22,995,74,25,20140718210000
913,"Shajing town street committee, Nanning",,22.780442,108.247914,55,29,18,5,6,8,27,22,995,74,25,20140718210000
914,Nanning,,22.814552,108.3702,57,43,16,6,5,8,27,22,995,74,25,20140718210000
915,"Haitan Park, Beihai",,21.401746,109.157592,0,36,22,1,6,18,25,24,981,92,25,20140718210000
