locationid,stationname,chinesename,latitude,longitude,pm25,pm10,o3,no2,so2,co,temperature,dewpoint,pressure,humidity,wind,est_time
1,Dongcheng Dongsi,,39.9304,116.423239,176,101,38,17,9,19,20,19,1014,94,3,20140911170000
2,"Temple of Heaven, Dongcheng",,39.887403,116.41324,174,107,36,23,8,18,20,19,1014,94,3,20140911170000
3,West Park officials,,39.930333,116.345162,175,100,35,23,5,18,20,19,1014,94,3,20140911170000
4,West Wanshou Nishinomiya,,39.879354,116.358183,181,111,37,21,4,17,20,19,1014,94,3,20140911170000
5,Chaoyang Olympic Sports Center,,39.983406,116.403253,177,99,30,24,2,14,20,19,1014,94,3,20140911170000
6,Chaoyang Agricultural Exhibition Hall,,39.938331,116.46715,172,101,39,18,8,18,20,19,1014,94,3,20140911170000
7,Haidian Wanliu,,39.988245,116.293062,175,87,18,27,4,14,20,19,1014,94,3,20140911170000
8,The Haidian northern New Area,,40.091313,116.180194,176,81,24,16,4,13,20,19,1014,94,3,20140911170000
9,Haidian Beijing Botanical Garden,,40.003252,116.213097,176,78,42,6,2,13,20,19,1014,94,3,20140911170000
10,Fengtai garden,,39.86423,116.285037,-,-,-,-,-,-,-,-,0,-,-,20140911170000
11,Fengtai Yungang,,39.82535,116.152237,168,70,36,20,3,10,20,19,1014,94,3,20140911170000
12,Shijingshan city,,39.915286,116.190144,175,84,40,19,3,13,20,19,1014,94,3,20140911170000
13,"Fangshan, Liangxiang",,39.743357,116.14225,156,59,41,13,5,9,20,19,1014,94,3,20140911170000
14,"Huangcunzhen, Daxing",,39.719389,116.410219,180,86,32,32,7,11,20,19,1014,94,3,20140911170000
15,BDA,,39.796197,116.51197,186,98,36,30,7,16,20,19,1014,94,3,20140911170000
16,Tongzhou New Town,,39.887113,116.6689,180,119,17,28,4,14,20,19,1014,94,3,20140911170000
17,Shunyi New Town ,,40.128111,116.660908,172,85,33,10,2,14,20,19,1014,94,3,20140911170000
18,Changping Town,,40.218245,116.236084,171,118,43,8,2,14,20,19,1014,94,3,20140911170000
19,"Mentougou, Longquan Town",,39.938397,116.112323,167,83,39,10,3,11,20,19,1014,94,3,20140911170000
20,Pinggu town,,40.144433,117.106563,194,126,35,28,12,20,20,19,1014,94,3,20140911170000
21,Huairou town,,40.329104,116.63387,166,62,51,5,2,11,21,18,1014,83,2,20140911170000
22,The town of Miyun,,40.371186,116.838053,164,101,38,18,2,12,20,19,1014,94,3,20140911170000
23,Yanqing town,,40.454217,115.978106,172,-,40,7,3,12,20,19,1014,94,3,20140911170000
24,Changping Dingling,,40.293269,116.226108,167,73,46,5,3,11,21,18,1014,83,2,20140911170000
25,Badaling Northwest,,40.36623,115.994146,170,76,21,29,2,14,20,19,1014,94,3,20140911170000
26,Miyun Reservoir,,40.500157,116.91701,153,40,68,1,3,11,20,19,1014,94,3,20140911170000
27,"Donggaocun Zhen, Pinggu",,40.10142,117.126556,207,135,36,29,9,20,20,19,1014,94,3,20140911170000
28,"Yongledianzhen, Tongzhou",,39.713192,116.78905,187,112,16,28,9,15,20,19,1014,94,3,20140911170000
29,"Yufazhen, Daxing",,39.521203,116.306026,172,65,22,11,2,10,20,19,1014,94,3,20140911170000
30,"Liulihezhen, Fangshan",,39.581169,116.006089,163,94,29,10,2,7,20,19,1014,94,3,20140911170000
31,"Qianmen E St, Dongcheng",,39.900402,116.401242,180,98,26,18,5,18,21,18,1014,83,2,20140911170000
32,Yongdingmen Inner St,,39.877401,116.400238,180,101,29,31,10,18,20,19,1014,94,3,20140911170000
33,Xizhimen N St,,39.955352,116.355187,174,117,27,28,8,11,20,19,1014,94,3,20140911170000
34,South Ring Road,,39.857377,116.37421,178,93,11,51,7,20,20,19,1014,94,3,20140911170000
35,East Fourth Ring Road,,39.940273,116.489075,170,117,18,26,8,19,20,19,1014,94,3,20140911170000
36,Beijing,,39.955906,116.474246,185,101,39,18,9,19,20,19,1014,94,2,20140911170000
37,Putuo,,31.232979,121.415378,51,28,38,9,6,3,24,19,1011,73,4,20140911170000
38,Yangpu Sipiao,,31.263795,121.540311,59,31,43,14,7,4,24,19,1011,73,4,20140911170000
39,Shanghai Normal College Primary Division,,31.199031,121.487719,69,26,37,20,5,7,24,19,1011,73,4,20140911170000
40,Dianshan Lake,,31.091338,120.982293,72,45,34,17,6,5,24,19,1011,73,4,20140911170000
41,Hongkou Liangcheng,,31.298906,121.47155,48,27,40,8,7,3,24,19,1011,73,4,20140911170000
42,Jingan,,31.224251,121.429637,56,22,38,10,6,6,24,19,1011,73,4,20140911170000
43,Shanghai Normal University,,31.163531,121.416643,55,36,37,17,6,7,24,19,1011,73,4,20140911170000
44,Chuansha,,31.188626,121.707342,58,34,34,22,7,4,24,19,1011,73,4,20140911170000
45,Zhangjiang,,31.204896,121.581215,16,43,41,17,4,4,24,19,1011,73,4,20140911170000
46,Lingshan Road,,31.226286,121.537317,35,26,59,9,4,4,25,16,1011,57,4,20140911170000
1080,City average,,31.228451,121.478227,54,31,39,15,6,4,24,19,1011,73,4,20140911170000
47,Shanghai,,31.202842,121.453493,69,26,38,20,6,7,24,19,1011,73,4,20140911170000
48,Guangzhou,,23.138517,113.263701,70,66,50,49,19,10,30,25,1007,74,2,20140911170000
49,"Huadu town, Guangzhou",,23.389121,113.220062,165,90,75,28,9,8,30,25,1008,74,2,20140911170000
50,"Luogang Zhenlong, Guangzhou",,23.308027,113.567032,164,76,37,42,8,9,30,25,1008,74,2,20140911170000
51,"LuHu, Guangzhou",,23.151743,113.281842,158,80,49,44,4,8,30,25,1008,74,2,20140911170000
52,"Tianhu, Guangzhou",,23.647433,113.629715,95,49,89,6,7,5,30,25,1008,74,2,20140911170000
53,"Zhudong, Guangzhou",,23.418406,113.078552,152,90,125,28,9,8,30,25,1008,74,2,20140911170000
54,"Modiesha station, Guangzhou",,23.103814,113.338238,70,51,88,35,20,7,30,25,1008,74,2,20140911170000
55,Zhuhai,,22.2677,113.581765,53,37,25,19,11,8,29,26,1008,84,4,20140911170000
1075,"Huicai technical school, Foshan",,23.039667,113.105492,78,46,30,23,15,7,30,25,1007,74,2,20140911170000
56,"Sanshuiyun donghai, Foshan",,23.185788,112.865368,119,53,44,22,18,8,30,25,1007,74,2,20140911170000
57,"Nanhai Bureau of Meteorology, Foshan",,23.046836,113.145764,89,49,32,35,8,13,30,25,1007,74,2,20140911170000
58,"Sanshui Monitoring Station, Foshan",,23.163551,112.890843,129,59,43,33,25,6,30,25,1007,74,2,20140911170000
1087,Foshan,,23.018995,113.126899,89,49,35,35,15,13,30,25,1007,74,2,20140911170000
59,"Ronggui street committee, Shunde",,22.762729,113.258356,63,27,28,17,9,9,30,25,1007,74,2,20140911170000
60,Shunde,,22.80246,113.298701,63,28,30,17,12,9,-,-,0,-,-,20140911170000
61,"Donghu, Jiangmen",,22.590411,113.087351,68,20,26,14,10,4,29,25,1007,79,5,20140911170000
62,"Taoyuan Atmosphere Premier Station, Jiangmen",,22.72489,112.93404,117,56,34,23,16,5,29,26,1008,84,4,20140911170000
63,Jiangmen,,22.576047,113.087351,70,39,26,14,10,11,29,25,1007,79,5,20140911170000
64,"Kengkouzi station, Zhaoqing",,23.158865,112.570287,65,41,11,12,10,6,30,25,1007,74,2,20140911170000
65,"Mugangzi station, Zhaoqing",,23.067961,112.431934,91,52,42,19,18,9,30,25,1007,74,2,20140911170000
67,Zhaoqing,,23.044571,112.470346,112,59,42,22,47,9,30,25,1007,74,2,20140911170000
68,"Jinguo Bay, Huizhou",,22.937223,114.385567,-,21,26,4,3,5,29,25,1008,79,3,20140911170000
1091,"Xiabu, Huizhou",,23.077493,114.410275,50,16,18,9,3,4,29,25,1008,79,3,20140911170000
69,"Xijiao, Huizhou",,23.338178,114.112867,74,28,22,9,2,5,29,25,1008,79,3,20140911170000
70,"Jiangbei, Huizhou",,23.111706,114.415274,38,22,20,9,4,4,30,24,1008,70,3,20140911170000
71,"Huiyang chuanhu, Huizhou",,22.814485,114.329292,42,12,10,4,4,5,29,25,1008,79,3,20140911170000
72,"Daya bay management committee, Huizhou",,22.739283,114.53631,46,23,9,8,8,2,29,25,1008,79,3,20140911170000
73,Huizhou,,23.109349,114.421164,50,17,19,9,3,4,29,25,1008,79,3,20140911170000
74,"Guancheng No.2 water plant, Dongguan",,23.057294,113.753254,70,35,36,13,8,9,29,25,1008,79,3,20140911170000
75,"Dongcheng Shijing, Dongguan",,23.010039,113.799529,63,19,28,13,5,6,29,25,1008,79,3,20140911170000
76,"Nancheng Xiping, Dongguan",,22.963051,113.743494,93,52,29,29,7,5,29,25,1008,79,3,20140911170000
77,"Nancheng Yuanling, Dongguan",,23.025058,113.751308,80,37,38,11,6,6,29,25,1008,79,3,20140911170000
78,Dongguan,,23.017813,113.756958,93,52,38,29,8,9,29,25,1008,79,3,20140911170000
79,"Zimaling, Zhongshan",,22.505112,113.407183,42,21,16,13,8,7,29,25,1007,79,5,20140911170000
80,"Yangtze River tourist area, Zhongshan",,22.48589,113.439054,42,15,17,5,3,7,29,25,1007,79,5,20140911170000
81,"Huabai Park, Zhongshan",,22.51839,113.374362,46,14,12,15,4,10,29,25,1007,79,5,20140911170000
82,Zhongshan,,22.513997,113.398277,46,21,18,15,7,10,29,25,1007,79,5,20140911170000
83,"No.8 middle school, Shaoguan",,24.767777,113.583537,104,55,44,18,15,10,27,23,1008,72,3,20140911170000
83,"No.8 middle school, Shaoguan",,24.767777,113.583537,104,55,44,18,15,10,27,23,1008,72,3,20140911170000
84,"Forest area, Shaoguan",,24.796107,113.612131,114,42,89,12,11,13,27,23,1008,72,3,20140911170000
84,"Forest area, Shaoguan",,24.796106,113.612131,114,42,89,12,11,13,27,23,1008,72,3,20140911170000
86,"Shaoguan University, Shaoguan",,24.790864,113.646599,89,40,51,6,6,13,27,23,1008,72,3,20140911170000
86,"Shaoguan University, Shaoguan",,24.790864,113.646598,89,40,51,6,6,13,27,23,1008,72,3,20140911170000
88,"Qujiang Monitoring Station, Shaoguan",,24.683042,113.60157,99,46,44,22,17,8,27,23,1008,72,3,20140911170000
88,"Qujiang Monitoring Station, Shaoguan",,24.683042,113.60157,99,46,44,22,17,8,27,23,1008,72,3,20140911170000
89,Shaoguan,,24.807342,113.602712,104,55,88,22,24,13,27,23,1008,72,3,20140911170000
90,"Chaonanzi Station, Shantou",,23.251213,116.406762,65,59,10,11,9,6,28,25,1009,84,2,20140911170000
91,Shantou,,23.350642,116.686306,65,28,20,6,6,7,28,25,1009,84,2,20140911170000
92,"City Environmental Monitoring Station, Zhanjiang",,21.220431,110.397317,57,16,26,-,3,2,27,25,1007,88,1,20140911170000
93,"EPB Dormitory, Zhanjiang",,21.197376,110.406487,42,14,4,6,3,7,27,25,1007,88,1,20140911170000
94,"Xiashan Swimming Park, Zhanjiang",,21.200431,110.415655,25,6,13,-,7,6,27,25,1007,88,1,20140911170000
95,"Zhanjiang Theatre, Zhanjiang",,21.268177,110.366445,55,20,8,7,4,7,27,25,1007,88,1,20140911170000
96,"Mazhang EPA, Zhanjiang",,21.265486,110.335993,30,25,4,12,5,5,27,25,1007,88,1,20140911170000
97,"Potou District EPB, Zhanjiang",,21.247604,110.454508,46,17,14,6,3,7,27,25,1007,88,1,20140911170000
98,Zhanjiang,,21.26832,110.363883,55,25,14,12,7,7,27,25,1007,88,1,20140911170000
99,"Maogang sub-office EPB, Maoming",,21.466435,111.033462,21,10,17,1,2,3,27,25,0,85,2,20140911170000
100,"Petrochemical No. 7 elementaty school, Maoming",,21.648905,110.937861,57,23,13,6,4,10,27,25,0,85,2,20140911170000
101,"Jiankang road, Maoming",,21.662211,110.909482,57,31,11,8,6,8,27,25,0,85,2,20140911170000
102,"Gaoling, Maoming",,21.690558,110.871146,82,42,11,12,9,10,27,25,0,85,2,20140911170000
1094,Maoming,,21.660223,110.929968,82,42,13,12,9,10,27,25,0,85,2,20140911170000
103,"Jiaying University, Meizhou",,24.325415,116.12816,63,30,26,5,6,8,28,25,1009,84,2,20140911170000
104,"Mexian new town, Meizhou",,24.269283,116.084546,70,46,26,8,6,6,28,25,1009,84,2,20140911170000
105,"Environmental Monitoring Center, Meizhou",,24.262778,116.129621,70,50,25,10,6,8,28,25,1009,84,2,20140911170000
1095,Meizhou,,24.285988,116.127065,70,50,26,10,6,8,28,25,1009,84,2,20140911170000
106,"City EPA, Shanwei",,22.772349,115.370227,38,16,15,4,4,9,28,26,1009,83,2,20140911170000
107,"City government, Shanwei",,22.787161,115.375536,42,24,14,7,5,8,28,26,1009,83,2,20140911170000
108,"Xincheng Middle School, Shanwei",,22.789851,115.367124,38,17,14,6,4,6,28,26,1009,83,2,20140911170000
1099,Shanwei,,22.783576,115.38022,42,24,15,7,5,9,28,26,1009,83,2,20140911170000
109,"No.3 elementary school, Heyuan",,23.75435,114.703514,57,16,21,4,3,8,29,23,1008,62,1,20140911170000
109,"No.3 elementary school, Heyuan",,23.755946,114.699091,57,16,21,4,3,8,29,23,1008,62,1,20140911170000
111,"City water company, Heyuan",,23.754246,114.682459,70,22,22,4,4,6,29,23,1008,62,1,20140911170000
113,"Heyuan high school, Heyuan",,23.720037,114.699563,63,18,21,3,5,5,29,23,1008,62,1,20140911170000
113,"Heyuan high school, Heyuan",,23.720666,114.693879,63,18,21,3,5,5,29,23,1008,62,1,20140911170000
115,Heyuan,,23.740888,114.705147,70,22,22,4,5,8,29,23,1008,62,1,20140911170000
116,"Yuanyang Lake, Yangjiang",,21.855869,111.983676,61,31,16,9,4,8,28,25,1008,81,2,20140911170000
1100,Yangjiang,,21.855227,111.987308,95,64,16,11,4,12,28,25,1008,81,2,20140911170000
118,"Town governement, Qingyuan",,23.708005,113.026215,163,85,41,31,13,11,30,25,1007,74,2,20140911170000
119,"Fupin district, Qingyuan",,23.624781,113.067713,162,76,28,34,11,10,30,25,1007,74,2,20140911170000
121,"Environment protection office, Qingyuan",,23.685931,113.053239,151,73,36,17,7,12,30,25,1007,74,2,20140911170000
121,"Environment protection office, Qingyuan",,23.691109,113.047948,151,73,36,17,7,12,30,25,1007,74,2,20140911170000
123,"Fengcheng Subdistrict, Qingyuan",,23.695447,113.068189,163,85,41,31,13,11,30,25,1007,74,2,20140911170000
124,Qingyuan,,23.679304,113.061513,163,85,41,34,13,12,30,25,1007,74,2,20140911170000
125,"Xiyuan Road, Chaozhou",,23.668654,116.638272,65,30,13,7,8,9,28,25,1009,84,2,20140911170000
126,"Archives Bureau, Chaozhou",,23.667881,116.649104,63,28,13,6,9,7,28,25,1009,84,2,20140911170000
127,"Municipal Corporation, Chaozhou",,23.65035,116.621859,61,23,15,6,10,10,28,25,1009,84,2,20140911170000
1101,Chaozhou,,23.654204,116.626969,65,30,15,7,10,10,28,25,1009,84,2,20140911170000
128,"Donghu Park, Jieyang",,23.532877,116.374427,78,35,10,13,14,8,28,25,1009,84,2,20140911170000
129,"Yuhu Middle School, Jieyang",,23.52682,116.414123,93,51,9,14,12,9,28,25,1009,84,2,20140911170000
130,"Experimental Primary School, Jieyang",,23.571473,116.364137,87,37,12,12,13,9,28,25,1009,84,2,20140911170000
1102,Jieyang,,23.547596,116.37754,93,51,12,14,13,9,28,25,1009,84,2,20140911170000
131,"City Environmental Monitoring Station, Yunfu",,22.936779,112.042248,93,59,22,17,6,12,30,25,1007,74,2,20140911170000
132,"The new city government headquarters, Yunfu",,22.914275,112.044475,72,24,24,5,5,13,30,25,1007,74,2,20140911170000
133,"Muyang police sub-station, Yunfu",,22.951267,112.05923,152,56,28,13,8,11,30,25,1007,74,2,20140911170000
1103,Yunfu,,22.912436,112.049811,152,59,28,17,8,13,30,25,1007,74,2,20140911170000
134,Yantian,,22.587949,114.266899,30,20,24,18,16,5,29,24,1007,74,2,20140911170000
135,Kwai Chung,,22.572837,113.867166,46,10,12,10,2,15,29,24,1007,74,2,20140911170000
137,Nanyou,,22.513802,113.928051,46,11,27,5,6,8,29,24,1007,74,2,20140911170000
138,Meisha,,22.59611,114.318345,38,26,12,1,1,9,29,24,1007,74,2,20140911170000
139,Xi xiang,,22.717524,114.252304,53,15,13,9,2,9,29,24,1007,74,2,20140911170000
140,Liyuan,,22.54732,114.101205,25,12,10,7,2,10,29,24,1007,74,2,20140911170000
1072,Kwai Chung,,22.627947,114.428875,46,11,15,5,2,11,29,24,1007,74,2,20140911170000
141,OCT,,22.539549,113.992458,38,11,12,6,1,12,29,24,1007,74,2,20140911170000
142,Honghu,,22.559647,114.121976,42,10,12,11,4,9,29,24,1007,74,2,20140911170000
143,Mission Hills,,22.694131,114.050496,34,19,5,6,2,7,29,24,1007,74,2,20140911170000
144,Shenzhen,,22.540382,114.062982,53,26,27,18,16,15,-,-,0,-,-,20140911170000
145,Chengdu,,30.622581,104.069564,107,63,28,12,3,5,25,21,1005,78,3,20140911170000
146,"Jinquan lianghe, Chengdu",,30.710359,103.974209,171,84,16,11,4,8,25,22,1006,83,3,20140911170000
147,"Shilidian, Chengdu",,30.684718,104.17845,122,62,19,22,8,9,25,22,1006,83,3,20140911170000
148,"Sanwayao, Chengdu",,30.568159,104.081524,89,45,18,22,8,9,25,22,1006,83,3,20140911170000
149,"Shahepu, Chengdu",,30.633685,104.120536,119,55,18,22,8,9,25,22,1006,83,3,20140911170000
150,"Liang Lane, Chengdu",,30.682601,104.076522,117,56,24,20,5,7,26,22,1006,78,2,20140911170000
151,"Caotang Temple, Chengdu",,30.651891,104.0284,144,63,28,12,3,5,25,22,1006,83,3,20140911170000
152,"Lingyansi, Chengdu",,31.025729,103.615022,85,39,31,13,2,2,25,22,1006,83,3,20140911170000
153,"Fuleshan, Mianyang",,31.472493,104.7806,34,15,21,6,4,9,25,23,1003,84,4,20140911170000
154,"High-tech Zone Water Company, Mianyang",,31.463309,104.674293,46,18,12,5,2,7,25,23,1003,84,4,20140911170000
155,"No.3 water company, Mianyang",,31.505002,104.731054,42,19,16,4,7,4,25,23,1003,84,4,20140911170000
156,Mianyang,,31.465174,104.681731,50,19,21,9,7,9,25,23,1003,84,4,20140911170000
157,"Dongshan Park, Deyang",,31.118648,104.424587,59,9,19,2,1,7,25,22,1006,83,3,20140911170000
158,"Xixiaoqu, Deyang",,31.131159,104.390972,109,8,17,4,8,10,25,22,1006,83,3,20140911170000
159,"City Procuratorate, Deyang",,31.114554,104.407986,34,10,22,6,10,14,25,22,1006,83,3,20140911170000
160,"Refractory Factory, Deyang",,31.108606,104.356506,55,10,12,6,14,5,25,22,1006,83,3,20140911170000
161,Deyang,,31.124715,104.400703,109,10,22,6,14,14,25,22,1006,83,3,20140911170000
162,"Nongnongping, Panzhihua",,26.566698,101.695438,42,21,18,12,4,4,24,16,0,49,1,20140911170000
163,"Hemenkou, Panzhihua",,26.589072,101.578312,53,30,13,11,11,10,24,16,0,49,1,20140911170000
164,"Bingcaogang, Panzhihua",,26.58143,101.718473,46,55,12,20,5,6,24,16,0,49,1,20140911170000
165,"Renhe, Panzhihua",,26.498166,101.746887,30,25,11,11,4,6,24,16,0,49,1,20140911170000
166,"Jinjina, Panzhihua",,26.553226,101.84862,80,86,17,3,22,11,24,16,0,49,1,20140911170000
167,Panzhihua,,26.578779,101.720211,80,86,18,20,22,11,24,16,0,49,1,20140911170000
168,"Shima Middle School, Yibin",,28.815979,104.599199,152,68,37,3,9,10,28,24,1003,72,0,20140911170000
169,"Municipal party committee, Yibin",,28.762654,104.624834,159,66,25,8,4,12,28,24,1003,72,0,20140911170000
170,"No. 4 middle school, Yibin",,28.783257,104.608407,159,71,27,8,5,8,28,24,1003,72,0,20140911170000
171,"City government, Yibin",,28.760477,104.644079,161,90,31,14,5,10,28,24,1003,72,0,20140911170000
172,"Huangjinzui, Yibin",,28.712319,104.578389,119,113,41,6,9,10,28,24,1003,72,0,20140911170000
173,"Shaping Middle School, Yibin",,28.795569,104.681393,102,40,33,3,9,8,28,24,1003,72,0,20140911170000
174,Yibin,,28.748384,104.645766,161,113,41,14,9,12,28,24,1003,72,0,20140911170000
175,"Datang Hill, Zigong",,29.359969,104.757388,112,56,34,10,6,5,26,24,1001,90,3,20140911170000
176,"Yanma Road, Zigong",,29.355752,104.724036,97,51,22,2,3,8,26,24,1001,90,3,20140911170000
177,"Tanmulin Street, Zigong",,29.353555,104.777397,119,42,28,9,9,4,26,24,1001,90,3,20140911170000
178,"Chunhua Road, Zigong",,29.33825,104.771895,127,50,17,6,9,9,26,24,1001,90,3,20140911170000
179,Zigong,,29.33617,104.781138,127,56,34,10,9,9,26,24,1001,90,3,20140911170000
180,"Jiushi Hill, Luzhou",,28.955347,105.434207,154,62,49,6,3,5,27,24,1001,82,1,20140911170000
181,"Xiaoshishang Port, Luzhou",,28.899583,105.447192,159,67,41,8,3,8,27,24,1001,82,1,20140911170000
182,"Lantianxian Bridge, Luzhou",,28.852766,105.4358,163,76,39,6,2,3,27,24,1001,82,1,20140911170000
183,"City Environment Monitoring Station, Luzhou",,28.895898,105.435802,161,63,27,14,2,6,27,24,1001,82,1,20140911170000
184,Luzhou,,28.868782,105.445938,163,76,49,14,3,8,27,24,1001,82,1,20140911170000
185,"City Committee, Nanchong",,30.799993,106.082906,95,41,40,4,10,6,26,26,1003,91,2,20140911170000
186,"Refinery Factory, Nanchong",,30.819412,106.10712,139,45,27,16,13,3,26,26,1003,91,2,20140911170000
187,"Gaoping District Monitoring Station, Nanchong",,30.783291,106.110417,74,34,18,7,12,6,26,26,1003,91,2,20140911170000
188,"Jialing District EPB, Nanchong",,30.761255,106.06818,132,51,26,11,14,6,26,26,1003,91,2,20140911170000
189,"City Environmental Monitoring Station, Nanchong",,30.836519,106.11272,114,48,26,14,10,3,26,26,1003,91,2,20140911170000
190,Nanchong,,30.835511,106.114717,139,48,40,16,13,6,26,26,1003,91,2,20140911170000
1249,"City Monitoring Station, Neijiang",,29.592673,105.036234,134,51,26,1,4,6,26,24,1001,90,3,20140911170000
1250,"Dongxing District Government , Neijiang",,29.592148,105.074966,137,48,21,7,1,1,26,24,1001,90,3,20140911170000
1251,"No 2 middle school, Neijiang",,29.579135,105.068548,122,54,37,5,4,8,26,24,1001,90,3,20140911170000
1252,Neijiang,,29.577653,105.06166,137,54,37,7,5,8,26,24,1001,90,3,20140911170000
1253,"City Monitoring Station, Suining",,30.610641,105.683583,112,59,31,6,2,4,24,23,0,93,3,20140911170000
1254,"Administrative center , Suining",,30.63206,105.819747,99,67,44,3,2,3,24,23,0,93,3,20140911170000
1255,Suining,,30.530053,105.596307,112,67,44,6,17,5,24,23,0,93,3,20140911170000
1256,"City Monitoring Station, Leshan",,29.560651,103.759211,153,68,24,21,5,10,24,22,0,87,3,20140911170000
1257,"Leshan Giant Buddha Scenic Area , Leshan",,29.543938,103.772706,157,65,34,22,3,8,24,22,0,87,3,20140911170000
1258,Leshan,,29.54935,103.767777,152,66,39,29,4,11,24,22,0,86,3,20140911170000
1259,"Heilongtan , Meishan",,30.047726,103.900649,164,88,26,5,12,7,25,22,1006,83,3,20140911170000
1260,"Bureau of Meteorology, Meishan",,30.084591,103.843715,193,58,35,18,7,10,25,22,1006,83,3,20140911170000
1261,"Xuguang Community , Meishan",,30.066277,103.8516,188,103,35,20,6,5,25,22,1006,83,3,20140911170000
1262,"City Monitoring Station, Meishan",,30.059205,103.836229,183,100,35,20,2,8,25,22,1006,83,3,20140911170000
1263,Meishan,,30.072618,103.85064,193,103,35,20,12,10,25,22,1006,83,3,20140911170000
1264,"Ziyang middle school, Ziyang",,30.147763,104.638024,46,45,28,2,10,7,26,24,1001,90,3,20140911170000
1265,Ziyang,,30.126054,104.63004,61,45,31,6,13,8,26,24,1001,90,3,20140911170000
191,Shenyang US Consulate,,41.785668,123.432865,74,45,34,26,7,4,15,8,1015,63,3,20140911170000
192,"Huishan, Shenyang",,41.835421,123.647773,63,42,34,6,3,4,15,8,1015,63,1,20140911170000
193,"Hunnan, Shenyang",,41.758263,123.540809,107,69,28,31,9,4,15,8,1015,63,3,20140911170000
194,"Zhangshi, Shenyang",,41.771679,123.289859,95,67,11,49,15,8,15,8,1015,63,3,20140911170000
195,"Artillery College, Shenyang",,41.835749,123.547799,25,25,34,8,3,3,15,8,1015,63,3,20140911170000
196,"Beiling, Shenyang",,41.849633,123.434146,117,75,18,37,6,4,15,8,1015,63,1,20140911170000
197,"Wenyi Road, Shenyang",,41.767444,123.416144,74,45,33,26,7,5,15,8,1015,63,3,20140911170000
198,"Xiaoheyan, Shenyang",,41.779828,123.484015,91,51,26,33,5,5,15,8,1015,63,3,20140911170000
199,"Taiyuan Street, Shenyang",,41.799646,123.406146,74,49,11,33,14,5,15,8,1015,63,1,20140911170000
200,"Ermao, Shenyang",,41.783011,123.366679,76,56,36,45,35,5,15,8,1015,63,3,20140911170000
201,"Liaoning University, Shenyang",,41.830704,123.361071,112,54,26,23,6,3,15,8,1015,63,3,20140911170000
202,Shenyang,,41.808126,123.437611,74,75,18,37,14,5,15,8,1015,63,1,20140911170000
1104,"wenhua street, Shenyang , Shenyang",,41.774139,123.441839,74,45,33,26,7,5,15,8,1015,63,1,20140911170000
1105,"Tanglin Road , Shenyang , Shenyang",,41.823665,123.562317,25,25,34,8,3,3,15,8,1015,63,1,20140911170000
203,"Ganjingzi, Dalian",,38.9747,121.616893,114,95,24,51,3,6,20,8,1014,46,2,20140911170000
204,"Zhoushuizi, Dalian",,38.951928,121.569981,78,46,15,26,7,12,21,7,1014,40,1,20140911170000
205,"Xinghai No 3 station, Dalian",,38.885779,121.568864,97,51,24,18,11,8,21,7,1014,40,1,20140911170000
206,"Qingniwa Bridge, Dalian",,38.91274,121.638018,99,57,19,54,4,9,21,7,1014,40,1,20140911170000
207,"Fujiazhuang, Dalian",,38.864647,121.629947,97,66,25,33,9,7,21,7,1014,40,1,20140911170000
208,"Qixianling, Dalian",,38.856978,121.523169,163,130,35,19,2,10,21,7,1014,40,1,20140911170000
209,"Lushun, Dalian",,38.808946,121.264063,78,32,28,15,3,5,21,7,1014,40,1,20140911170000
210,"Jinzhou, Dalian",,39.132192,121.753259,76,47,16,33,2,2,21,7,1014,40,1,20140911170000
211,"BDA, Dalian",,39.05213,121.782022,129,45,14,64,1,7,21,7,1014,40,1,20140911170000
212,"D&D Port, Dalian",,39.064087,121.981874,89,26,18,6,1,5,21,7,1014,40,1,20140911170000
213,Dalian,,38.91478,121.619625,99,57,19,54,4,9,-,-,0,-,-,20140911170000
214,"Bearing Factory, Dandong",,40.068929,124.345703,85,62,18,8,12,16,16,13,1014,71,3,20140911170000
215,"Financial school, Dandong",,40.158723,124.432593,74,44,15,13,7,8,16,13,1014,71,3,20140911170000
216,"Yuanbaoshan water, Dandong",,40.149431,124.391698,70,57,18,26,12,10,16,13,1014,71,3,20140911170000
217,"Experimental Primary School, Dandong",,39.887343,124.158056,102,60,11,31,7,28,16,13,1014,71,3,20140911170000
218,Dandong,,40.002046,124.360479,102,62,18,31,12,28,16,13,1014,71,3,20140911170000
1106,"minzhu bridge, Dandong , Dandong",,40.112974,124.373604,102,60,11,31,7,28,16,13,1014,71,3,20140911170000
1107,"yuanbaoshan, Dandong , Dandong",,40.146298,124.399081,70,57,23,26,12,10,16,13,1014,71,3,20140911170000
1108,"linjiang houjie, Dandong , Dandong",,40.152757,124.431745,74,44,16,13,7,8,16,13,1014,71,3,20140911170000
219,"BDA, Panjin",,41.157144,122.06645,144,60,21,25,8,23,15,12,0,78,2,20140911170000
220,"Xinglongtai, Panjin",,41.140948,122.111343,147,58,13,22,14,14,15,11,0,77,2,20140911170000
221,"Dingxiang, Panjin",,41.16139,121.928781,112,104,32,22,13,14,15,12,0,78,2,20140911170000
222,Panjin,,41.122089,122.076206,147,58,13,22,14,14,15,11,0,77,2,20140911170000
223,"No.3 water company, Yingkou",,40.682052,122.385352,91,85,37,44,9,7,20,12,1015,55,1,20140911170000
224,"Yingkou University, Yingkou",,40.683689,122.388285,191,140,31,45,13,12,20,12,1015,55,1,20140911170000
225,"Botanical garden, Yingkou",,40.711674,122.281568,82,45,29,48,8,7,20,12,1015,55,1,20140911170000
226,Yingkou,,40.668578,122.24059,89,57,32,45,12,12,20,12,1015,55,1,20140911170000
1109,"jinghu west street, Yingkou , Yingkou",,40.653831,122.221943,91,85,37,44,9,8,20,12,1015,55,1,20140911170000
1110,"Daqing Road , Yingkou , Yingkou",,40.709181,122.28243,82,45,29,48,8,7,20,12,1015,55,1,20140911170000
227,"Xishanpo, Huludao",,40.724078,120.921974,72,32,45,10,9,3,15,12,0,78,2,20140911170000
228,"Huagong hospital, Huludao",,40.755662,120.848435,107,58,32,43,6,-,15,12,0,78,2,20140911170000
229,"New district park, Huludao",,40.723415,120.853801,68,51,27,30,3,6,15,12,0,78,2,20140911170000
230,"Lianshan district governement, Huludao",,40.775488,120.872292,76,78,32,54,8,8,15,12,0,78,2,20140911170000
231,Huludao,,40.712501,120.842107,97,163,42,48,9,8,21,16,0,68,6,20140911170000
1111,"Dongcheng District , Huludao , Huludao",,40.775362,120.871706,65,163,26,48,8,8,,,0,,,20140911170000
1112,"huagong street, Huludao , Huludao",,40.758901,120.842935,97,55,32,40,5,-,,,0,,,20140911170000
232,Anshan,,41.110466,123.000147,163,102,28,17,9,22,15,8,1015,63,1,20140911170000
233,"Qianshan Park, Anshan",,41.033486,123.143897,158,70,29,9,10,21,15,8,1015,63,3,20140911170000
234,"Tiexi, Anshan",,41.121636,122.97506,184,165,10,51,10,26,15,8,1015,63,3,20140911170000
235,"Taiping Station, Anshan",,41.153322,123.052433,167,111,9,28,6,29,15,8,1015,63,3,20140911170000
236,"Central Station, Anshan",,41.106731,123.002736,173,130,30,16,10,23,15,8,1015,63,3,20140911170000
237,"Shengou Temple, Anshan",,41.137157,123.031901,163,102,21,17,6,22,15,8,1015,63,3,20140911170000
1113,"Qianshan , Anshan , Anshan",,41.014521,123.122538,158,71,28,10,9,19,15,8,1015,63,3,20140911170000
1114,"Tiexi Sandao jie, Anshan",,41.103264,122.978613,184,165,10,51,10,26,15,8,1015,63,1,20140911170000
1115,"Taiyang, Anshan",,41.094946,123.019037,173,130,30,16,10,23,15,8,1015,63,1,20140911170000
238,Fushun,,41.883028,123.962984,80,62,25,25,53,8,15,8,1015,63,3,20140911170000
239,"Shenfu new town, Fushun",,41.804638,123.631684,80,42,22,25,5,5,15,8,1015,63,3,20140911170000
240,"Reservoir, Fushun",,41.8464,123.802857,85,40,29,18,36,7,15,8,1015,63,3,20140911170000
241,"Train Station, Fushun",,41.89726,124.017604,74,73,19,18,10,5,15,8,1015,63,3,20140911170000
242,"Dongzhou, Fushun",,41.855578,124.044738,46,40,27,9,19,6,15,8,1015,63,3,20140911170000
243,"Xinhua, Fushun",,41.888598,123.932932,70,76,19,27,10,10,15,8,1015,63,3,20140911170000
244,"Wanghua, Fushun",,41.888825,123.093723,127,84,29,32,10,4,15,8,1015,63,3,20140911170000
245,Benxi,,41.296267,123.772371,147,82,19,28,13,42,15,8,1015,63,1,20140911170000
246,"Weining, Benxi",,41.349663,123.826071,109,65,12,6,3,42,15,8,1015,63,3,20140911170000
247,"Occupational disease hospital, Benxi",,41.305432,123.74645,80,44,18,19,8,9,15,8,1015,63,3,20140911170000
248,"Dongming, Benxi",,41.292369,123.765058,124,46,12,27,19,13,15,8,1015,63,3,20140911170000
249,"Caitun, Benxi",,41.301591,123.746039,119,82,17,13,3,16,15,8,1015,63,3,20140911170000
250,"Xihu, Benxi",,41.331332,123.773537,144,158,25,33,8,11,15,8,1015,63,3,20140911170000
251,"Dayu, Benxi",,41.308091,123.818442,112,50,19,17,13,9,15,8,1015,63,3,20140911170000
1116,"Xinlitun , Benxi , Benxi",,41.264104,123.811523,80,35,14,17,7,9,15,8,1015,63,3,20140911170000
252,Jinzhou,,41.097169,121.132647,109,71,30,38,32,6,21,16,1014,68,6,20140911170000
253,"Beihu Park, Jinzhou",,41.141447,121.137339,109,71,24,33,21,6,21,16,1014,68,6,20140911170000
254,"Monitoring station, Jinzhou",,41.113441,121.140911,91,66,32,46,26,6,21,16,1014,68,6,20140911170000
255,"Nanshan, Jinzhou",,41.570689,122.046753,87,52,30,27,17,6,21,16,1014,68,6,20140911170000
1118,"BDA, Jinzhou",,40.853915,121.061756,93,48,21,16,19,9,21,16,1014,68,6,20140911170000
1119,"tianan street, Jinzhou , Jinzhou",,41.124468,121.126119,95,61,26,38,32,6,21,16,1014,68,6,20140911170000
1120,"baigu street, Jinzhou, Jinzhou",,41.12214,121.21027,93,54,13,26,11,6,21,16,1014,68,6,20140911170000
1121,Chaoyang,,41.576022,120.456053,153,62,48,17,8,14,-,-,0,-,-,20140911170000
472,"Fukang road, Tianjin",,39.098136,117.157621,178,123,14,48,8,8,22,14,1014,60,2,20140911170000
1122,"Agricultural Area, Chaoyang",,43.93968,125.247371,153,56,6,6,6,10,23,14,1014,50,3,20140911170000
1123,Tieling,,42.225197,123.732174,122,103,27,26,20,6,-,-,0,-,-,20140911170000
260,"Waterpark, Tieling",,42.297031,123.880748,122,103,11,19,20,5,15,8,1015,63,3,20140911170000
1124,"Huigong Street West , Tieling , Tieling",,42.311115,123.845614,65,44,35,18,20,3,15,8,1015,63,3,20140911170000
1125,Liaoyang,,41.269312,123.24268,109,130,13,26,15,15,-,-,0,-,-,20140911170000
1126,"Riverside Road , Liaoyang , Liaoyang",,41.176884,123.419859,109,68,13,22,15,10,15,8,1015,63,3,20140911170000
1127,Fuxin,,42.02373,121.675733,165,170,22,36,61,15,-,-,0,-,-,20140911170000
266,"Agricultural Area, Fuxin",,42.071291,121.696445,153,100,14,22,36,11,13,9,0,78,2,20140911170000
267,"Industrial Area, Fuxin",,42.041052,121.715554,165,170,22,33,61,15,13,9,0,78,2,20140911170000
1128,"Yulong Metro , Fuxin , Fuxin",,42.035091,121.666531,153,100,19,22,39,15,13,9,0,78,2,20140911170000
1129,"Dongyuan , Fuxin , Fuxin",,42.029119,121.681553,-,-,33,-,-,6,-,-,0,-,-,20140911170000
268,"City Monitoring Station, Jinan",,36.662614,117.054645,166,93,11,28,21,7,18,16,1015,81,1,20140911170000
269,"Shandong Institute of Economics, Jinan",,36.63819,117.074975,137,70,22,22,16,8,18,16,1015,81,1,20140911170000
270,"Quancheng Plaza, Jinan",,36.661711,117.027043,152,76,13,14,15,10,18,16,1015,81,1,20140911170000
271,"Kegansuo, Jinan",,36.611582,116.99384,134,64,20,29,9,7,18,16,1015,81,1,20140911170000
272,"Agriculture Science Institute, Jinan",,36.663115,116.95063,127,58,6,34,7,11,18,16,1015,81,1,20140911170000
273,"Lanxiang technical school, Jinan",,36.700421,116.95342,151,72,10,13,30,9,18,16,1015,81,1,20140911170000
274,"Chemical factory, Jinan",,36.687463,116.994406,155,69,9,30,19,9,18,16,1015,81,1,20140911170000
275,"Provincial Seed Warehouse, Jinan",,36.685706,117.066348,152,78,17,17,1,8,18,16,1015,81,1,20140911170000
276,"Shandong Architecture University, Jinan",,36.681732,117.191868,155,71,12,25,17,12,18,16,1015,81,1,20140911170000
277,"Baosheng cable company, Jinan",,36.724638,117.130855,129,63,9,15,5,5,18,16,1015,81,1,20140911170000
278,"Paomaling, Jinan",,36.47869,117.219027,91,42,47,13,22,14,18,16,1015,81,1,20140911170000
279,"Changqing District Communist Party School, Jinan",,36.548797,116.770859,137,59,15,22,39,12,18,16,1015,81,1,20140911170000
280,"BDA, Jinan",,36.685835,117.130851,151,70,20,33,15,9,18,16,1015,81,1,20140911170000
281,Jinan,,36.651426,117.126625,166,93,24,29,21,10,18,16,1015,81,1,20140911170000
282,"Shinan district No. 1, Qingdao",,36.065534,120.40839,68,51,50,12,9,4,22,12,1013,53,1,20140911170000
283,"Shibei district No. 1, Qingdao",,36.069919,120.341264,42,18,20,8,7,6,22,12,1013,53,1,20140911170000
284,"Shibei district No. 2, Qingdao",,36.104146,120.36637,30,28,106,33,7,11,22,12,1013,53,1,20140911170000
285,"Huangdao District No. 1, Qingdao",,35.958935,120.191041,72,62,44,11,13,5,22,12,1013,53,1,20140911170000
286,"Huangdao District No. 2, Qingdao",,35.970487,120.160339,117,100,21,36,13,7,22,12,1013,53,1,20140911170000
287,"Laoshan District No. 1, Qingdao",,36.085881,120.451839,80,43,67,19,12,5,22,12,1013,53,1,20140911170000
288,"Laoshan District No. 2, Qingdao",,36.091075,120.490388,53,14,115,6,7,2,22,12,1013,53,1,20140911170000
289,"Licang District No. 1, Qingdao",,36.184872,120.38533,70,65,23,42,15,7,22,12,1013,53,1,20140911170000
290,"Licang District No. 2, Qingdao",,36.154369,120.432287,89,55,33,41,8,4,22,12,1013,53,1,20140911170000
291,"Chengyang District No. 1, Qingdao",,36.308502,120.40008,122,106,16,49,15,7,22,12,1013,53,1,20140911170000
292,"Chengyang District No. 2, Qingdao",,36.308429,120.465806,72,37,14,14,9,3,22,12,1013,53,1,20140911170000
293,Qingdao,,36.067358,120.387773,117,100,85,36,13,7,22,12,1013,53,1,20140911170000
294,"Zichuan Meteo. Stations, Zibo",,36.637916,117.960222,167,114,11,32,50,15,20,11,0,56,3,20140911170000
295,"Dongfeng Chemical factory, Zibo",,36.838576,118.050785,142,90,10,58,65,20,20,11,0,56,3,20140911170000
296,"Boshan shuangshan, Zibo",,36.497278,117.853581,97,49,8,35,27,11,20,11,0,56,3,20140911170000
297,"Linzi Putian Park, Zibo",,36.820171,118.315022,152,90,18,33,51,18,20,11,0,56,3,20140911170000
298,"Qilu Petrochemical, Zibo",,36.765907,118.254967,137,130,7,44,50,23,19,11,0,59,3,20140911170000
299,"Zhoucun sanjin Group, Zibo",,36.8044,117.85694,159,89,30,23,41,20,20,11,0,56,3,20140911170000
300,"Vocational College, Zibo",,36.825208,117.926305,155,80,20,29,53,21,20,11,0,56,3,20140911170000
301,"BDA, Zibo",,36.905214,118.021824,152,164,13,33,52,27,20,11,0,56,3,20140911170000
302,Zibo,,36.813618,118.060948,184,134,16,58,74,21,20,11,0,56,3,20140911170000
303,"Shizhong District Government, Zaozhuang",,34.850397,117.569545,137,79,29,10,53,7,21,10,1012,40,3,20140911170000
304,"Sewage treatment plant, Zaozhuang",,34.818951,117.595345,127,73,18,41,55,8,21,10,1012,40,3,20140911170000
305,"Xuecheng EPA, Zaozhuang",,34.790214,117.272455,102,53,41,17,60,3,21,10,1012,40,3,20140911170000
306,"Yicheng District government, Zaozhuang",,34.772806,117.57647,42,48,48,34,48,5,21,10,1012,40,3,20140911170000
307,"Taierzhuang EPA, Zaozhuang",,34.579462,117.741067,85,60,18,34,11,6,21,10,1012,40,3,20140911170000
308,"Shanting EPA, Zaozhuang",,35.070373,117.457691,42,47,45,3,8,6,21,10,1012,40,3,20140911170000
309,"City EPA, Zaozhuang",,34.809466,117.320608,91,61,34,16,48,4,21,10,1012,40,3,20140911170000
310,"High-tech zone, Zaozhuang",,34.821779,117.363495,137,82,27,27,62,5,21,10,1012,40,3,20140911170000
311,Zaozhuang,,34.809693,117.329634,137,79,48,34,53,7,21,10,1012,40,3,20140911170000
312,"City EPA, Dongying",,37.432052,118.672871,72,58,40,13,17,8,21,13,0,56,4,20140911170000
313,"Vocational College, Dongying",,37.438653,118.630567,99,64,39,15,18,7,21,13,0,56,4,20140911170000
314,"Xianhe Oil Production Plant, Dongying",,37.442419,118.510222,85,85,40,25,19,5,21,13,0,56,4,20140911170000
315,"Gengjin village, Dongying",,37.445072,118.55839,78,77,24,52,17,5,21,13,0,56,4,20140911170000
316,"City environmental company, Dongying",,37.466599,118.508012,104,65,35,22,26,5,21,13,0,56,4,20140911170000
317,"Hekou  district, Dongying",,37.883786,118.522171,89,51,41,11,12,5,21,13,0,56,4,20140911170000
318,"BDA, Dongying",,37.435162,118.701827,76,56,48,21,24,11,21,13,0,57,4,20140911170000
319,Dongying,,37.435429,118.680434,104,85,45,52,26,8,21,13,0,56,4,20140911170000
320,"Bearing Factory, Yantai",,37.544126,121.376956,87,57,20,46,13,5,,,0,,,20140911170000
321,"Xijiao Chemical Station, Yantai",,37.547148,121.323695,68,32,35,25,6,6,,,0,,,20140911170000
322,"Fushan Monitoring Stations, Yantai",,37.472245,121.260116,72,42,12,2,4,8,,,0,,,20140911170000
323,"Mouping EPA, Yantai",,37.376681,121.586509,59,40,20,10,6,4,,,0,,,20140911170000
324,"Laishan EPA, Yantai",,37.478422,121.44829,61,44,35,38,6,4,,,0,,,20140911170000
325,"Laishan Shengquan Industrial Park, Yantai",,37.4271,121.408386,74,76,14,24,9,9,,,0,,,20140911170000
326,"China Agricultural University, Yantai",,37.423568,121.511838,59,62,25,33,5,5,,,0,,,20140911170000
327,"BDA EPA, Yantai",,37.560827,121.257954,74,34,13,19,5,7,,,0,,,20140911170000
329,"Dajijia, Yantai",,37.673849,121.071465,53,42,28,42,11,5,,,0,,,20140911170000
330,Yantai,,37.464793,121.453142,87,57,35,46,13,8,21,13,0,57,0,20140911170000
331,"BDA, Weifang",,36.720022,119.054064,169,140,12,37,17,9,,,0,,,20140911170000
332,"Business School, Weifang",,36.682442,119.105909,151,126,10,41,14,4,,,0,,,20140911170000
333,"Hanting District, Weifang",,36.773484,119.199705,154,106,23,33,7,6,,,0,,,20140911170000
334,"Gongda Company, Weifang",,36.657635,119.167266,151,99,36,39,12,6,,,0,,,20140911170000
335,"City EPA, Weifang",,36.701272,119.16838,122,72,26,38,5,8,,,0,,,20140911170000
336,"City Arbitration Committee, Weifang",,36.702422,119.145927,107,72,29,35,9,8,,,0,,,20140911170000
337,"Xinhui Group, Weifang",,36.641581,119.11679,149,88,11,36,20,8,,,0,,,20140911170000
338,"Jincheng Middle School, Weifang",,36.773611,119.115539,157,87,28,20,10,7,,,0,,,20140911170000
339,Weifang,,36.707217,119.167638,169,140,30,57,20,9,21,13,0,56,4,20140911170000
340,"City Monitoring Station, Jining",,35.408443,116.623917,59,20,24,7,9,8,20,18,1013,84,1,20140911170000
1090,"Shengdi Hollidays Resort, Jining",,35.424746,116.699093,99,26,28,5,15,4,20,18,1013,84,1,20140911170000
341,"Sewage treatment plant, Jining",,35.364286,116.609177,46,28,26,6,11,8,20,18,1013,84,1,20140911170000
342,"Electrochemical Factory, Jining",,35.390473,116.552956,70,29,27,7,40,6,20,18,1013,84,1,20140911170000
343,"Rencheng BDA, Jining",,35.390484,116.662995,57,13,32,4,7,8,20,18,1013,84,1,20140911170000
344,"Agricultural School, Jining",,35.44235,116.601682,76,30,21,9,8,6,20,18,1013,84,1,20140911170000
345,"BDA Huojucheng, Jining",,35.436377,116.642953,72,19,27,4,8,9,20,18,1013,84,1,20140911170000
346,Jining,,35.414473,116.59239,99,29,28,7,40,8,20,18,1013,84,1,20140911170000
347,"Taishan monitoring station, Taian",,36.194362,117.159648,89,52,23,15,6,11,11,6,0,59,12,20140911170000
348,"Shandong Electric Power School, Taian",,36.176071,117.12413,104,51,27,23,8,11,11,6,0,59,12,20140911180000
349,"Population Education school, Taian",,36.194417,117.104131,78,55,35,14,6,9,11,6,0,59,12,20140911180000
350,"Houfeng company, Taian",,36.204863,117.19015,91,48,24,10,6,13,11,6,0,59,12,20140911180000
351,"Nongda new campus, Taian",,36.170179,117.165191,122,65,11,24,17,16,11,6,0,59,12,20140911180000
352,"Transportation technical school, Taian",,36.202126,117.047068,102,53,9,8,5,12,11,6,0,59,12,20140911180000
353,"ICT Technology, Taian",,36.116621,117.107458,109,68,10,15,4,16,11,6,0,59,12,20140911180000
354,Taian,,36.200502,117.093682,122,68,35,24,17,16,11,6,0,59,12,20140911180000
355,"City Environmental Monitoring Station, Weihai",,37.513939,122.067058,30,24,38,14,4,2,21,13,0,57,0,20140911180000
356,"Woodworking Factory, Weihai",,37.325455,122.160777,46,22,45,21,6,2,21,13,0,57,0,20140911180000
357,"Lantian Hotel, Weihai",,37.514641,122.146276,25,30,69,5,5,5,21,13,0,57,0,20140911180000
358,"Zhang village government, Weihai",,37.485561,122.049436,65,25,21,14,5,3,21,13,0,57,0,20140911180000
359,"Gao District Bank, Weihai",,37.534919,122.056294,50,24,46,11,5,1,21,13,0,57,0,20140911180000
360,"Huxia technical school, Weihai",,37.427951,122.130811,25,33,36,13,8,3,21,13,0,57,0,20140911180000
361,Weihai,,37.5141,122.125477,65,33,69,14,8,5,21,13,0,57,0,20140911180000
362,"City governement square, Rizhao",,35.4075,119.526008,59,32,38,10,7,2,22,19,1014,78,1,20140911180000
363,"Port Authority, Rizhao",,35.381297,119.55396,57,36,41,10,5,2,22,19,1014,78,1,20140911180000
364,"City Monitoring Station, Rizhao",,35.388683,119.496405,78,41,22,24,7,3,22,19,1014,78,1,20140911180000
365,"Professor Garden, Rizhao",,35.462161,119.574193,68,47,40,22,5,5,22,19,1014,78,1,20140911180000
366,"Vocational and Technical College, Rizhao",,35.441939,119.538187,57,29,43,8,4,2,22,19,1014,78,1,20140911180000
367,"Lanshan EPA branch, Rizhao",,35.293405,119.345716,46,26,34,8,9,3,22,19,1014,78,1,20140911180000
368,"Jinma Industrial Park, Rizhao",,35.373339,119.514108,72,87,29,45,12,3,22,19,1014,78,1,20140911180000
369,Rizhao,,35.416089,119.532316,72,87,43,45,12,5,22,19,1014,78,1,20140911180000
370,"Vegetable oil factory, Laiwu",,36.205028,117.700917,156,64,10,18,26,13,18,16,1015,78,1,20140911180000
371,"Nursing home, Laiwu",,36.266067,117.652769,142,73,17,12,10,16,18,16,1015,78,1,20140911180000
372,"Xinyi middle school, Laiwu",,36.245086,117.739025,74,33,19,7,9,10,18,16,1015,78,1,20140911180000
373,"Risheng International School, Laiwu",,36.208125,117.730959,144,74,4,5,14,13,18,16,1015,78,1,20140911180000
374,"Gangcheng EPA, Laiwu",,36.066836,117.871823,122,94,8,28,88,15,18,16,1015,78,1,20140911180000
375,"City EPA, Laiwu",,36.228913,117.694797,114,48,10,16,15,19,18,16,1015,78,1,20140911180000
376,Laiwu,,36.213688,117.682612,156,94,19,28,88,16,-,-,0,-,-,20140911180000
377,"Lunan Pharmaceutical Factory, Linyi",,35.061671,118.299527,57,58,21,23,6,6,18,15,0,82,2,20140911180000
378,"Yihe compound, Linyi",,35.056752,118.34739,55,57,21,12,12,10,18,15,0,82,2,20140911180000
379,"Linyi University, Linyi",,35.114777,118.293414,97,63,14,30,22,12,18,15,0,82,2,20140911180000
380,City EPA,Nanfang,35.104871,118.353518,68,67,22,12,7,8,18,15,0,82,2,20140911180000
381,"Xinguang woolen factory, Linyi",,34.981004,118.282,72,39,17,17,15,4,18,15,0,82,2,20140911180000
382,"Hongfu Baijiu Factory, Linyi",,34.998788,118.257275,59,51,22,33,10,8,18,15,0,82,2,20140911180000
384,"Hedong insurance company, Linyi",,35.089354,118.40812,93,85,17,27,10,8,18,15,0,82,2,20140911180000
385,"Jianghua vehicule center, Linyi",,35.010082,118.435749,34,33,16,12,7,6,18,15,0,82,2,20140911180000
386,Linyi,,35.10428,118.362202,97,85,22,30,22,12,18,15,0,82,2,20140911180000
387,"Heima group, Dezhou",,37.466063,116.314134,95,40,21,12,7,11,22,14,1014,48,2,20140911180000
388,"Monitoring station, Dezhou",,37.433107,116.377312,104,79,12,18,8,10,22,14,1014,48,2,20140911180000
389,"Supervision Station, Dezhou",,37.449689,116.324709,152,91,16,23,10,18,22,14,1014,48,2,20140911180000
390,"Huayu technical school, Dezhou",,37.462809,116.357559,74,33,24,17,4,11,22,14,1014,48,2,20140911180000
391,"Shuangyi group, Dezhou",,37.478848,116.316362,119,46,21,30,12,17,22,14,1014,48,2,20140911180000
392,Dezhou,,37.434959,116.363366,152,91,24,30,12,18,22,14,1014,48,2,20140911180000
393,"Dongchang District Government, Liaocheng",,36.444473,115.971733,95,22,16,9,10,13,17,16,1014,89,1,20140911180000
394,"Light Machinery Factory No. 2, Liaocheng",,36.456788,116.002383,109,48,19,9,8,3,17,16,1014,89,1,20140911180000
395,"City committee communist party school, Liaocheng",,36.479537,115.989288,85,28,15,9,9,14,17,16,1014,89,1,20140911180000
396,"Customs, Liaocheng",,36.431933,115.956974,102,39,15,11,7,15,17,16,1014,89,1,20140911180000
397,"Hongshun Garden, Liaocheng",,36.471124,115.960319,93,28,16,10,10,17,17,16,1014,89,1,20140911180000
398,"BDA, Liaocheng",,36.459407,116.043621,89,58,14,8,9,17,17,16,1014,89,1,20140911180000
399,Liaocheng,,36.456792,115.991051,109,48,19,11,10,17,17,16,1014,89,1,20140911180000
400,"City EPA, Binzhou",,37.38024,118.026895,109,67,19,37,23,10,22,14,1014,52,1,20140911180000
401,"Beizhong new school, Binzhou",,37.38374,117.988996,159,83,16,31,19,14,22,14,1014,52,1,20140911180000
402,"No.2 water factory, Binzhou",,37.36155,118.002648,117,96,15,27,11,9,22,14,1014,52,1,20140911180000
403,"Keling Chemical factory, Binzhou",,37.396138,117.943609,112,62,16,16,35,17,22,14,1014,52,1,20140911180000
404,"Yinhe logistics company, Binzhou",,37.356122,117.943326,152,94,13,42,11,13,22,14,1014,52,1,20140911180000
405,"Bilin compond, Binzhou",,37.36815,117.978964,119,87,11,25,13,10,22,14,1014,52,1,20140911180000
406,Binzhou,,37.382639,117.976606,159,96,19,42,35,17,22,14,1014,52,1,20140911180000
407,"Bureau of Meteorology, Heze",,35.248625,115.428775,134,55,19,10,9,11,16,15,0,94,3,20140911180000
408,"Sewage treatment plant, Heze",,35.222517,115.531511,152,57,15,6,8,10,16,15,0,94,3,20140911180000
409,"Municipal CPPCC, Heze",,35.237125,115.480591,129,54,18,11,13,10,16,15,0,94,3,20140911180000
410,"Huarun Pharmaceutical Company, Heze",,35.261463,115.524873,104,50,16,11,9,15,16,15,0,94,3,20140911180000
411,"Heze University, Heze",,35.269706,115.460934,124,51,20,12,8,8,16,15,0,94,3,20140911180000
412,Heze,,35.233354,115.486503,152,62,21,12,13,15,16,15,0,94,3,20140911180000
413,"Shiji Park, Shijiazhuang",,38.03155,114.547873,87,34,10,3,2,7,16,16,1016,100,2,20140911180000
414,"Xinan College, Shijiazhuang",,38.012764,114.473163,87,36,10,1,9,6,16,16,1016,100,2,20140911180000
415,"Chemical College, Shijiazhuang",,38.055503,114.569816,109,28,6,5,4,7,16,16,1016,100,2,20140911180000
416,"Worker hospital, Shijiazhuang",,38.051784,114.461209,85,26,17,3,2,5,16,16,1016,100,2,20140911180000
417,"Northwest Water Company, Shijiazhuang",,38.140638,114.508038,93,35,14,3,1,4,16,16,1016,100,2,20140911180000
418,"High-tech zone, Shijiazhuang",,38.040482,114.610775,61,31,7,3,2,6,16,16,1016,100,2,20140911180000
419,"Fenglong Montain, Shijiazhuang",,37.910829,114.360264,68,4,23,1,3,4,16,16,1016,100,2,20140911180000
1130,"Zhengding Unicom, Shijiazhuang",,38.159458,114.59879,97,33,15,10,3,9,16,16,1016,100,2,20140911180000
1131,"Luancheng Communications, Shijiazhuang",,37.906534,114.638785,93,51,13,12,9,9,16,16,1016,100,2,20140911180000
1132,"Gaocheng Experimental School, Shijiazhuang",,38.039518,114.867812,134,53,10,6,1,5,16,16,1016,100,2,20140911180000
1133,"Wuji EPA, Shijiazhuang",,38.17862,114.997012,153,42,19,10,3,8,16,16,1016,100,2,20140911180000
1134,"Shenze Power Supply Bureau, Shijiazhuang",,38.197674,115.219126,155,69,8,8,1,1,16,16,1016,100,2,20140911180000
1135,"Zhaoxian EPA, Shijiazhuang",,37.77171,114.775957,107,39,21,7,8,4,16,16,1016,100,2,20140911180000
1136,"Gaoyi County City Hall, Shijiazhuang",,37.623535,114.612729,104,159,20,4,1,5,16,16,1016,100,2,20140911180000
1137,"Zanhuang County City Hall, Shijiazhuang",,37.672898,114.398269,104,40,32,5,1,5,16,16,1016,100,2,20140911180000
1138,"Jingxing Bureau of Meteorology, Shijiazhuang",,38.038788,114.158406,112,44,21,3,2,9,16,16,1016,100,2,20140911180000
1139,"Pingshan Ye River, Shijiazhuang",,38.266657,114.210275,129,28,22,12,5,7,16,16,1016,100,2,20140911180000
420,Shijiazhuang,,38.042926,114.520834,109,36,17,5,9,7,16,16,1016,100,2,20140911180000
421,"No. 12 middle school, Tangshan",,39.659306,118.190271,97,62,26,23,13,11,-,-,0,-,-,20140911180000
422,"Ceramics Company, Tangshan",,39.669255,118.225185,153,93,23,34,29,9,22,14,1014,60,2,20140911180000
423,"Commodities Bureau, Tangshan",,39.642301,118.191265,129,73,20,32,17,18,22,14,1014,60,2,20140911180000
424,"Leidazhanzi Station, Tangshan",,39.644375,118.150383,164,64,33,28,18,13,22,14,1014,60,2,20140911180000
425,"Supply and marketing cooperatives, Tangshan",,39.632334,118.17232,158,97,28,40,23,15,22,14,1014,60,2,20140911180000
1140,"Guye District City Hall, Tangshan",,39.741379,118.460246,172,113,25,29,13,24,22,14,1014,60,2,20140911180000
1141,"Kaiping Stations, Tangshan",,39.675246,118.275149,174,124,26,38,14,0,22,14,1014,60,2,20140911180000
1142,"Fengnan District City Hall, Tangshan",,39.5834,118.097454,155,75,38,25,41,17,22,14,1014,60,2,20140911180000
1143,"Fengrun City Hall, Tangshan",,39.840355,118.175338,170,136,16,41,21,16,22,14,1014,60,2,20140911180000
1144,"Qianxi EPA, Tangshan",,40.153339,118.317265,155,87,28,25,10,17,22,14,1014,60,2,20140911180000
1145,"Caofeidian Xinli  Primary School, Tangshan",,39.291232,118.462182,122,54,37,22,8,4,22,14,1014,60,2,20140911180000
1146,"Zunhua EPA, Tangshan",,40.206249,117.997315,165,92,20,33,25,24,22,14,1014,60,2,20140911180000
1147,"Qianan No.1 middle school, Tangshan",,40.004248,118.717055,152,70,29,14,14,6,22,14,1014,60,2,20140911180000
1266,"Luannan County , Tangshan",,39.511132,118.686928,144,70,31,31,14,6,22,14,1014,60,2,20140911180000
1267,"Yutian County , Tangshan",,39.908249,117.751417,178,116,17,52,23,11,22,14,1014,60,2,20140911180000
426,Tangshan,,39.632175,118.186472,174,124,33,38,29,18,-,-,0,-,-,20140911180000
427,"City Monitoring Station, Qinhuangdao",,39.958109,119.607773,87,57,12,55,8,3,,,0,,,20140911180000
428,"Beidaihe, Qinhuangdao",,39.829209,119.53194,72,46,20,17,30,8,,,0,,,20140911180000
429,"Shanhai Pass, Qinhuangdao",,40.019298,119.767898,13,30,8,32,3,5,,,0,,,20140911180000
430,"Contruction Plazz, Qinhuangdao",,39.943187,119.542912,78,66,14,46,7,4,,,0,,,20140911180000
431,"City government, Qinhuangdao",,39.93711,119.612769,61,52,11,43,7,4,,,0,,,20140911180000
1148,"Qinglong EPA, Qinhuangdao",,40.419223,118.958002,114,50,33,12,3,11,22,14,0,60,2,20140911180000
1149,"Changli EPA, Qinhuangdao",,39.714369,119.173237,82,52,38,39,6,2,,,0,,,20140911180000
1268,"Lulong County Bureau of Meteorology , Qinhuangdao",,39.901091,118.904857,157,74,33,21,11,5,22,14,0,60,2,20140911180000
432,Qinhuangdao,,39.936485,119.606263,87,57,12,55,8,4,-,-,0,-,-,20140911180000
433,"CongTai Park, Handan",,36.620197,114.501891,95,46,14,8,3,6,16,14,0,89,1,20140911180000
434,"City EPA, Handan",,36.618145,114.518822,132,43,16,11,6,8,16,14,0,89,1,20140911180000
435,"East Sewage Factory, Handan",,36.616064,114.548714,107,46,16,12,4,5,16,14,0,89,1,20140911180000
436,"Mine Hospital, Handan",,36.578149,114.509854,87,23,19,7,1,1,16,14,0,89,1,20140911180000
1150,"Fengfeng mine Inland Revenue Department, Handan",,36.423085,114.245994,157,28,21,9,2,10,15,14,0,91,0,20140911180000
1151,"Shexian EPA, Handan",,36.589084,113.692341,91,33,29,17,11,7,,,0,,,20140911180000
1152,"Ci County Vocational Education Center, Handan",,36.380247,114.390119,76,22,29,2,3,5,,,0,,,20140911180000
1153,"Yongnian government guesthouse, Handan",,36.783297,114.502905,112,45,18,11,11,2,16,14,0,89,1,20140911180000
1154,"Wuan BDA, Handan",,36.686223,114.269009,109,35,16,5,5,8,,,0,,,20140911180000
1085,Handan,,36.625683,114.544812,132,43,16,11,6,8,16,14,0,89,1,20140911180000
437,"Road and Bridge Corporation, Xingtai",,37.096415,114.538799,93,50,14,19,3,7,16,14,1016,89,1,20140911180000
438,"Dahuo fontain, Xingtai",,37.097563,114.488001,61,27,15,7,3,8,16,14,1016,89,1,20140911180000
439,"Xingtai Normal College, Xingtai",,37.053404,114.531819,25,42,16,11,2,7,16,14,1016,89,1,20140911180000
440,"Environment protection office, Xingtai",,37.06253,114.490985,55,32,23,6,5,9,16,14,1016,89,1,20140911180000
1155,"Cultural centers within the mound, Xingtai",,37.293569,114.524873,50,14,29,1,1,0,16,14,1016,89,1,20140911180000
383,Xingtai,,37.071066,114.510749,93,50,15,19,3,8,16,14,1016,89,1,20140911180000
441,"City Monitoring Station, Baoding",,38.871737,115.527103,188,99,37,6,13,17,19,18,1014,85,2,20140911180000
442,"Surface water Company, Baoding",,38.842891,115.467326,187,89,25,27,8,8,19,18,1014,85,2,20140911180000
443,"Huadian II, Baoding",,38.896748,115.528102,183,84,42,6,15,3,19,18,1014,85,2,20140911180000
444,"Reception Center, Baoding",,38.911905,115.477301,203,81,23,12,4,10,19,18,1014,85,2,20140911180000
445,"Film Factory, Baoding",,38.876949,115.448383,191,114,29,12,6,18,19,18,1014,85,2,20140911180000
446,"Natatorium, Baoding",,38.863815,115.499212,185,104,32,9,10,13,19,18,1014,85,2,20140911180000
1156,"Qingyuan City Hall, Baoding",,38.771758,115.502189,198,101,22,2,5,5,19,18,1014,85,2,20140911180000
1157,"Xushui EPA, Baoding",,39.025781,115.668023,190,100,30,18,64,6,19,18,1014,85,2,20140911180000
1158,"Zhouzhou Monitoring Stations, Baoding",,39.493241,116.040187,165,78,47,7,8,0,19,18,1014,85,2,20140911180000
1159,"Gaobeidian EPA, Baoding",,39.3329,115.885891,163,72,36,9,23,2,19,18,1014,85,2,20140911180000
447,Baoding,,38.874791,115.471124,203,114,39,27,14,18,19,18,1014,85,2,20140911180000
448,"Century Compound, Zhangjiakou",,40.770279,114.909106,137,29,20,5,43,7,16,15,1014,94,1,20140911180000
449,"North Pumping Station, Zhangjiakou",,40.874362,114.910119,167,58,19,7,2,8,16,15,1014,94,1,20140911180000
450,"Hardware Warehouse, Zhangjiakou",,40.81232,114.887119,72,60,54,22,1,18,16,15,1014,94,1,20140911180000
451,"Tanji Chang, Zhangjiakou",,40.796301,114.89811,95,40,39,6,5,8,16,15,1014,94,1,20140911180000
1160,"Xiahuayuan EPA, Zhangjiakou",,40.509345,115.302442,196,122,43,9,5,15,16,15,1014,94,1,20140911180000
1161,"Huaian EPA, Zhangjiakou",,40.68157,114.398646,9,81,37,14,20,4,16,15,1014,94,1,20140911180000
1162,"Huailai Fuqian Primary School, Zhangjiakou",,40.422204,115.530285,190,122,10,1,1,7,16,15,1014,94,1,20140911180000
1269,"Zhangbei EPA , Zhangjiakou",,41.166775,114.732369,144,52,30,3,4,7,16,15,1014,94,1,20140911180000
1270,"Kangbao County Environmental Protection Agency , Zhangjiakou",,41.837866,114.591246,124,62,49,3,3,4,16,15,1014,94,1,20140911180000
1271,"Guyuan County welfare , Zhangjiakou",,41.669984,115.687401,151,6,36,4,4,5,16,15,1014,94,1,20140911180000
1272,"Shangyi County Environmental Protection Bureau , Zhangjiakou",,41.086638,113.984688,132,54,48,7,8,3,16,15,1014,94,1,20140911180000
1273,"Yuxian Secondary School , Zhangjiakou",,39.84699,114.601986,134,50,44,6,2,7,16,15,1014,94,1,20140911180000
1274,"Yang County Vocational Education Center , Zhangjiakou",,40.106343,114.134732,97,54,44,-,7,7,16,15,1014,94,1,20140911180000
1275,"Wan county Environmental Protection Agency , Zhangjiakou",,40.770459,114.75033,217,115,62,24,62,11,16,15,1014,94,1,20140911180000
473,"Nankou road, Tianjin",,39.174022,117.199688,169,108,9,24,9,8,22,16,1014,69,2,20140911180000
1276,"Zhuolu County Environmental Protection Agency , Zhangjiakou",,40.374273,115.221393,193,95,41,2,10,20,16,15,1014,94,1,20140911180000
452,Zhangjiakou,,40.825744,114.893659,167,60,54,22,43,18,16,15,1014,94,1,20140911180000
453,"Railway, Chengde",,40.917557,117.972331,117,102,25,30,15,9,19,13,1014,62,0,20140911180000
454,"Cultural Center, Chengde",,40.974625,117.824437,114,76,32,20,10,11,19,13,1014,62,0,20140911180000
455,"Bank of China, Chengde",,40.985582,117.958304,167,76,27,17,33,10,19,13,1014,62,0,20140911180000
456,"BDA, Chengde",,40.937567,117.969325,164,88,41,12,18,12,19,13,1014,62,0,20140911180000
457,"Ligong, Chengde",,41.012579,117.94428,89,45,28,15,3,9,19,13,1014,62,0,20140911180000
1163,"Chengde County EPA, Chengde",,40.776643,118.17646,160,107,21,14,10,21,19,13,1014,62,0,20140911180000
1164,"Xinglong County City Hall, Chengde",,40.424301,117.513488,171,76,23,15,9,26,19,13,1014,62,0,20140911180000
1165,"Luanping EPA, Chengde",,40.950792,117.350715,154,58,32,23,5,9,19,13,1014,62,0,20140911180000
1166,"Fengning County City Hall, Chengde",,41.216739,116.658037,155,67,61,3,8,8,19,13,1014,62,0,20140911180000
1277,"Longhua EPA , Chengde",,41.311956,117.739605,147,65,40,10,10,11,19,13,1014,62,0,20140911180000
458,Chengde,,40.955652,117.968737,167,102,41,30,33,12,19,13,1014,62,0,20140911180000
459,"Municipal EPB, Cangzhou",,38.323507,116.876746,119,74,27,17,2,5,22,14,1014,60,2,20140911180000
460,"Cangxian Urban Construction Bureau, Cangzhou",,38.299495,116.890734,124,77,21,10,8,6,22,14,1014,60,2,20140911180000
461,"TV Broadcast Station, Cangzhou",,38.325525,116.863761,151,71,18,13,9,6,22,14,1014,60,2,20140911180000
1167,"Qing County City Hall, Cangzhou",,38.589643,116.815876,212,118,1,30,18,6,22,14,1014,60,2,20140911180000
1168,"Poyoushi City Hall, Cangzhou",,38.089516,116.590575,152,80,1,16,16,2,22,14,1014,60,2,20140911180000
1169,"Huanghua Finance Bureau Training Center, Cangzhou",,38.377793,117.343356,158,92,11,18,22,1,22,14,1014,60,2,20140911180000
462,Cangzhou,,38.305035,116.844625,151,77,27,17,9,6,22,14,1014,60,1,20140911180000
463,"Environmental Monitoring Supervision Center, Langfang",,39.558157,116.720995,174,91,19,8,6,10,22,14,1014,60,2,20140911180000
464,"TCM Medical Material Company, Langfang",,39.519096,116.689914,168,80,22,7,6,12,22,16,1014,69,2,20140911180000
465,"BDA, Langfang",,39.576175,116.779041,174,98,21,11,14,11,22,16,1014,69,2,20140911180000
466,"North China Institute of Aerospace, Langfang",,39.53517,116.743027,172,76,21,14,10,13,22,14,1014,60,2,20140911180000
1170,"Guan Party School, Langfang",,39.446185,116.311026,189,89,26,25,5,6,22,14,1014,60,2,20140911180000
1171,"Xianghe EPA, Langfang",,39.76725,117.015252,211,133,26,27,13,9,22,14,1014,60,2,20140911180000
1172,"Wenan County EPA, Langfang",,38.880927,116.47001,195,115,20,18,8,9,22,14,1014,60,2,20140911180000
1173,"Three Rivers Department of Transportation, Langfang",,39.989419,117.091528,206,117,21,23,11,23,22,14,1014,60,2,20140911180000
1278,"Yongqing EPA , Langfang",,39.329071,116.510917,184,87,24,5,11,6,22,14,1014,60,2,20140911180000
1279,"Dacheng EPA, Langfang",,38.712628,116.665751,237,147,23,28,17,8,22,14,1014,60,2,20140911180000
467,Langfang,,39.539148,116.689668,174,91,22,14,14,13,22,14,1014,60,1,20140911180000
468,"Hengshui City EPB, Hengshui",,37.739679,115.695929,139,42,26,5,6,5,15,14,0,91,2,20140911180000
469,"Environmental Monitoring Station, Hengshui",,37.738593,115.648837,165,91,24,13,6,5,15,14,0,91,2,20140911180000
470,"Electrical Machine North Factory, Hengshui",,37.758686,115.70094,114,44,25,13,6,7,15,14,0,91,2,20140911180000
1174,"Anping EPA, Hengshui",,38.238559,115.537988,158,57,16,17,1,9,15,14,0,91,2,20140911180000
1175,"Jizhou EPA, Hengshui",,37.548552,115.58679,157,75,19,12,7,22,15,14,0,91,2,20140911180000
1280,"Zaoqiang EPA, Hengshui",,37.520698,115.714936,153,68,42,21,5,5,15,14,0,91,2,20140911180000
1281,"Wuyi EPA, Hengshui",,37.801554,115.898697,162,76,20,17,16,5,15,14,0,91,2,20140911180000
1282,"Wuqiang EPA , Hengshui",,38.03557,115.959767,13,69,23,12,11,9,15,14,0,91,2,20140911180000
1283,"Raoyang EPA , Hengshui",,38.230652,115.741041,153,60,26,9,6,7,15,14,0,91,2,20140911180000
1284,"Gucheng County , Hengshui",,37.347569,115.966707,152,57,24,15,5,6,15,14,0,91,2,20140911180000
471,Hengshui,,37.739562,115.676066,165,91,26,13,6,7,15,14,0,91,2,20140911180000
1176,"Xinji City Hall, Xinji",,37.949711,115.230084,132,44,16,8,5,5,15,14,0,91,2,20140911180000
474,"Qinjian street, Tianjin",,39.166588,117.15104,180,90,11,24,19,9,22,16,1014,69,2,20140911180000
475,"Nanjing Road, Tianjin",,39.120958,117.195112,190,106,9,27,13,8,22,16,1014,69,2,20140911180000
476,"Dazhigu No.8 road, Tianjin",,39.111811,117.25147,174,115,9,31,10,9,22,16,1014,69,2,20140911180000
477,"Qianjin street, Tianjin",,39.09371,117.207981,173,112,8,24,9,6,22,16,1014,69,2,20140911180000
478,"Huaihe street, Tianjin",,39.227167,117.191293,176,107,9,25,4,9,22,16,1014,69,2,20140911180000
479,"Xiangshan street, Tianjin",,39.134752,117.275125,178,108,10,11,9,8,22,16,1014,69,2,20140911180000
480,"Yuejin Road, Tianjin",,39.088177,117.320884,164,145,10,32,9,11,22,16,1014,69,2,20140911180000
482,"No.4 street, Tianjin",,39.035228,117.713424,151,100,16,27,11,7,22,16,1014,69,2,20140911180000
483,"Yongming road, Tianjin",,38.840392,117.463805,174,113,11,22,12,16,22,16,1014,69,2,20140911180000
484,"Xinhua street, Tianjin",,39.138671,117.010083,166,108,8,24,9,8,22,16,1014,69,2,20140911180000
485,"Jingu Road, Tianjin",,38.985659,117.381254,167,167,8,11,18,14,22,16,1014,69,2,20140911180000
486,"Tanggu Yingkou street, Tianjin",,39.021768,117.656454,129,87,14,38,21,9,22,16,1014,69,2,20140911180000
487,"Hexi Yijing road, Tianjin",,39.248392,117.798043,151,85,13,44,18,10,22,16,1014,69,2,20140911180000
488,"Jianshe Road, Tianjin",,39.720075,117.310588,-,123,16,26,8,16,22,16,1014,69,2,20140911180000
489,"Quanzhou South road, Tianjin",,39.373857,117.050329,172,78,11,9,8,7,22,16,1014,69,2,20140911180000
490,"Donghuan road, Tianjin",,40.043144,117.451062,160,74,18,24,6,13,22,16,1014,69,2,20140911180000
491,"Tuanpowa, Tianjin",,38.920418,117.16299,207,145,14,22,9,15,22,16,1014,69,2,20140911180000
493,"Beiwei No.2 road, Tianjin",,38.943857,116.920624,202,153,13,35,20,12,22,16,1014,69,2,20140911180000
494,"Haitai fazhan No.2 road, Tianjin",,39.079608,117.096583,181,125,9,19,6,7,22,16,1014,69,2,20140911180000
495,"Hangtian road, Tianjin",,39.152244,117.381309,155,101,5,31,9,8,22,16,1014,69,2,20140911180000
496,"Hanbei road, Tianjin",,39.159768,117.770477,144,81,31,36,17,11,22,16,1014,69,2,20140911180000
497,"Baobai highway, Tianjin",,39.51757,117.349635,192,239,16,22,8,13,22,16,1014,69,2,20140911180000
498,Tianjin,,39.085164,117.207281,190,112,9,27,13,8,22,16,1014,69,2,20140911180000
499,"Wolong bridge, Hangzhou",,30.24371,120.132762,122,56,14,15,5,8,23,19,1010,78,1,20140911180000
500,"Hemu primary school, Hangzhou",,30.309669,120.124507,161,64,25,33,23,9,23,19,1010,78,1,20140911180000
501,"Zhejiang Agricultural University, Hangzhou",,30.265601,120.197583,168,81,21,35,42,7,23,19,1010,78,1,20140911180000
502,"Xiasha, Hangzhou",,30.303516,120.352618,163,64,24,11,11,7,23,19,1010,78,1,20140911180000
503,"Yunqi, Hangzhou",,30.178555,120.093142,102,49,17,8,6,11,23,19,1010,78,1,20140911180000
504,"Xixi, Hangzhou",,30.272425,120.068144,119,55,29,26,7,9,23,19,1010,78,1,20140911180000
505,"Chengxiang town, Hangzhou",,30.179493,120.274184,153,82,13,37,48,8,23,19,1010,78,1,20140911180000
506,"Qiandao lake, Hangzhou",,29.638139,119.031092,151,58,29,4,6,6,23,19,1010,78,1,20140911180000
507,"Linping town, Hangzhou",,30.415948,120.305059,155,60,28,17,7,6,23,19,1010,78,1,20140911180000
509,"No.2 Middle School, Hangzhou",,30.044303,119.956356,151,61,12,14,18,8,24,18,1011,69,3,20140911180000
510,"City Hall, Hangzhou",,30.234185,119.723503,85,56,41,11,5,8,24,18,1011,69,3,20140911180000
511,"No. 4 middle school, Hangzhou",,30.229428,119.699591,85,56,27,12,6,7,24,18,1011,69,3,20140911180000
512,Hangzhou,,30.271756,120.159765,168,81,29,38,42,11,23,19,1010,78,1,20140911180000
513,"City Station, Wenzhou",,28.009715,120.679129,95,38,34,12,6,8,23,22,0,92,1,20140911180000
514,"Ouhai, Wenzhou",,28.001846,120.641982,78,37,30,12,4,4,23,22,0,92,1,20140911180000
515,"Longwan, Wenzhou",,27.968122,120.768393,74,36,39,6,4,5,23,22,0,92,1,20140911180000
516,"Nanpu, Wenzhou",,27.981763,120.683685,74,41,32,8,4,22,23,22,0,92,1,20140911180000
517,Wenzhou,,27.990985,120.703425,95,41,39,12,6,22,23,22,0,92,1,20140911180000
518,"Monitoring station, Jiaxing",,30.75437,120.767373,76,43,35,13,9,4,24,19,1010,73,4,20140911180000
519,"Jiaxing University, Jiaxing",,30.745099,120.735004,80,38,37,10,8,8,24,19,1010,73,4,20140911180000
520,"Qinghe Primary School, Jiaxing",,30.775685,120.747969,72,34,34,16,8,6,24,19,1010,73,4,20140911180000
521,Jiaxing,,30.751627,120.762862,80,38,37,16,8,8,24,19,1010,73,4,20140911180000
522,"Chengbei water plant, Huzhou",,30.891155,120.096593,93,39,24,22,20,7,24,19,1010,73,4,20140911180000
523,"Jishan new village, Huzhou",,30.859939,120.120168,97,40,28,20,22,7,24,19,1010,73,4,20140911180000
524,"Town west water plant, Huzhou",,30.862371,120.084577,93,50,29,18,12,5,24,19,1010,73,4,20140911180000
525,Huzhou,,30.892304,120.091694,97,40,28,20,22,7,24,19,1010,73,4,20140911180000
526,"Donghu middle school, Shaoxing",,29.990447,120.647547,107,52,24,28,10,8,24,18,1012,69,2,20140911180000
527,"City EPA station, Shaoxing",,30.001695,120.584318,134,53,15,31,12,4,23,19,1010,78,1,20140911180000
528,"Chengdong BDA committee, Shaoxing",,29.986643,120.613578,132,51,11,30,12,5,23,19,1010,78,1,20140911180000
529,"Paojiang station, Shaoxing",,30.07574,120.62154,124,54,19,35,21,7,23,19,1010,78,1,20140911180000
530,"Shaoxing technical school, Shaoxing",,29.930983,120.577131,112,57,8,19,7,6,24,18,1011,69,3,20140911180000
531,"Library, Shaoxing",,29.706266,120.253183,122,60,9,17,9,8,24,18,1012,69,2,20140911180000
532,"Transporation management station, Shaoxing",,29.726405,120.221602,112,62,12,11,5,14,24,18,1011,69,3,20140911180000
533,"Dongpu Town Governement, Shaoxing",,30.049601,120.539893,102,46,19,22,17,8,24,18,1012,69,2,20140911180000
534,Shaoxing,,29.993122,120.590182,134,54,19,35,21,7,-,-,0,-,-,20140911180000
535,"City Monitoring Station, Jinhua",,29.100031,119.690373,137,57,56,15,10,5,23,22,0,98,1,20140911180000
536,"No.15 middle school, Jinhua",,29.074022,119.652121,119,52,20,13,14,7,22,22,0,98,1,20140911180000
537,"No.4 middle school, Jinhua",,29.110109,119.653654,117,51,22,14,10,7,22,22,0,98,1,20140911180000
538,"Beiyuan, Jinhua",,29.332898,120.083351,127,62,20,22,15,10,23,22,0,98,1,20140911180000
539,"Jiangdong, Jinhua",,29.302486,120.095291,117,58,26,25,11,10,23,22,0,98,1,20140911180000
540,Jinhua,,29.076083,119.65215,119,52,22,14,14,7,22,22,0,98,1,20140911180000
541,"EPA building, Quzhou",,28.937291,118.876081,119,57,24,13,26,6,25,24,1010,89,3,20140911180000
542,"Experimental school, Quzhou",,28.961502,118.880916,124,57,21,9,7,3,25,24,1010,89,3,20140911180000
543,"Quzhou University, Quzhou",,28.971452,118.860052,127,51,13,7,6,4,25,24,1010,89,3,20140911180000
544,Quzhou,,28.966994,118.864252,127,58,31,11,14,6,25,24,1010,89,3,20140911180000
545,"Putuo east port, Zhoushan",,29.951412,122.317679,55,22,35,5,3,4,22,22,1010,100,2,20140911180000
546,"Dinghai tanfeng, Zhoushan",,30.018014,122.126566,55,15,24,6,3,9,22,22,1010,100,2,20140911180000
547,Zhoushan,,29.983049,122.210763,55,30,35,6,3,9,22,22,1010,100,2,20140911180000
548,"Taizhou EPA building, Taizhou",,28.651216,121.42331,-,-,-,-,-,-,-,-,0,-,-,20140911180000
549,"Luqiao Tian Yang Wang, Taizhou",,28.574364,121.381194,80,40,40,10,6,6,21,20,0,94,1,20140911180000
550,"Huangyan EPA building, Taizhou",,28.656151,121.285064,72,38,20,18,2,9,21,20,0,94,1,20140911180000
551,"Yu Zhuang Qian, Lishui",,28.419638,119.883884,85,44,23,16,2,5,27,24,1010,81,0,20140911180000
552,"Monitoring station building, Lishui",,28.444379,119.923103,97,50,30,6,1,4,27,24,1010,81,0,20140911180000
553,"Liandu primary school, Lishui",,28.450912,119.939332,95,45,33,6,1,5,27,24,1010,81,0,20140911180000
554,Lishui,,28.464224,119.927201,95,45,33,16,2,5,27,24,1010,81,0,20140911180000
1248,Jingningxian,,27.977454,119.634837,57,45,5,11,2,5,29,23,1010,64,1,20140911180000
555,Taigu Primary School,,29.864178,121.60022,104,50,13,16,5,9,22,22,1010,100,2,20140911180000
556,Qianhu shuihan,,29.862459,121.5328,149,64,16,26,5,8,22,21,1012,94,1,20140911180000
557,Sanjiang secondary schools,,29.891563,121.568427,147,61,12,28,11,9,22,22,1010,100,2,20140911180000
558,Longsai Hospital,,29.957301,121.726734,87,36,13,14,11,10,22,22,1010,100,2,20140911180000
559,Beilun District EPB,,29.911633,121.850773,65,28,10,15,3,7,22,22,1010,100,2,20140911180000
560,Wanli University,,29.821314,121.574364,158,83,12,12,7,8,22,22,1010,100,2,20140911180000
561,Qianhu water plant,,29.774416,121.648136,82,34,25,6,136,6,22,22,1010,100,2,20140911180000
562,Municipal management station,,29.899182,121.626691,102,53,16,12,45,8,22,22,1010,100,2,20140911180000
1177,Daxie Literary Museum,,29.9027,121.986447,72,31,10,11,2,5,22,22,1010,100,2,20140911180000
1178,Cixi EPB,,30.165807,121.248991,104,57,26,10,8,16,22,22,1010,100,2,20140911180000
1179,Cixi Experimently Primary School,,30.179808,121.268672,122,60,26,14,8,11,22,22,1010,100,2,20140911180000
1180,"Yongsan Park, Yuyao",,30.050842,121.162477,151,66,14,21,9,9,21,21,1010,100,2,20140911180000
1182,Fenghua EPB,,29.666557,121.42069,104,49,18,5,6,12,22,22,1010,100,2,20140911180000
1183,"Yuelong station, Ninghai",,29.296505,121.445872,99,52,13,12,6,9,22,22,1010,100,2,20140911180000
1184,"Wenfeng Primary School, Xiangshan",,29.470908,121.889544,97,44,30,6,3,6,22,22,1010,100,2,20140911180000
1185,"Chengnan Primary School, Ninghai",,29.293812,121.43666,82,48,14,10,6,8,22,22,1010,100,2,20140911180000
1186,"Xingang Primary School, Xiangshan",,29.203878,121.952514,57,38,43,8,3,6,22,22,1010,100,2,20140911180000
1356,Haishu City Monitoring Center,,29.86835,121.539341,161,77,7,25,6,9,22,22,1010,100,2,20140911180000
1357,Fenghua Xikou government,,29.693164,121.29331,114,53,10,17,3,8,22,22,1010,100,2,20140911180000
1294,Ningbo,,29.865766,121.548164,158,83,25,28,136,10,22,22,1010,100,2,20140911180000
1187,Fuyang,,30.046157,119.96468,151,61,12,14,18,8,-,-,0,-,-,20140911180000
1188,Yiwu,,29.304353,120.079794,127,62,26,25,15,10,-,-,0,-,-,20140911180000
1189,Zhuji,,29.711185,120.240748,122,62,12,17,9,14,24,18,1011,69,3,20140911180000
563,"Shanxi Road , Nanjing",,32.06795,118.779216,63,40,14,24,5,7,22,20,1008,88,4,20140911180000
564,"Ruijin Road , Nanjing",,32.029321,118.80817,85,38,11,17,7,5,22,20,1008,88,4,20140911180000
565,"Xuanwu Lake, Nanjing",,32.075423,118.800188,68,43,12,12,2,5,22,20,1008,88,4,20140911180000
566,"Olympic Center, Nanjing",,32.007171,118.742217,95,51,19,9,3,4,22,20,1008,88,4,20140911180000
567,"Xianlin University Town , Nanjing",,32.106958,118.919882,53,37,22,9,2,4,22,20,1008,88,4,20140911180000
568,Nanjing,,32.058179,118.802061,95,44,22,22,10,4,22,20,1008,88,4,20140911180000
569,"Shangfang hill , Suzhou",,31.24502,120.565211,61,45,26,16,7,6,24,19,1010,73,4,20140911180000
570,"Wuzhong District , Suzhou",,31.268105,120.61717,63,21,25,9,2,7,24,19,1010,73,4,20140911180000
571,"Suzhou New District , Suzhou",,31.297277,120.547262,72,42,27,17,21,7,24,19,1010,73,4,20140911180000
572,"Suzhou Industrial Area, Suzhou",,31.307603,120.673257,80,44,25,19,9,8,24,19,1010,73,4,20140911180000
573,"Xiangcheng district, Suzhou",,31.368674,120.645209,74,50,9,28,10,7,24,19,1010,73,4,20140911180000
574,Suzhou,,31.296701,120.589493,65,41,26,17,10,7,24,19,1010,73,4,20140911180000
575,"South suburb , Nantong",,31.957836,120.917218,104,52,36,12,27,3,20,17,1003,80,3,20140911180000
576,"Xinghu park, Nantong",,31.927873,120.944254,78,35,35,7,18,4,20,17,1003,78,3,20140911180000
577,"Zilang school, Nantong",,32.039638,120.814358,91,46,35,15,13,0,20,17,1003,78,3,20140911180000
578,Nantong,,31.978005,120.898555,97,51,30,7,19,6,20,17,1003,78,3,20140911180000
579,Lianyungang,,34.595509,119.226814,152,84,21,27,10,7,8,8,1016,96,0,20140911180000
580,"Hongmen police substation, Lianyungang",,34.588692,119.146693,34,20,40,6,6,4,19,14,1013,62,3,20140911180000
581,"Xugou Nuclear Expert Village , Lianyungang",,34.749957,119.373707,34,48,22,11,7,4,19,14,1013,62,3,20140911180000
582,"Hengrui pharmaceutical company, BDA, Lianyungang",,34.697574,119.353668,34,25,36,11,6,3,19,14,1013,62,3,20140911180000
583,"City Monitoring Station, Lianyungang",,34.586791,119.186929,34,31,38,5,6,4,19,14,1013,62,3,20140911180000
584,"Yellow river new village , Xuzhou",,34.271542,117.177241,21,14,28,9,10,3,21,12,1011,50,3,20140911190000
585,"Tongshan Veterinary Hospital , Xuzhou",,34.307086,117.197766,25,12,25,17,12,2,21,10,1012,40,3,20140911190000
586,"New Town , Xuzhou",,34.213992,117.261718,21,10,31,5,4,7,21,10,1012,40,3,20140911190000
587,"Taoyuan road, Xuzhou",,34.289822,117.249721,25,28,7,7,10,6,21,12,1011,50,3,20140911190000
588,"Agricultural Science Academy , Xuzhou",,34.27655,117.299079,30,17,20,9,12,4,21,12,1011,50,3,20140911190000
589,"Tongshan EPA, Xuzhou",,34.179384,117.171798,34,19,23,5,38,1,21,12,1011,50,3,20140911190000
590,Xuzhou,,34.20346,117.289825,34,28,30,9,54,6,21,12,1011,50,3,20140911190000
591,Yangzhou,,32.39233,119.418446,159,69,10,19,10,5,11,9,0,90,6,20140911190000
592,"Hanjiang Monitoring Station, Yangzhou",,32.374218,119.394484,50,31,30,4,3,2,20,16,0,77,3,20140911190000
593,"No. 4 Hospital, Yangzhou",,32.401394,119.44444,46,29,38,3,6,0,20,16,0,77,3,20140911190000
594,"City Monitoring Station, Yangzhou",,32.406588,119.41591,59,25,30,5,2,3,20,16,0,77,3,20140911190000
595,"University Town , Wuxi",,31.484752,120.273571,72,61,16,22,13,6,24,19,1010,73,4,20140911190000
596,"Shibei High School , Wuxi",,31.619969,120.279584,70,50,20,20,19,7,24,19,1010,73,4,20140911190000
597,"Yuhong Elementary School , Wuxi",,31.561155,120.249588,76,143,22,23,11,7,24,19,1010,73,4,20140911190000
598,Wuxi,,31.488746,120.31575,63,143,24,23,13,7,-,-,0,-,-,20140911190000
599,Changzhou,,31.808037,119.979205,172,86,6,22,36,13,11,9,0,88,5,20140911190000
600,"Chengjian School, Changzhou",,31.776476,119.937681,87,54,24,18,13,6,21,17,1003,80,4,20140911190000
601,"Changzhou Engineering Institute , Changzhou",,31.806828,119.966724,65,40,23,12,13,6,21,17,1003,80,4,20140911190000
602,"Wujin Monitoring Station, Changzhou",,31.701788,119.939676,104,62,15,28,20,13,21,17,1003,79,4,20140911190000
603,"City Monitoring Station, Changzhou",,31.777201,119.979426,70,44,20,13,15,6,21,17,1003,80,4,20140911190000
604,Zhenjiang,,32.18597,119.431281,170,79,4,39,15,13,9,8,0,93,5,20140911190000
605,"New District Administrative office , Zhenjiang",,32.186174,119.685021,65,61,32,7,6,8,22,20,1008,88,4,20140911190000
696,Taiyuan,,37.871115,112.555178,68,28,21,4,3,9,-,-,0,-,-,20140911190000
606,"Vocational Education Center , Zhenjiang",,32.212973,119.496253,57,65,26,7,3,6,21,20,1009,94,4,20140911190000
607,"Dantu Monitoring Station , Zhenjiang",,32.130026,119.435432,-,-,-,-,-,-,-,-,0,-,-,20140911190000
608,"City Monitoring Station, Zhenjiang",,32.202178,119.439766,46,26,29,24,7,7,22,20,1008,88,4,20140911190000
609,"Gaogang Adminstrative office , Taizhoushi",,32.300768,119.886757,57,24,25,7,9,4,20,16,0,77,3,20140911190000
610,"Students Innovation Park , Taizhoushi",,32.461672,119.892761,155,27,33,2,10,2,20,16,0,77,3,20140911190000
611,Taizhoushi,,32.453555,119.927852,155,27,33,15,10,8,20,16,0,77,3,20140911190000
612,"Yancheng power station , Yancheng",,33.400859,120.123067,38,26,38,8,5,2,-,-,0,-,-,20140911190000
613,Yancheng,,33.345939,120.168504,144,52,30,5,3,7,11,10,1016,95,4,20140911190000
614,"Wenfeng Middle School , Yancheng",,33.370531,120.134041,46,28,34,11,4,3,-,-,0,-,-,20140911190000
615,"BDA Management Committe, Yancheng",,33.393191,120.22978,21,13,32,4,3,2,-,-,0,-,-,20140911190000
616,"City Monitoring Station, Yancheng",,33.390623,120.164423,70,26,33,8,3,3,20,16,0,77,3,20140911190000
617,Suqian,,33.960666,118.281004,160,87,24,7,5,7,11,10,0,91,6,20140911190000
618,"Suqian College , Suqian",,33.951472,118.298523,42,10,32,8,1,4,19,15,0,79,5,20140911190000
619,"Suqian Middle School , Suqian",,33.95784,118.249505,34,30,22,19,20,4,19,15,0,79,5,20140911190000
620,"Suyu District Environmental Protection Agency , Suqian",,33.94932,118.326569,21,11,28,2,2,6,20,15,0,76,4,20140911190000
621,"City Monitoring Station, Suqian",,33.956982,118.277022,50,16,22,5,2,4,20,15,0,76,4,20140911190000
622,Taizhou,,28.653436,121.425185,78,38,37,8,3,6,21,20,0,95,1,20140911190000
623,Donghu Liyuan,,30.572324,114.377844,170,79,33,9,6,12,27,26,1006,94,4,20140911190000
624,Yuehu Lake,,30.554662,114.256937,174,71,10,38,5,12,26,26,1006,100,4,20140911190000
625,Hankou Huaqiao ,,30.61724,114.287652,169,85,30,20,11,14,27,26,1006,94,4,20140911190000
626,Wuchang Ziyang ,,30.530801,114.309438,169,100,18,26,1,9,27,26,1006,94,4,20140911190000
627,Qingshan Ganghua,,30.622435,114.375599,191,90,34,20,13,13,27,26,1006,94,4,20140911190000
628,Dunkou Xinou,,30.480091,114.162176,169,71,27,12,6,12,27,26,1006,94,4,20140911190000
629,Donghu Gaoxin,,30.48095,114.40724,166,78,39,10,5,11,27,26,1006,94,4,20140911190000
630,Wujianshan,,30.63114,114.135907,194,114,13,39,0,13,27,26,1006,94,4,20140911190000
631,Yuanshun Road,,30.297142,113.858587,161,71,25,7,2,9,27,26,1006,94,4,20140911190000
632,Wuhan,,30.590689,114.310838,187,100,34,38,13,14,27,26,1006,94,4,20140911190000
1190,"Silingsan Factory, Yichang",,30.713288,111.306585,1,1,6,0,0,11,23,23,1007,99,1,20140911190000
633,Yichang,,30.689528,111.292131,1,1,14,0,0,13,23,23,1007,99,1,20140911190000
633,Yichang,,30.689528,111.292131,1,1,14,0,0,13,23,23,1007,99,1,20140911190000
1191,"City Library , Jingzhou",,30.31494,112.260844,153,72,5,14,5,16,26,25,1006,89,1,20140911190000
1192,"City committee communist party school, Jingzhou",,30.35054,112.20743,153,87,6,12,4,14,26,25,1006,89,1,20140911190000
1193,"kerong EPA, Jingzhou",,30.302965,112.29443,157,88,10,13,6,15,26,25,1006,89,1,20140911190000
634,Jingzhou,,30.332608,112.245451,157,88,10,14,6,16,26,25,1006,89,1,20140911190000
634,Jingzhou,,30.332608,112.245451,157,88,10,14,6,16,26,25,1006,89,1,20140911190000
635,Huangshi,,30.19723,115.043908,164,110,29,22,8,20,26,26,1010,93,4,20140911190000
635,Huangshi,,30.19723,115.043908,164,110,29,22,8,20,26,26,1010,93,4,20140911190000
1194,"Chenjiaying, Huangshi",,30.232823,115.067923,158,83,24,3,15,22,25,,1010,92,4,20140911190000
1195,"Chenjiawan , Huangshi",,30.200422,115.082138,157,71,32,7,8,19,25,,1010,92,4,20140911190000
1196,"Xinxialu, Huangshi",,30.17332,114.954357,154,70,36,16,13,19,25,,1010,92,4,20140911190000
1197,"Tie montian, Huangshi",,30.203885,114.906439,164,110,27,1,1,13,25,,1010,92,4,20140911190000
1198,"BDA, Huangshi",,30.207491,115.031739,158,72,25,22,5,20,25,,1010,92,4,20140911190000
636,Shiyan,,32.627208,110.803311,57,20,11,3,7,7,19,,1008,99,1,20140911190000
636,Shiyan,,32.627208,110.803311,57,20,11,3,7,7,19,,1008,99,1,20140911190000
1199,"Wudang Mountain , Shiyan",,32.392921,111.047655,13,5,19,2,2,8,19,,,99,1,20140911190000
1200,"Riverside Village , Shiyan",,32.647286,110.785335,13,20,11,1,5,7,19,,,99,1,20140911190000
1201,"Liujiagou , Shiyan",,32.636732,110.731129,57,18,8,1,6,5,19,,,99,1,20140911190000
1202,"Yunyang County District automatic air station , Shiyan",,32.833065,110.816809,99,47,20,18,3,7,-,,,-,-,20140911190000
637,Xiangyang,,32.007029,112.128496,65,17,11,3,3,10,22,,1008,98,4,20140911190000
637,Xiangyang,,32.007029,112.128496,65,17,11,3,3,10,22,,1008,98,4,20140911190000
638,Ezhou,,30.389244,114.899884,172,89,35,29,63,48,26,26,1016,95,3,20140911190000
638,Ezhou,,30.389244,114.899884,172,89,35,29,63,48,26,26,1016,95,3,20140911190000
1203,"City government, Ezhou",,30.391836,114.892822,163,69,24,8,11,17,26,,1016,87,5,20140911190000
1204,"Zhaojiaba, Ezhou",,30.368966,114.90365,164,78,35,1,9,23,26,,1016,87,5,20140911190000
1205,"Fankou BDA, Ezhou",,30.410759,114.818225,172,89,26,29,63,48,26,,1016,95,3,20140911190000
639,Jingmen,,31.033208,112.205093,168,95,13,15,15,16,-,25,0,-,-,20140911190000
639,Jingmen,,31.033208,112.205093,168,95,13,15,15,16,-,25,0,-,-,20140911190000
640,Xiaogan,,30.922089,113.922387,159,83,28,3,1,19,27,26,1006,94,4,20140911190000
640,Xiaogan,,30.922089,113.922387,159,83,28,3,1,19,27,26,1006,94,4,20140911190000
1206,"wenhua street, Shenyang , Xiaogan",,30.925856,113.92104,-,83,28,3,1,19,27,26,1006,94,4,20140911190000
1207,"Dongcheng District , Huludao , Xiaogan",,30.917963,113.943904,159,76,25,1,1,5,27,26,1006,94,4,20140911190000
641,Huanggang,,30.45124,114.877378,163,76,41,18,11,23,26,26,1016,95,3,20140911190000
641,Huanggang,,30.45124,114.877378,163,76,41,18,11,23,26,26,1016,95,3,20140911190000
1208,"Dazhou Island, Huanggang",,30.446205,114.900323,163,76,37,18,1,23,26,,1016,95,3,20140911190000
1209,"Workers Center , Huanggang",,30.469244,114.912504,155,65,41,9,11,8,26,,1016,95,3,20140911190000
642,Xianning,,29.838978,114.327898,104,51,20,4,6,18,24,26,982,97,1,20140911190000
642,Xianning,,29.838978,114.327898,104,51,20,4,6,18,24,26,982,97,1,20140911190000
1210,"Municipal Development and Reform Commission , Xianning",,29.818645,114.328461,104,49,17,3,1,18,24,,982,97,1,20140911190000
1211,"Xianan District Governement, Xianning",,29.51107,114.181864,95,52,10,6,4,18,25,,990,92,2,20140911190000
1212,"Yangtze River Industrial Park , Xianning",,29.883098,114.32909,97,51,20,3,6,14,24,,982,97,1,20140911190000
1213,"Qianshan Park, Xianning",,29.815351,114.328689,102,50,15,3,1,4,24,,982,97,1,20140911190000
643,Suizhou,,31.688342,113.388675,104,46,14,6,3,11,24,,1002,97,2,20140911190000
643,Suizhou,,31.688342,113.388675,104,46,14,6,3,11,24,,1002,97,2,20140911190000
1338,"City committee communist party school, Suizhou",,31.725316,113.3648,80,53,13,4,1,10,24,,1002,97,2,20140911190000
1339,"Forestry Bureau, Suizhou",,31.690065,113.383157,112,40,15,6,4,11,24,,1002,97,2,20140911190000
644,Enshi,,30.269587,109.493042,95,40,35,2,2,23,-,23,0,-,-,20140911190000
644,Enshi,,30.292138,109.484562,95,40,35,2,2,23,-,23,0,-,-,20140911190000
645,Xiantao,,30.360228,113.460616,163,86,27,7,4,12,-,26,0,-,-,20140911190000
645,Xiantao,,30.360228,113.460616,163,86,27,7,4,12,-,26,0,-,-,20140911190000
646,Qianjiang,,30.399387,112.905661,1,1,11,0,0,14,-,25,0,-,-,20140911190000
646,Qianjiang,,30.399387,112.905661,1,1,11,0,0,14,-,25,0,-,-,20140911190000
647,Tianmen,,30.661027,113.172549,163,86,27,7,4,12,-,25,0,-,-,20140911190000
647,Tianmen,,30.661027,113.172549,163,86,27,7,4,12,-,25,0,-,-,20140911190000
1088,Shennongjia,,31.741307,110.685554,147,61,20,18,4,5,-,23,1006,-,-,20140911190000
1088,Shennongjia,,31.741307,110.685554,147,61,20,18,4,5,-,23,1006,-,-,20140911190000
1214,"Xiangcheng Yundong Street, Xiangfan",,32.017716,112.16102,65,17,11,3,3,10,22,,1008,98,4,20140911190000
655,"City Environmental Monitoring Station, Baotou",,40.657201,109.886738,139,62,20,30,49,14,,,0,,,20140911190000
656,"Donghe EPB, Baotou",,40.586213,110.002224,114,57,22,17,8,10,,,0,,,20140911190000
657,"Baotou shopping mall, Baotou",,40.508334,109.819085,162,75,19,25,37,12,,,0,,,20140911190000
658,"Huilong logistics, Baotou",,40.633436,109.879821,97,48,30,17,9,13,,,0,,,20140911190000
659,Baotou,,40.658597,109.846051,162,75,36,30,49,14,13,12,0,91,2,20140911190000
660,"Huatai Automobile Mall, Eerduosi",,39.837048,109.972209,65,42,43,6,3,7,13,12,1011,91,2,20140911190000
661,"Olympus Garden, Eerduosi",,39.789171,109.987742,78,32,40,7,7,7,13,12,1011,91,2,20140911190000
662,Eerduosi,,39.609284,109.78704,87,51,47,7,7,9,13,12,1011,91,2,20140911190000
663,"Tianyi Road, Chifeng",,42.275552,118.88507,117,69,73,7,11,7,16,12,1015,64,2,20140911190000
664,"Songshan No.1 Middle School, Chifeng",,42.329307,118.793045,107,74,48,8,10,8,16,12,1015,64,2,20140911190000
665,"Hada Street, Chifeng",,42.280714,118.988235,112,73,33,6,11,15,16,12,1015,64,2,20140911190000
666,"Songshan Road, Chifeng",,42.171487,118.89501,114,63,103,6,50,8,16,12,1015,64,2,20140911190000
667,Chifeng,,42.259752,118.893027,117,74,73,8,11,15,16,12,1015,64,2,20140911190000
674,Fuzhou,,26.071406,119.301294,65,33,37,12,1,8,28,25,1009,84,4,20140911190000
675,"Xidong, Xiamen",,24.815345,118.161848,99,43,90,11,3,5,28,27,1009,94,3,20140911190000
676,"Hongwen, Xiamen",,24.473969,118.156281,53,27,31,7,4,2,28,27,1009,94,3,20140911190000
677,"Gulangyu, Xiamen",,24.443168,118.068571,74,29,33,5,5,6,28,27,1009,94,3,20140911190000
678,"Huli, Xiamen",,24.51235,118.099146,85,35,32,6,4,3,28,27,1009,94,3,20140911190000
679,Xiamen,,24.477187,118.094402,85,35,33,6,5,6,-,-,0,-,-,20140911190000
680,"Qingyuan Montain, Quanzhou",,24.939503,118.598337,65,20,181,6,4,4,28,27,1009,94,3,20140911190000
681,"Tushan Street, Quanzhou",,24.90867,118.586397,76,26,27,5,5,4,28,27,1009,94,3,20140911190000
682,"Wanan, Quanzhou",,24.304154,118.070903,74,32,221,9,6,4,28,27,1009,94,3,20140911190000
683,Quanzhou,,24.87179,118.68001,76,32,221,9,6,5,28,27,1009,94,3,20140911190000
687,"Jiancaoping, Taiyuan",,37.887889,112.528383,65,27,22,4,2,8,16,13,1013,82,5,20140911190000
688,"Jianhe, Taiyuan",,37.910779,112.579258,99,23,20,7,4,8,16,13,1014,82,4,20140911190000
689,"Shanglan, Taiyuan",,38.011589,112.440679,25,37,22,6,3,7,16,13,1013,82,5,20140911190000
690,"Jinyuan, Taiyuan",,37.713164,112.475552,42,21,21,6,8,7,16,13,1013,82,5,20140911190000
691,"Xiaodian, Taiyuan",,37.782137,112.483533,34,20,13,2,8,6,16,13,1013,82,5,20140911190000
692,"Taoyuan, Taiyuan",,37.869752,112.543332,55,24,18,3,3,11,16,13,1013,82,5,20140911190000
693,"Wucheng, Taiyuan",,37.819998,112.576252,99,37,26,6,2,9,16,13,1013,82,5,20140911190000
694,"Nanzhai, Taiyuan",,37.985902,112.555312,61,40,20,6,6,11,16,13,1013,82,5,20140911190000
695,"Jinsheng, Taiyuan",,37.781205,112.494494,61,31,30,7,5,8,16,13,1013,82,5,20140911190000
697,"Monitoring station, Changzhi",,36.194062,113.10389,57,26,25,1,6,6,16,16,0,100,4,20140911190000
698,"Auditing bureau, Changzhi",,36.212787,113.095221,63,17,23,6,7,9,16,16,0,100,4,20140911190000
699,"Qinghua station, Changzhi",,36.154328,113.116385,42,16,15,1,10,13,16,16,0,100,4,20140911190000
700,"No.8 middle school, Changzhi",,36.185451,113.099481,65,20,18,5,11,1,,,0,,,20140911190000
701,Changzhi,,36.195553,113.12292,65,20,23,6,11,9,13,13,0,95,0,20140911190000
702,"Yungang Hotel, Datong",,40.076997,113.278079,117,50,31,4,5,10,14,14,1013,96,2,20140911190000
703,"college of education, Datong",,40.085608,113.27808,142,51,25,5,6,12,14,14,1013,96,2,20140911190000
704,Datong,,40.078016,113.307143,117,50,39,4,11,11,14,14,1013,96,2,20140911190000
705,"Technical Schools, Linfen",,36.07131,111.509046,25,7,25,6,2,26,15,13,0,91,4,20140911190000
706,"Municipal party committee, Linfen",,36.087425,111.508771,13,9,23,1,3,15,15,13,0,91,4,20140911190000
1073,"City Monitoring Station, Linfen",,36.097676,111.518739,55,16,15,5,3,12,15,13,0,91,4,20140911190000
707,"South Airport, Linfen",,36.041614,111.497968,17,8,10,2,1,20,15,13,0,91,4,20140911190000
708,Linfen,,36.087944,111.525098,21,16,25,6,3,26,15,13,0,91,4,20140911190000
709,"City center, Yangquan",,37.848012,113.578636,109,42,20,5,7,8,16,13,1013,82,5,20140911190000
710,Yangquan,,37.857475,113.586921,93,53,25,6,38,14,16,13,1013,82,5,20140911190000
711,"Water Company, Jincheng",,35.504787,112.857245,107,26,29,13,3,4,13,13,1013,95,0,20140911190000
712,"Baiyun shopping mall, Jincheng",,35.492858,112.841566,42,26,12,8,1,4,14,12,1013,78,2,20140911190000
713,"City EPA, Jincheng",,35.488422,112.858528,30,27,12,8,11,5,14,12,1013,78,2,20140911190000
714,"Institute of Technology, Jincheng",,35.484844,112.878073,68,26,34,7,3,4,13,13,1013,95,0,20140911190000
715,"No.1 middle school, Jincheng",,35.478725,112.838636,55,10,13,8,1,2,13,13,1013,95,0,20140911190000
716,Jincheng,,35.490287,112.85794,107,26,29,13,3,4,13,13,1013,95,0,20140911190000
718,"District Government, Shuozhou",,39.320857,112.430641,99,38,30,2,25,23,16,15,1013,97,1,20140911190000
719,"City EPA, Shuozhou",,39.331495,112.407997,72,21,32,6,2,23,15,14,1013,92,1,20140911190000
720,"No.2 middle school, Shuozhou",,39.377963,112.432877,63,30,39,3,4,9,15,14,1013,92,1,20140911190000
721,Shuozhou,,39.332756,112.439672,72,67,39,3,10,23,15,14,1013,92,1,20140911190000
722,"Jinlun compound, Jinzhong",,37.697891,112.771017,46,26,25,3,7,9,16,13,1013,82,5,20140911190000
723,"Hydraulic Component Factory, Jinzhong",,37.688355,112.725844,46,22,22,8,5,5,16,13,1013,82,5,20140911190000
724,"Nandu compound, Jinzhong",,37.713148,112.732036,53,24,7,5,2,8,16,13,1014,82,4,20140911190000
725,"Yuci district government, Jinzhong",,37.698228,112.714167,38,25,14,3,1,6,16,13,1013,82,5,20140911190000
726,Jinzhong,,37.687705,112.759187,46,26,25,8,7,9,16,13,1013,82,5,20140911190000
727,"Yuncheng Middle School, Yuncheng",,35.012345,111.003215,5,-,32,3,1,15,17,15,1010,88,2,20140911190000
728,"Yudou BDA, Yuncheng",,35.05065,111.029571,17,25,28,6,13,500,22,18,1007,71,3,20140911190000
730,"Regional Technical School, Yuncheng",,35.028727,110.974076,57,16,27,1,4,22,17,15,1010,88,2,20140911190000
731,"Airport new district, Yuncheng",,35.084515,111.05339,34,17,25,3,3,21,17,15,1010,88,2,20140911190000
732,Yuncheng,,35.025675,111.013344,57,17,32,3,4,22,-,-,0,-,-,20140911190000
733,"Jiyin, Xinzhou",,38.413292,112.742432,78,39,14,3,14,15,16,13,1013,82,5,20140911190000
734,"BDA, Xinzhou",,38.450069,112.736723,55,20,15,2,1,16,16,13,1013,82,5,20140911190000
735,"Convention Center, Xinzhou",,38.492043,112.709772,99,32,11,7,26,17,16,13,1013,82,5,20140911190000
736,Xinzhou,,38.417244,112.740742,99,32,15,7,26,17,16,13,1013,82,5,20140911190000
737,"City EPA, Luliang",,37.522189,111.144365,50,17,11,12,11,18,23,15,0,50,2,20140911190000
738,"Soybean factory, Luliang",,37.51689,111.135101,42,16,11,11,10,17,18,15,0,75,1,20140911190000
739,"Water Company, Luliang",,37.53394,111.138834,25,30,13,15,2,20,18,15,0,75,1,20140911190000
740,Luliang,,25.027007,103.668566,42,30,13,12,11,17,18,15,0,75,1,20140911190000
741,"City government, Sanmenxia",,34.776251,111.198781,21,9,14,7,2,6,17,15,1010,88,2,20140911190000
743,"BDA, Sanmenxia",,34.800434,111.204332,17,5,19,5,2,3,17,15,1010,88,2,20140911190000
744,Sanmenxia,,34.771506,111.206129,21,9,19,7,2,12,17,15,1010,88,2,20140911190000
745,"Food Factory, Changchun",,43.919094,125.329521,117,80,3,28,6,7,7,6,1018,93,1,20140911190000
746,"Bus Factory, Changchun",,43.912337,125.293431,99,78,2,25,27,7,7,6,1018,93,1,20140911190000
747,"Institute of Posts and Telecommunications, Changchun",,43.842368,125.285005,65,57,3,33,4,6,7,6,1018,93,1,20140911190000
748,"Laodong Park, Changchun",,43.877293,125.371519,80,72,2,28,5,11,7,6,1018,93,1,20140911190000
749,"Forest area, Changchun",,43.871825,125.331519,-,-,-,-,-,-,-,-,0,-,-,20140911190000
750,"Jinyuetan, Changchun",,43.79031,125.460561,50,20,23,3,1,3,7,6,1018,93,1,20140911190000
751,"Shuaiwanzi, Changchun",,43.552321,125.639086,74,61,10,11,1,5,7,6,1018,93,1,20140911190000
752,"Economic Development Zone Sanitation Department, Changchun",,43.869221,125.42365,82,73,3,29,4,6,7,6,1018,93,1,20140911190000
753,"High-tech Zone Administrative Committee, Changchun",,43.819064,125.256375,161,491,2,25,4,8,7,6,1018,93,1,20140911190000
754,"Daishan Park, Changchun",,43.852365,125.223399,80,68,4,35,5,7,8,7,1018,93,1,20140911190000
755,Changchun,,43.819415,125.329977,80,72,3,33,5,11,-,-,0,-,-,20140911190000
756,"Hadawan, Jilin",,43.888081,126.545727,163,116,13,19,8,10,4,3,0,91,1,20140911190000
757,"Fengman, Jilin",,43.768169,126.678802,30,10,20,1,1,4,4,3,0,91,1,20140911190000
758,"Electric Power College, Jilin",,43.827403,126.502281,82,54,7,15,3,7,4,3,0,91,1,20140911190000
759,"Jiangnan Park, Jilin",,43.83531,126.556519,91,60,7,14,3,6,4,3,0,91,1,20140911190000
760,"Dongjuzi, Jilin",,43.838597,126.590068,61,59,4,17,1,7,4,3,0,91,1,20140911190000
763,Jilin,,43.840137,126.555262,163,116,27,19,8,10,4,3,0,91,1,20140911190000
764,"Lingbei, Haerbin",,45.756979,126.548008,91,65,25,23,8,3,8,7,1017,93,1,20140911190000
765,"Songbei Commercial University, Haerbin",,45.818624,126.566963,97,52,3,16,6,12,8,7,1017,93,0,20140911190000
766,"Acheng huining, Haerbin",,45.544286,126.985183,78,52,20,4,3,4,8,7,1017,93,0,20140911190000
767,"Nangang College Street, Haerbin",,45.724121,126.604906,170,182,22,49,14,11,8,7,1017,93,0,20140911190000
768,"Taiping Hongwei Park, Haerbin",,45.775332,126.695101,168,112,22,17,6,15,8,7,1017,93,0,20140911190000
769,"Daowai Chengde Square, Haerbin",,45.768637,126.640955,99,67,21,11,5,8,8,7,1017,93,0,20140911190000
770,"Xiangfang Hongqi Street, Haerbin",,45.733936,126.691083,151,143,27,1,9,16,8,7,1017,93,0,20140911190000
771,"Dongli Heping Road, Haerbin",,45.727765,126.651974,187,136,22,43,8,14,8,7,1017,93,0,20140911190000
772,"Daoli Jianguo Road, Haerbin",,45.749715,126.59891,107,54,25,26,14,7,8,7,1017,93,0,20140911190000
773,"Pingfang Light Factory, Haerbin",,45.611951,126.620898,165,68,19,23,7,13,8,7,1017,93,0,20140911190000
774,"Hulan Normal College, Haerbin",,45.983745,126.616553,78,36,24,13,6,3,8,7,1017,93,0,20140911190000
775,"Provincial Academy of Agricultural Sciences, Haerbin",,45.686141,126.626517,181,135,18,49,8,8,8,7,1017,93,0,20140911190000
776,Haerbin,,45.805757,126.541007,97,68,22,22,9,12,-,-,0,-,-,20140911190000
777,"Anju Compound, Qiqihaer",,47.365672,123.937016,21,14,35,7,2,4,12,10,1017,82,1,20140911190000
778,"Farming Vehicule Factory, Qiqihaer",,47.326793,123.961427,25,12,28,16,2,7,12,10,1017,82,1,20140911190000
779,"Fuqu EPA, Qiqihaer",,47.1853,123.62322,89,30,31,2,5,21,12,10,1017,82,1,20140911190000
780,"City Center Square, Qiqihaer",,47.343096,123.96192,30,9,21,4,6,5,12,10,1017,82,1,20140911190000
1217,"City Environmental Monitoring Station, Qiqihaer",,47.303639,123.957551,34,21,29,4,4,4,12,10,1017,82,1,20140911190000
781,Qiqihaer,,47.356387,123.924736,89,30,35,16,6,21,12,10,1017,82,1,20140911190000
782,"Saertu District, Daqing",,46.582368,125.152904,124,78,27,3,5,6,8,6,1018,88,0,20140911190000
783,"Datong District, Daqing",,46.036786,124.842115,57,26,45,4,5,5,8,6,1018,88,0,20140911190000
784,"Honggang District, Daqing",,46.418381,124.88973,85,37,37,14,4,5,8,6,1018,88,0,20140911190000
785,"Longfeng District, Daqing",,46.535426,125.107043,76,57,32,22,4,7,12,9,1017,76,0,20140911190000
786,"Ranghulu District, Daqing",,46.635123,124.85648,117,104,37,17,10,8,8,6,1018,88,0,20140911190000
787,Daqing,,46.591414,125.110838,124,104,37,17,10,8,8,6,1018,88,0,20140911190000
788,"Locomotive Factory, Mudanjiang",,44.610589,129.652672,91,50,21,5,3,3,11,10,1018,96,1,20140911190000
789,"No. 1 hospital, Mudanjiang",,44.567775,129.617043,65,19,17,7,1,2,11,10,1018,96,1,20140911190000
1220,"EPA building, Mudanjiang",,44.567777,129.620658,59,41,4,6,1,1,11,10,1018,96,1,20140911190000
1221,"Cultural Square, Mudanjiang",,44.586388,129.623164,91,40,2,10,4,5,11,10,1018,96,1,20140911190000
790,Mudanjiang,,44.553619,129.640246,91,50,21,10,10,5,11,10,1018,96,1,20140911190000
791,"Mingzhu Plaza, Hefei",,31.782847,117.201512,117,45,32,12,14,9,20,19,1007,94,4,20140911190000
792,"Sanli Street, Hefei",,31.874637,117.312573,89,40,21,19,6,7,20,19,1007,94,4,20140911190000
793,"Hupo Compound, Hefei",,31.868583,117.264491,76,30,19,5,10,6,20,19,1007,94,4,20140911190000
794,"Dongpu Reservoir, Hefei",,31.90319,117.165584,82,35,31,11,3,4,20,19,1008,94,4,20140911190000
795,"Changjiang middle road, Hefei",,31.855185,117.255484,91,50,6,9,1,4,20,19,1008,94,4,20140911190000
796,"Luyang District, Hefei",,31.941771,117.271504,80,34,10,1,15,5,20,19,1008,94,4,20140911190000
797,"Yaohai District, Hefei",,31.856595,117.341644,99,38,18,2,7,6,20,19,1007,94,4,20140911190000
798,"Baohe District, Hefei",,31.793644,117.307554,-,-,-,-,-,-,-,-,0,-,-,20140911190000
799,"Lake district, Hefei",,31.736619,117.283501,134,54,21,6,12,3,20,19,1008,94,4,20140911190000
800,"High-tech zone, Hefei",,31.849755,117.129624,93,54,12,6,4,2,20,19,1008,94,4,20140911190000
801,Hefei,,31.819449,117.232753,114,60,32,16,11,10,-,-,0,-,-,20140911190000
802,"Hudong Road No.4 Elementary School, Maanshan",,31.684121,118.511017,91,38,41,15,7,9,21,20,1008,94,3,20140911190000
803,"Tianping Garment Factory, Maanshan",,31.64197,118.488043,104,49,61,13,10,9,22,20,1008,88,4,20140911190000
804,"City education base, Maanshan",,31.711216,118.648913,89,46,14,1,7,3,21,20,1008,94,3,20140911190000
805,"Cihu No.2 elementary school, Maanshan",,31.748546,118.515729,87,70,46,16,12,7,21,20,1008,94,3,20140911190000
806,"Maanshan steel factory power plant, Maanshan",,31.690864,118.48528,85,55,18,6,8,9,22,20,1008,88,4,20140911190000
807,Maanshan,,31.668461,118.511939,91,38,41,15,7,9,21,20,1008,94,3,20140911190000
808,"Science Innovation Center, Wuhu",,31.417056,118.375406,142,56,16,15,2,8,21,20,1008,94,3,20140911190000
809,"No.4 Water Plant, Wuhu",,31.315914,118.376231,91,33,14,15,4,14,22,20,1008,88,4,20140911190000
810,"Monitoring station, Wuhu",,31.348955,118.358154,114,93,12,10,4,4,21,20,1008,94,3,20140911190000
811,"Wuqierling Factory, Wuhu",,31.382068,118.407639,87,32,24,6,5,5,22,20,1008,88,4,20140911190000
812,Wuhu,,31.351007,118.438322,99,96,24,7,5,5,22,20,1008,88,4,20140911190000
1331,Chuzhou,,32.299549,118.322508,-,-,-,-,-,-,-,23,0,-,-,20140911190000
813,"Jiangxi Foreign Affairs Office, Nanchang",,28.678027,115.903436,95,42,9,2,10,4,26,24,1007,87,1,20140911190000
814,"Provincial forestry company, Nanchang",,28.69065,115.898546,63,40,9,2,9,11,26,24,1007,87,1,20140911190000
815,"Institute of Forestry, Nanchang",,28.731518,115.82478,55,50,7,3,5,10,26,24,1007,87,1,20140911190000
816,"Jingdong town government, Nanchang",,28.680659,115.972736,34,16,17,1,2,5,26,24,1007,87,1,20140911190000
817,"Contruction Industry College, Nanchang",,28.684018,115.865891,65,24,11,15,30,8,26,24,1007,87,1,20140911190000
818,"Xianghu, Nanchang",,28.637831,115.9033,87,46,13,13,10,8,26,24,1007,87,1,20140911190000
819,"Martial Arts School, Nanchang",,28.794538,115.752876,57,29,6,6,5,6,26,24,1007,87,1,20140911190000
820,"Petrifaction Company, Nanchang",,28.608634,115.912999,30,48,15,2,2,9,26,24,1007,87,1,20140911190000
821,"Provincial Station, Nanchang",,28.677155,115.941896,57,21,16,7,22,10,26,24,1007,87,1,20140911190000
822,Nanchang,,28.679883,115.863022,95,48,17,15,30,11,26,24,1007,87,1,20140911190000
823,"Lushan Mountain Observatory, Jiujiang",,29.5751,115.998926,102,38,34,2,2,2,21,21,1008,96,4,20140911190000
824,"Shili, Jiujiang",,29.668119,115.992381,129,46,18,10,13,7,21,21,1008,96,4,20140911190000
825,"Maoshantou, Jiujiang",,29.700819,115.967192,139,44,15,16,11,6,21,21,1008,96,4,20140911190000
826,"Xiyuan, Jiujiang",,29.723929,115.998206,97,57,17,11,7,6,21,21,1008,96,4,20140911190000
827,"Wuqierling Factory, Jiujiang",,29.640802,116.022713,119,60,20,10,26,3,21,21,1008,96,4,20140911190000
828,"Water Scientific Research Institute, Jiujiang",,29.679179,116.068081,99,39,16,8,6,7,21,21,1008,96,4,20140911190000
829,"Zonghe Industrial Park, Jiujiang",,29.592047,115.916335,139,61,14,18,13,6,21,21,1008,96,4,20140911190000
830,"Petrochemical General Plant, Jiujiang",,29.738832,116.09463,93,39,15,10,6,5,21,21,1008,96,4,20140911190000
831,Jiujiang,,29.70254,116.007025,139,57,17,16,11,7,21,21,1008,96,4,20140911190000
1332,"Feiyu, Xinyu",,27.844697,115.000136,89,52,15,8,16,,28,,1009,88,1,20140911190000
1333,"Beigang, Xinyu",,27.932491,115.103767,89,50,8,9,21,,28,,1009,88,1,20140911190000
1334,"No.2 water factory, Xinyu",,27.839577,114.933915,87,49,7,8,12,,28,,1009,88,1,20140911190000
1335,"Bureau of Meteorology, Xinyu",,27.81048,114.936507,85,56,13,0,10,,28,,1009,88,1,20140911190000
1336,Xinyu,,27.814351,114.922194,89,56,15,8,16,11,28,24,1009,88,1,20140911190000
832,"Tobacco Factory, Zhengzhou",,34.753419,113.687131,59,16,22,7,3,12,16,16,1012,100,4,20140911190000
833,"Textile Machinery Factory, Zhengzhou",,34.773366,113.647067,55,20,8,6,5,9,16,16,1012,100,4,20140911190000
834,"Banking College, Zhengzhou",,34.800856,113.681126,63,16,24,8,8,8,16,16,1012,100,5,20140911190000
835,"Water Supply Company, Zhengzhou",,34.807188,113.571089,63,21,34,5,5,14,16,16,1012,100,5,20140911190000
836,"Economic Development Zone Management Committee, Zhengzhou",,34.717652,113.733182,46,13,18,4,4,5,16,16,1012,100,5,20140911190000
837,"No. 47 middle school, Zhengzhou",,34.772211,113.74009,65,19,29,8,4,3,16,16,1012,100,5,20140911190000
838,"City Monitoring Station, Zhengzhou",,34.748404,113.60514,61,20,21,9,6,9,16,16,1012,100,4,20140911190000
839,"Henan Medical University, Zhengzhou",,34.752637,113.641658,46,11,16,9,6,5,16,16,1012,100,5,20140911190000
840,"Gangli Reservoir, Zhengzhou",,34.952652,113.64248,99,71,19,11,9,8,16,16,1012,100,5,20140911190000
841,Zhengzhou,,34.745417,113.631415,61,16,21,9,6,9,-,-,0,-,-,20140911190000
842,"Henan University No.1 Hospital, Kaifeng",,34.799302,114.352706,76,29,26,6,4,7,16,16,1012,100,5,20140911190000
843,"Maternity And Child Hospital, Kaifeng",,34.795803,114.386103,78,21,18,4,5,7,16,16,1012,100,5,20140911190000
844,"Cancer Hospital, Kaifeng",,34.775428,114.350292,78,30,22,5,7,8,16,16,1012,100,5,20140911190000
845,"Yellow River Conservancy Institute, Kaifeng",,34.826066,114.324772,76,28,36,9,29,18,16,16,1012,100,4,20140911190000
846,"Shijixing Kindergarden, Kaifeng",,34.793606,114.302744,78,23,10,5,5,8,16,16,1012,100,5,20140911190000
847,Kaifeng,,34.796346,114.313426,78,23,22,5,7,8,16,16,1012,100,5,20140911190000
852,Jiaozuo,,35.215381,113.248188,85,28,28,18,29,4,16,16,1012,100,4,20140911190000
853,"Cotton Research Institute, Anyang",,36.081435,114.486451,63,13,17,4,3,5,15,14,1015,94,1,20140911190000
854,"Hongmiao Street, Anyang",,36.086733,114.326,80,25,15,9,3,21,15,14,1015,94,1,20140911190000
855,"Yinxing Compound, Anyang",,36.056519,114.36495,78,39,20,12,4,9,15,14,1015,94,1,20140911190000
856,"Tiefo Temple, Anyang",,36.110041,114.309309,162,16,18,19,8,12,15,14,1015,94,1,20140911190000
857,Anyang,,36.097767,114.398846,162,39,20,19,8,21,15,14,1015,94,1,20140911190000
858,"City Monitoring Station, Luoyang",,34.669055,112.439633,65,36,21,7,2,5,14,,1012,100,8,20140911190000
859,"BDA Management Committee, Luoyang",,34.622084,112.390759,50,10,25,5,2,11,14,,1012,100,8,20140911190000
860,"New municipal office, Luoyang",,34.623745,112.432973,87,33,30,5,2,10,14,,1012,100,8,20140911190000
861,"City committee communist party school, Luoyang",,34.650169,112.400212,21,19,27,8,1,8,14,,1012,100,8,20140911190000
862,"Henan Forestry College, Luoyang",,34.685566,112.509429,55,20,37,6,3,12,14,,1012,100,8,20140911190000
863,"CITIC No.2 Elementary School, Luoyang",,34.668212,112.36907,57,32,28,6,5,10,14,,1012,100,8,20140911190000
864,"Yuxi Hotel, Luoyang",,34.685949,112.472611,34,13,16,6,7,15,14,,1012,100,8,20140911190000
865,Luoyang,,34.617424,112.46054,87,20,37,8,7,15,14,13,1012,100,8,20140911190000
866,"City Planning Design Institute, Pingdingshan",,33.7352,113.297916,55,18,28,8,5,6,16,16,1012,100,4,20140911190000
867,"Xinhua Hotel, Pingdingshan",,33.737754,113.328814,50,24,31,4,6,5,16,16,1012,100,4,20140911190000
868,"Engineering College, Pingdingshan",,33.772474,113.188235,55,14,29,6,8,4,16,16,1012,100,4,20140911190000
