locationid,stationname,chinesename,latitude,longitude,pm25,pm10,o3,no2,so2,co,temperature,dewpoint,pressure,humidity,wind,est_time
1,Dongcheng Dongsi,,39.9304,116.423239,158,69,16,26,3,11,1,-1,1027,87,1,20141108170000
2,"Temple of Heaven, Dongcheng",,39.887403,116.41324,160,60,12,26,2,9,1,-1,1027,87,1,20141108170000
3,West Park officials,,39.930333,116.345162,165,67,12,39,3,11,1,-1,1027,87,1,20141108170000
4,West Wanshou Nishinomiya,,39.879354,116.358183,172,71,9,38,2,11,1,-1,1027,87,1,20141108170000
5,Chaoyang Olympic Sports Center,,39.983406,116.403253,170,71,10,45,2,10,1,-1,1027,87,1,20141108170000
6,Chaoyang Agricultural Exhibition Hall,,39.938331,116.46715,169,69,16,33,5,9,1,-1,1027,87,1,20141108170000
7,Haidian Wanliu,,39.988245,116.293062,176,82,6,36,4,11,1,-1,1027,87,1,20141108170000
8,The Haidian northern New Area,,40.091313,116.180194,189,93,9,25,3,14,1,-1,1027,87,1,20141108170000
9,Haidian Beijing Botanical Garden,,40.003252,116.213097,155,58,27,10,2,8,1,-1,1027,87,1,20141108170000
10,Fengtai garden,,39.86423,116.285037,183,86,6,36,3,13,1,-1,1027,87,1,20141108170000
11,Fengtai Yungang,,39.82535,116.152237,167,85,21,17,4,10,1,-1,1027,87,1,20141108170000
12,Shijingshan city,,39.915286,116.190144,160,80,17,28,3,12,1,-1,1027,87,1,20141108170000
13,"Fangshan, Liangxiang",,39.743357,116.14225,187,86,10,25,2,10,1,-1,1027,87,1,20141108170000
14,"Huangcunzhen, Daxing",,39.719389,116.410219,186,89,18,25,2,9,1,-1,1027,87,1,20141108170000
15,BDA,,39.796197,116.51197,185,73,14,32,2,9,1,-1,1027,87,1,20141108170000
16,Tongzhou New Town,,39.887113,116.6689,184,79,14,34,6,12,1,-1,1027,87,1,20141108170000
17,Shunyi New Town ,,40.128111,116.660908,187,91,3,36,2,17,1,-1,1027,87,1,20141108170000
18,Changping Town,,40.218245,116.236084,155,61,18,15,3,12,1,-1,1027,87,1,20141108170000
19,"Mentougou, Longquan Town",,39.938397,116.112323,153,60,12,19,2,13,1,-1,1027,87,1,20141108170000
20,Pinggu town,,40.144433,117.106563,161,63,12,13,3,12,1,-1,1027,87,1,20141108170000
21,Huairou town,,40.329104,116.63387,156,61,12,12,2,12,1,-1,1027,87,1,20141108170000
22,The town of Miyun,,40.371186,116.838053,160,76,7,13,3,11,1,-1,1027,87,1,20141108170000
23,Yanqing town,,40.454217,115.978106,178,88,10,19,5,17,1,-1,1027,87,1,20141108170000
24,Changping Dingling,,40.293269,116.226108,111,70,19,7,4,9,1,-1,1027,87,1,20141108170000
25,Badaling Northwest,,40.36623,115.994146,88,31,20,18,8,5,1,-1,1027,87,1,20141108170000
26,Miyun Reservoir,,40.500157,116.91701,107,38,28,4,2,6,1,-1,1027,87,1,20141108170000
27,"Donggaocun Zhen, Pinggu",,40.10142,117.126556,168,62,25,21,4,7,1,-1,1027,87,1,20141108170000
28,"Yongledianzhen, Tongzhou",,39.713192,116.78905,189,68,6,34,3,9,1,-1,1027,87,1,20141108170000
29,"Yufazhen, Daxing",,39.521203,116.306026,187,88,10,20,2,8,1,-1,1027,87,1,20141108170000
30,"Liulihezhen, Fangshan",,39.581169,116.006089,187,90,21,22,2,7,1,-1,1027,87,1,20141108170000
31,"Qianmen E St, Dongcheng",,39.900402,116.401242,177,85,8,34,2,12,1,-1,1027,87,1,20141108170000
32,Yongdingmen Inner St,,39.877401,116.400238,177,74,12,30,5,10,1,-1,1027,87,1,20141108170000
33,Xizhimen N St,,39.955352,116.355187,186,101,5,39,5,16,1,-1,1027,87,1,20141108170000
34,South Ring Road,,39.857377,116.37421,178,77,4,36,6,11,1,-1,1027,87,1,20141108170000
35,East Fourth Ring Road,,39.940273,116.489075,172,76,12,38,2,10,1,-1,1027,87,1,20141108170000
36,Beijing,,39.955906,116.474246,170,71,19,46,4,10,1,-1,1027,87,1,20141108170000
37,Putuo,,31.232979,121.415378,96,44,13,25,7,5,13,11,1025,88,3,20141108170000
38,Yangpu Sipiao,,31.263795,121.540311,76,33,25,16,6,5,13,11,1025,88,3,20141108170000
39,Shanghai Normal College Primary Division,,31.199031,121.487719,91,30,22,23,5,7,13,11,1025,88,3,20141108170000
40,Dianshan Lake,,31.091338,120.982293,91,31,23,14,12,6,13,11,1025,88,3,20141108170000
41,Hongkou Liangcheng,,31.298906,121.47155,87,38,19,22,8,7,13,11,1025,88,3,20141108170000
42,Jingan,,31.224251,121.429637,89,36,19,19,7,5,13,11,1025,88,3,20141108170000
43,Shanghai Normal University,,31.163531,121.416643,87,33,23,21,6,6,13,11,1025,88,3,20141108170000
44,Chuansha,,31.188626,121.707342,64,24,24,14,4,4,13,11,1025,88,3,20141108170000
45,Zhangjiang,,31.204896,121.581215,78,33,25,23,10,4,13,11,1025,88,3,20141108170000
46,Lingshan Road,,31.226286,121.537317,77,34,22,17,8,2,13,11,1025,88,3,20141108170000
1080,City average,,31.228451,121.478227,82,34,21,20,7,5,13,11,1025,88,3,20141108170000
47,Shanghai,,31.202842,121.453493,97,42,23,19,5,4,13,11,1026,88,3,20141108170000
48,Guangzhou,,23.138517,113.263701,50,21,8,17,2,13,19,15,1020,78,2,20141108170000
49,"Huadu town, Guangzhou",,23.389121,113.220062,82,41,19,11,4,5,19,15,1020,78,2,20141108170000
50,"Luogang Zhenlong, Guangzhou",,23.308027,113.567032,63,20,18,8,4,10,19,15,1020,78,2,20141108170000
51,"LuHu, Guangzhou",,23.151743,113.281842,59,28,4,18,4,9,19,15,1020,78,2,20141108170000
52,"Tianhu, Guangzhou",,23.647433,113.629715,74,27,28,4,5,10,19,15,1020,78,2,20141108170000
53,"Zhudong, Guangzhou",,23.418406,113.078552,76,31,18,17,17,9,19,15,1020,78,2,20141108170000
54,"Modiesha station, Guangzhou",,23.103814,113.338238,30,20,10,21,4,7,19,15,1020,78,2,20141108170000
55,Zhuhai,,22.2677,113.581765,68,22,10,17,4,11,20,18,1019,88,8,20141108170000
1075,"Huicai technical school, Foshan",,23.039667,113.105492,76,29,8,23,9,8,19,14,1020,73,3,20141108170000
56,"Sanshuiyun donghai, Foshan",,23.185788,112.865368,63,33,14,24,21,10,19,14,1020,73,3,20141108170000
57,"Nanhai Bureau of Meteorology, Foshan",,23.046836,113.145764,61,27,8,15,5,15,19,14,1020,73,3,20141108170000
58,"Sanshui Monitoring Station, Foshan",,23.163551,112.890843,74,27,11,24,13,12,19,14,1020,73,3,20141108170000
1087,Foshan,,23.018995,113.126899,61,27,8,24,5,15,19,14,1020,73,3,20141108170000
59,"Ronggui street committee, Shunde",,22.762729,113.258356,80,32,3,23,4,14,19,14,1020,73,3,20141108170000
60,Shunde,,22.80246,113.298701,55,20,3,23,7,7,-,-,0,-,-,20141108170000
61,"Donghu, Jiangmen",,22.590411,113.087351,65,21,4,22,6,6,20,18,1019,88,8,20141108170000
62,"Taoyuan Atmosphere Premier Station, Jiangmen",,22.72489,112.93404,70,35,3,17,9,10,20,18,1019,88,8,20141108170000
63,Jiangmen,,22.576047,113.087351,65,21,4,22,6,6,20,18,1019,88,8,20141108170000
64,"Kengkouzi station, Zhaoqing",,23.158865,112.570287,89,35,21,13,12,11,19,15,1020,78,2,20141108170000
65,"Mugangzi station, Zhaoqing",,23.067961,112.431934,76,34,18,15,6,15,19,15,1020,78,2,20141108170000
67,Zhaoqing,,23.044571,112.470346,63,20,21,8,5,8,19,15,1020,78,2,20141108170000
68,"Jinguo Bay, Huizhou",,22.937223,114.385567,46,18,16,7,4,7,19,16,1019,83,3,20141108170000
1091,"Xiabu, Huizhou",,23.077493,114.410275,55,20,14,8,5,5,19,16,1019,83,3,20141108170000
69,"Xijiao, Huizhou",,23.338178,114.112867,59,20,24,8,8,10,19,16,1019,83,3,20141108170000
70,"Jiangbei, Huizhou",,23.111706,114.415274,42,38,20,12,8,5,19,16,1019,83,3,20141108170000
71,"Huiyang chuanhu, Huizhou",,22.814485,114.329292,53,12,11,8,5,11,19,16,1019,83,3,20141108170000
72,"Daya bay management committee, Huizhou",,22.739283,114.53631,38,10,14,6,3,7,19,16,1019,83,3,20141108170000
73,Huizhou,,23.109349,114.421164,42,38,20,12,8,5,19,16,1019,83,3,20141108170000
74,"Guancheng No.2 water plant, Dongguan",,23.057294,113.753254,61,18,11,8,8,10,19,16,1019,83,3,20141108170000
75,"Dongcheng Shijing, Dongguan",,23.010039,113.799529,68,22,12,17,9,9,19,16,1019,83,3,20141108170000
76,"Nancheng Xiping, Dongguan",,22.963051,113.743494,70,27,5,18,9,9,19,16,1019,83,3,20141108170000
77,"Nancheng Yuanling, Dongguan",,23.025058,113.751308,61,24,13,17,9,10,19,16,1019,83,3,20141108170000
78,Dongguan,,23.017813,113.756958,61,24,13,17,9,10,19,16,1019,83,3,20141108170000
79,"Zimaling, Zhongshan",,22.505112,113.407183,70,29,2,18,20,9,20,18,1019,88,8,20141108170000
80,"Yangtze River tourist area, Zhongshan",,22.48589,113.439054,65,32,3,24,8,11,20,18,1019,88,8,20141108170000
81,"Huabai Park, Zhongshan",,22.51839,113.374362,63,31,4,15,19,13,20,18,1019,88,8,20141108170000
82,Zhongshan,,22.513997,113.398277,70,29,2,18,20,9,20,18,1019,88,8,20141108170000
83,"No.8 middle school, Shaoguan",,24.767777,113.583537,80,28,15,9,7,13,17,12,1023,65,1,20141108170000
83,"No.8 middle school, Shaoguan",,24.767777,113.583537,80,28,15,9,7,13,17,12,1023,65,1,20141108170000
84,"Forest area, Shaoguan",,24.796106,113.612131,65,24,19,5,8,11,17,12,1023,65,1,20141108170000
84,"Forest area, Shaoguan",,24.796107,113.612131,65,24,19,5,8,11,17,12,1023,65,1,20141108170000
86,"Shaoguan University, Shaoguan",,24.790864,113.646598,70,32,20,12,9,8,17,12,1023,65,1,20141108170000
86,"Shaoguan University, Shaoguan",,24.790864,113.646599,70,32,20,12,9,8,17,12,1023,65,1,20141108170000
88,"Qujiang Monitoring Station, Shaoguan",,24.683042,113.60157,93,30,16,13,19,9,17,12,1023,65,1,20141108170000
88,"Qujiang Monitoring Station, Shaoguan",,24.683042,113.60157,93,30,16,13,19,9,17,12,1023,65,1,20141108170000
89,Shaoguan,,24.807342,113.602712,65,24,19,5,8,11,17,12,1023,65,1,20141108170000
90,"Chaonanzi Station, Shantou",,23.251213,116.406762,89,50,8,12,3,10,19,18,1019,94,1,20141108170000
91,Shantou,,23.350642,116.686306,85,43,11,24,33,10,19,18,1019,94,1,20141108170000
92,"City Environmental Monitoring Station, Zhanjiang",,21.220431,110.397317,53,26,12,9,7,12,20,18,1019,77,3,20141108170000
93,"EPB Dormitory, Zhanjiang",,21.197376,110.406487,59,25,12,-,8,5,20,18,1019,77,3,20141108170000
94,"Xiashan Swimming Park, Zhanjiang",,21.200431,110.415655,59,26,15,5,10,10,20,18,1019,77,3,20141108170000
95,"Zhanjiang Theatre, Zhanjiang",,21.268177,110.366445,61,27,12,-,7,27,20,18,1019,77,3,20141108170000
96,"Mazhang EPA, Zhanjiang",,21.265486,110.335993,55,20,5,7,10,13,20,18,1019,77,3,20141108170000
97,"Potou District EPB, Zhanjiang",,21.247604,110.454508,59,30,15,10,5,15,20,18,1019,77,3,20141108170000
98,Zhanjiang,,21.26832,110.363883,61,27,12,10,7,27,20,18,1019,77,3,20141108170000
99,"Maogang sub-office EPB, Maoming",,21.466435,111.033462,65,20,18,2,1,6,20,17,0,81,4,20141108170000
100,"Petrochemical No. 7 elementaty school, Maoming",,21.648905,110.937861,59,19,19,3,2,12,20,17,0,81,4,20141108170000
101,"Jiankang road, Maoming",,21.662211,110.909482,87,30,8,13,38,13,20,17,0,82,4,20141108170000
102,"Gaoling, Maoming",,21.690558,110.871146,61,27,8,8,20,10,20,17,0,81,4,20141108170000
1094,Maoming,,21.660223,110.929968,87,30,9,12,38,13,20,17,0,82,4,20141108170000
103,"Jiaying University, Meizhou",,24.325415,116.12816,65,23,8,10,5,10,19,18,1019,94,1,20141108170000
104,"Mexian new town, Meizhou",,24.269283,116.084546,61,20,11,6,6,10,19,18,1019,94,1,20141108170000
105,"Environmental Monitoring Center, Meizhou",,24.262778,116.129621,59,29,5,13,5,10,19,18,1019,94,1,20141108170000
1095,Meizhou,,24.285988,116.127065,59,29,5,13,5,10,19,18,1019,94,1,20141108170000
106,"City EPA, Shanwei",,22.772349,115.370227,38,10,15,4,5,11,20,16,1019,74,3,20141108170000
107,"City government, Shanwei",,22.787161,115.375536,55,21,14,4,6,9,20,16,1019,74,3,20141108170000
108,"Xincheng Middle School, Shanwei",,22.789851,115.367124,50,19,12,4,4,12,20,16,1019,74,3,20141108170000
1099,Shanwei,,22.783576,115.38022,50,19,12,4,4,12,20,16,1019,74,3,20141108170000
109,"No.3 elementary school, Heyuan",,23.75435,114.703514,70,25,13,11,3,11,18,13,1022,65,4,20141108170000
109,"No.3 elementary school, Heyuan",,23.755946,114.699091,70,25,13,11,3,11,18,13,1022,65,4,20141108170000
111,"City water company, Heyuan",,23.688709,114.954652,76,30,14,12,2,10,18,13,1022,65,4,20141108170000
111,"City water company, Heyuan",,23.754246,114.682459,76,30,14,12,2,10,18,13,1022,65,4,20141108170000
113,"Heyuan high school, Heyuan",,23.720037,114.699563,63,19,13,12,3,11,18,13,1022,65,4,20141108170000
113,"Heyuan high school, Heyuan",,23.720666,114.693879,63,19,13,12,3,11,18,13,1022,65,4,20141108170000
115,Heyuan,,23.740888,114.705147,63,19,13,13,3,11,18,13,1022,65,4,20141108170000
116,"Yuanyang Lake, Yangjiang",,21.855869,111.983676,74,23,13,12,4,11,18,16,1020,81,3,20141108170000
1100,Yangjiang,,21.855227,111.987308,74,23,13,12,4,11,18,16,1020,81,3,20141108170000
118,"Town governement, Qingyuan",,23.708005,113.026215,25,10,17,14,14,17,19,14,1020,73,3,20141108170000
119,"Fupin district, Qingyuan",,23.624781,113.067713,72,34,10,19,16,16,19,14,1020,73,3,20141108170000
121,"Environment protection office, Qingyuan",,23.691109,113.047948,25,10,18,9,11,9,19,14,1020,73,3,20141108170000
121,"Environment protection office, Qingyuan",,23.685931,113.053239,25,10,18,9,11,9,19,14,1020,73,3,20141108170000
123,"Fengcheng Subdistrict, Qingyuan",,23.695447,113.068189,25,18,17,14,14,18,19,14,1020,73,3,20141108170000
124,Qingyuan,,23.679304,113.061513,25,10,18,9,11,9,19,14,1020,73,3,20141108170000
125,"Xiyuan Road, Chaozhou",,23.668654,116.638272,78,39,23,5,5,12,19,18,1019,94,1,20141108170000
126,"Archives Bureau, Chaozhou",,23.667881,116.649104,34,10,25,6,5,14,19,18,1019,94,1,20141108170000
127,"Municipal Corporation, Chaozhou",,23.65035,116.621859,34,14,19,4,5,15,19,18,1019,94,1,20141108170000
1101,Chaozhou,,23.654204,116.626969,34,14,19,4,5,15,19,18,1019,94,1,20141108170000
128,"Donghu Park, Jieyang",,23.532877,116.374427,65,22,8,9,4,10,19,18,1019,94,1,20141108170000
129,"Yuhu Middle School, Jieyang",,23.52682,116.414123,74,28,3,41,15,10,19,18,1019,94,1,20141108170000
130,"Experimental Primary School, Jieyang",,23.571473,116.364137,65,21,3,17,12,12,19,18,1019,94,1,20141108170000
1102,Jieyang,,23.547596,116.37754,65,22,8,9,4,10,19,18,1019,94,1,20141108170000
131,"City Environmental Monitoring Station, Yunfu",,22.936779,112.042248,42,32,6,12,7,12,19,14,1020,73,3,20141108170000
132,"The new city government headquarters, Yunfu",,22.914275,112.044475,57,24,7,12,5,21,19,14,1020,73,3,20141108170000
133,"Muyang police sub-station, Yunfu",,22.951267,112.05923,30,12,11,19,9,15,19,14,1020,73,3,20141108170000
1103,Yunfu,,22.912436,112.049811,57,24,5,10,5,21,19,14,1020,73,3,20141108170000
134,Yantian,,22.587949,114.266899,-,-,-,-,-,-,-,-,0,-,-,20141108170000
135,Kwai Chung,,22.572837,113.867166,72,29,15,21,5,14,19,16,1019,83,3,20141108170000
135,Kwai Chung,,22.354168,114.134558,72,29,15,21,5,14,19,16,1019,83,3,20141108170000
137,Nanyou,,22.513802,113.928051,80,30,17,25,5,14,19,16,1019,83,3,20141108170000
138,Meisha,,22.59611,114.318345,55,18,18,4,3,11,19,16,1019,83,3,20141108170000
139,Xi xiang,,22.717524,114.252304,65,25,11,15,4,14,19,16,1019,83,3,20141108170000
140,Liyuan,,22.54732,114.101205,57,14,4,17,2,13,19,16,1019,83,3,20141108170000
1072,Kwai Chung,,22.354168,114.134558,57,20,14,1,2,14,19,16,1019,83,3,20141108170000
1072,Kwai Chung,,22.627947,114.428875,57,20,14,1,2,14,19,16,1019,83,3,20141108170000
141,OCT,,22.539549,113.992458,65,24,1,1,1,13,19,16,1019,83,3,20141108170000
142,Honghu,,22.559647,114.121976,59,22,10,20,3,10,19,16,1019,83,3,20141108170000
143,Mission Hills,,22.694131,114.050496,65,31,10,18,2,8,19,16,1019,83,3,20141108170000
144,Shenzhen,,22.540382,114.062982,80,31,18,25,5,14,-,-,0,-,-,20141108170000
145,Chengdu,,30.622581,104.069564,104,22,8,15,2,6,11,10,1022,94,2,20141108170000
146,"Jinquan lianghe, Chengdu",,30.710359,103.974209,50,28,13,9,2,8,11,10,1022,94,2,20141108170000
147,"Shilidian, Chengdu",,30.684718,104.17845,70,27,8,11,3,5,11,10,1022,94,2,20141108170000
148,"Sanwayao, Chengdu",,30.568159,104.081524,68,34,,,,8,11,10,1022,94,2,20141108170000
149,"Shahepu, Chengdu",,30.633685,104.120536,76,33,6,16,2,7,11,10,1022,94,2,20141108170000
150,"Liang Lane, Chengdu",,30.682601,104.076522,70,23,14,20,2,6,11,10,1022,94,2,20141108170000
151,"Caotang Temple, Chengdu",,30.651891,104.0284,65,22,8,15,2,6,11,10,1022,94,2,20141108170000
152,"Lingyansi, Chengdu",,31.025729,103.615022,25,6,12,9,1,3,11,10,1022,94,2,20141108170000
153,"Fuleshan, Mianyang",,31.472493,104.7806,38,10,21,6,5,5,11,10,1022,99,3,20141108170000
154,"High-tech Zone Water Company, Mianyang",,31.463309,104.674293,50,14,18,11,8,5,11,10,1022,99,3,20141108170000
155,"No.3 water company, Mianyang",,31.505002,104.731054,42,11,21,9,2,2,11,10,1022,99,3,20141108170000
156,Mianyang,,31.465174,104.681731,55,15,21,11,8,5,11,10,1022,99,3,20141108170000
157,"Dongshan Park, Deyang",,31.118648,104.424587,34,21,6,4,4,4,11,10,1022,94,2,20141108170000
158,"Xixiaoqu, Deyang",,31.131159,104.390972,65,17,5,12,1,7,11,10,1022,94,2,20141108170000
159,"City Procuratorate, Deyang",,31.114554,104.407986,50,5,5,9,1,8,11,10,1022,94,2,20141108170000
160,"Refractory Factory, Deyang",,31.108606,104.356506,50,17,12,12,1,6,11,10,1022,94,2,20141108170000
161,Deyang,,31.124715,104.400703,65,21,12,12,4,8,11,10,1022,94,2,20141108170000
162,"Nongnongping, Panzhihua",,26.566698,101.695438,104,71,13,25,6,9,15,9,0,59,1,20141108170000
163,"Hemenkou, Panzhihua",,26.589072,101.578312,104,59,17,17,20,20,15,9,0,59,1,20141108170000
164,"Bingcaogang, Panzhihua",,26.58143,101.718473,57,49,9,27,19,19,15,9,0,59,1,20141108170000
165,"Renhe, Panzhihua",,26.498166,101.746887,55,30,7,15,6,19,15,9,0,59,1,20141108170000
166,"Jinjina, Panzhihua",,26.553226,101.84862,76,51,4,11,13,16,15,9,0,59,1,20141108170000
167,Panzhihua,,26.578779,101.720211,104,71,17,27,20,20,15,9,0,59,1,20141108170000
168,"Shima Middle School, Yibin",,28.815979,104.599199,127,54,6,13,10,8,14,13,1022,93,1,20141108170000
169,"Municipal party committee, Yibin",,28.762654,104.624834,109,53,5,13,8,11,14,13,1022,93,1,20141108170000
170,"No. 4 middle school, Yibin",,28.783257,104.608407,153,68,5,15,5,8,14,13,1022,93,1,20141108170000
171,"City government, Yibin",,28.760477,104.644079,112,48,6,12,6,8,14,13,1022,93,1,20141108170000
172,"Huangjinzui, Yibin",,28.712319,104.578389,147,67,4,15,19,9,14,13,1022,93,1,20141108170000
173,"Shaping Middle School, Yibin",,28.795569,104.681393,95,43,10,14,7,7,14,13,1022,93,1,20141108170000
174,Yibin,,28.748384,104.645766,153,68,10,15,19,11,14,13,1022,93,1,20141108170000
175,"Datang Hill, Zigong",,29.359969,104.757388,151,75,14,12,41,7,14,10,0,76,2,20141108170000
176,"Yanma Road, Zigong",,29.355752,104.724036,122,64,19,12,30,5,14,10,0,76,2,20141108170000
177,"Tanmulin Street, Zigong",,29.353555,104.777397,109,43,22,7,9,5,14,10,0,76,2,20141108170000
178,"Chunhua Road, Zigong",,29.33825,104.771895,127,49,13,7,12,7,14,10,0,76,2,20141108170000
179,Zigong,,29.33617,104.781138,151,75,22,12,41,7,14,10,0,76,2,20141108170000
180,"Jiushi Hill, Luzhou",,28.955347,105.434207,107,52,21,13,8,5,15,12,0,81,0,20141108170000
181,"Xiaoshishang Port, Luzhou",,28.899583,105.447192,112,51,15,18,13,7,15,12,0,81,0,20141108170000
182,"Lantianxian Bridge, Luzhou",,28.852766,105.4358,91,53,15,25,5,4,15,12,0,81,0,20141108170000
183,"City Environment Monitoring Station, Luzhou",,28.895898,105.435802,102,49,10,22,4,6,15,12,0,81,0,20141108170000
184,Luzhou,,28.868782,105.445938,112,53,21,25,13,7,15,12,0,81,0,20141108170000
185,"City Committee, Nanchong",,30.799993,106.082906,112,56,21,6,3,3,14,13,1022,86,1,20141108170000
186,"Refinery Factory, Nanchong",,30.819412,106.10712,134,50,29,13,6,1,14,13,1022,86,1,20141108170000
187,"Gaoping District Monitoring Station, Nanchong",,30.783291,106.110417,137,41,10,18,6,7,14,13,1022,86,1,20141108170000
188,"Jialing District EPB, Nanchong",,30.761255,106.06818,132,46,12,19,3,7,14,13,1022,86,1,20141108170000
189,"City Environmental Monitoring Station, Nanchong",,30.836519,106.11272,112,43,11,29,9,6,14,13,1022,86,1,20141108170000
190,Nanchong,,30.835511,106.114717,137,56,29,29,9,7,14,13,1022,86,1,20141108170000
1249,"City Monitoring Station, Neijiang",,29.592673,105.036234,134,51,15,8,9,6,14,10,1001,76,2,20141108170000
1250,"Dongxing District Government , Neijiang",,29.592148,105.074966,134,52,14,8,6,4,14,10,1001,76,2,20141108170000
1251,"No 2 middle school, Neijiang",,29.579135,105.068548,144,61,14,12,5,4,14,10,1001,76,2,20141108170000
1252,Neijiang,,29.577653,105.06166,147,61,15,12,6,6,14,10,1001,76,2,20141108170000
1253,"City Monitoring Station, Suining",,30.610641,105.683583,91,54,43,8,12,8,13,9,0,74,2,20141108170000
1254,"Administrative center , Suining",,30.63206,105.819747,85,49,83,6,1,6,13,9,0,74,2,20141108170000
1255,Suining,,30.530053,105.596307,114,54,83,8,12,8,13,9,0,74,2,20141108170000
1256,"City Monitoring Station, Leshan",,29.560651,103.759211,53,16,4,12,3,10,12,10,0,82,2,20141108170000
1257,"Leshan Giant Buddha Scenic Area , Leshan",,29.543938,103.772706,53,17,5,20,2,9,12,10,0,82,2,20141108170000
1258,Leshan,,29.54935,103.767777,55,17,5,20,4,10,12,10,0,82,2,20141108170000
1259,"Heilongtan , Meishan",,30.047726,103.900649,139,54,13,11,1,3,11,10,1022,94,2,20141108170000
1260,"Bureau of Meteorology, Meishan",,30.084591,103.843715,99,33,5,26,7,6,11,10,1022,94,2,20141108170000
1261,"Xuguang Community , Meishan",,30.066277,103.8516,89,18,3,24,5,5,11,10,1022,94,2,20141108170000
1262,"City Monitoring Station, Meishan",,30.059205,103.836229,82,27,2,20,5,6,11,10,1022,94,2,20141108170000
1263,Meishan,,30.072618,103.85064,139,54,13,26,7,6,11,10,1022,94,2,20141108170000
1264,"Ziyang middle school, Ziyang",,30.147763,104.638024,152,56,15,4,15,6,14,10,0,76,2,20141108170000
1265,Ziyang,,30.126054,104.63004,152,65,15,6,21,6,14,10,0,76,2,20141108170000
191,Shenyang US Consulate,,41.785668,123.432865,191,156,,41,68,,-3,-11,1025,55,1,20141108170000
192,"Huishan, Shenyang",,41.835421,123.647773,175,90,12,28,23,8,-2,-11,1025,51,1,20141108170000
193,"Hunnan, Shenyang",,41.758263,123.540809,178,101,3,29,27,16,-3,-11,1025,55,1,20141108170000
194,"Zhangshi, Shenyang",,41.771679,123.289859,189,132,3,38,68,20,-2,-11,1025,51,1,20141108170000
195,"Artillery College, Shenyang",,41.835749,123.547799,168,157,5,40,56,18,-3,-11,1025,55,1,20141108170000
196,"Beiling, Shenyang",,41.849633,123.434146,252,182,2,40,64,17,-3,-11,1025,55,1,20141108170000
197,"Wenyi Road, Shenyang",,41.767444,123.416144,285,156,11,41,68,13,-3,-11,1025,55,1,20141108170000
198,"Xiaoheyan, Shenyang",,41.779828,123.484015,208,140,3,33,33,17,-2,-11,1025,51,1,20141108170000
199,"Taiyuan Street, Shenyang",,41.799646,123.406146,308,238,3,45,89,14,-3,-11,1025,55,1,20141108170000
200,"Ermao, Shenyang",,41.783011,123.366679,201,143,12,45,72,13,-3,-11,1025,55,1,20141108170000
201,"Liaoning University, Shenyang",,41.830704,123.361071,234,173,3,38,75,14,-3,-11,1025,55,1,20141108170000
202,Shenyang,,41.808126,123.437611,308,238,3,45,89,14,-2,-11,1025,51,1,20141108170000
1104,"wenhua street, Shenyang , Shenyang",,41.774139,123.441839,202,104,13,42,65,11,-3,-11,1025,55,1,20141108170000
1105,"Tanglin Road , Shenyang , Shenyang",,41.823665,123.562317,168,157,5,40,56,18,-2,-11,1025,51,1,20141108170000
203,"Ganjingzi, Dalian",,38.9747,121.616893,153,73,7,24,23,8,7,4,1026,81,2,20141108170000
204,"Zhoushuizi, Dalian",,38.951928,121.569981,117,65,7,17,16,13,7,4,1026,81,2,20141108170000
205,"Xinghai No 3 station, Dalian",,38.885779,121.568864,157,60,8,32,13,10,7,4,1026,81,2,20141108170000
206,"Qingniwa Bridge, Dalian",,38.91274,121.638018,129,59,9,28,11,10,6,3,1026,81,0,20141108170000
207,"Fujiazhuang, Dalian",,38.864647,121.629947,129,62,8,19,32,8,7,4,1026,81,2,20141108170000
208,"Qixianling, Dalian",,38.856978,121.523169,107,65,2,13,4,11,6,3,1026,81,0,20141108170000
209,"Lushun, Dalian",,38.808946,121.264063,104,50,20,7,7,8,7,4,1026,81,2,20141108170000
210,"Jinzhou, Dalian",,39.132192,121.753259,152,75,14,6,8,8,6,3,1026,81,0,20141108170000
211,"BDA, Dalian",,39.05213,121.782022,160,81,4,38,13,11,6,3,1026,81,0,20141108170000
212,"D&D Port, Dalian",,39.064087,121.981874,152,53,6,10,1,11,6,3,1026,81,0,20141108170000
213,Dalian,,38.91478,121.619625,129,59,9,28,11,10,-,-,0,-,-,20141108170000
214,"Bearing Factory, Dandong",,40.068929,124.345703,-,-,-,-,-,-,-,-,0,-,-,20141108170000
215,"Financial school, Dandong",,40.158723,124.432593,-,-,-,-,-,-,-,-,0,-,-,20141108170000
216,"Yuanbaoshan water, Dandong",,40.149431,124.391698,164,87,6,25,34,16,0,-5,1026,58,1,20141108170000
217,"Experimental Primary School, Dandong",,39.887343,124.158056,160,84,2,32,23,21,0,-5,1026,58,1,20141108170000
218,Dandong,,40.002046,124.360479,171,121,3,32,23,19,0,-5,1026,58,1,20141108170000
1106,"minzhu bridge, Dandong , Dandong",,40.112974,124.373604,160,84,3,32,23,19,0,-5,1026,58,1,20141108170000
1107,"yuanbaoshan, Dandong , Dandong",,40.146298,124.399081,164,87,9,25,34,15,0,-5,1026,58,1,20141108170000
1108,"linjiang houjie, Dandong , Dandong",,40.152757,124.431745,162,87,5,32,38,19,0,-5,1026,58,1,20141108170000
219,"BDA, Panjin",,41.157144,122.06645,119,56,7,21,10,20,2,-2,0,67,2,20141108170000
220,"Xinglongtai, Panjin",,41.140948,122.111343,147,60,4,28,14,14,2,-2,0,67,2,20141108170000
221,"Dingxiang, Panjin",,41.16139,121.928781,89,36,23,19,3,6,2,-2,0,67,2,20141108170000
222,Panjin,,41.122089,122.076206,147,36,23,28,14,20,2,-2,0,67,2,20141108170000
223,"No.3 water company, Yingkou",,40.682052,122.385352,144,90,7,30,14,12,4,-5,1026,41,3,20141108170000
224,"Yingkou University, Yingkou",,40.683689,122.388285,127,64,5,29,14,22,4,-5,1026,41,3,20141108170000
225,"Botanical garden, Yingkou",,40.711674,122.281568,99,47,4,34,27,29,4,-5,1026,41,3,20141108170000
226,Yingkou,,40.668578,122.24059,149,90,9,38,27,26,4,-5,1026,41,3,20141108170000
1109,"jinghu west street, Yingkou , Yingkou",,40.653831,122.221943,144,90,8,30,14,11,4,-5,1026,41,3,20141108170000
1110,"Daqing Road , Yingkou , Yingkou",,40.709181,122.28243,99,47,5,34,27,26,4,-5,1026,41,3,20141108170000
227,"Xishanpo, Huludao",,40.724078,120.921974,156,90,7,35,53,22,,,0,,,20141108170000
228,"Huagong hospital, Huludao",,40.755662,120.848435,144,69,7,19,19,27,,,0,,,20141108170000
229,"New district park, Huludao",,40.723415,120.853801,155,95,5,24,15,20,,,0,,,20141108170000
230,"Lianshan district governement, Huludao",,40.775488,120.872292,124,61,3,21,11,26,,,0,,,20141108170000
231,Huludao,,40.712501,120.842107,156,90,6,35,53,22,,,0,,,20141108170000
1111,"Dongcheng District , Huludao , Huludao",,40.775362,120.871706,124,61,3,21,11,25,,,0,,,20141108170000
1112,"huagong street, Huludao , Huludao",,40.758901,120.842935,144,69,7,19,19,27,,,0,,,20141108170000
232,Anshan,,41.110466,123.000147,171,118,8,41,58,22,-2,-11,1025,51,2,20141108170000
233,"Qianshan Park, Anshan",,41.033486,123.143897,152,66,17,17,10,8,-3,-11,1025,55,1,20141108170000
234,"Tiexi, Anshan",,41.121636,122.97506,171,118,3,28,30,23,-3,-11,1025,55,1,20141108170000
235,"Taiping Station, Anshan",,41.153322,123.052433,168,99,2,21,48,26,-3,-11,1025,55,1,20141108170000
236,"Central Station, Anshan",,41.106731,123.002736,157,81,6,41,58,17,-3,-11,1025,55,1,20141108170000
237,"Shengou Temple, Anshan",,41.137157,123.031901,154,79,6,40,43,17,-3,-11,1025,55,1,20141108170000
1113,"Qianshan , Anshan , Anshan",,41.014521,123.122538,152,66,16,17,10,8,-3,-11,1025,55,1,20141108170000
1114,"Tiexi Sandao jie, Anshan",,41.103264,122.978613,166,107,2,28,35,24,-4,-11,1025,59,1,20141108170000
1115,"Taiyang, Anshan",,41.094946,123.019037,154,77,6,31,39,18,-4,-11,1025,59,1,20141108170000
238,Fushun,,41.883028,123.962984,192,154,4,34,41,26,-3,-11,1025,55,1,20141108170000
239,"Shenfu new town, Fushun",,41.804638,123.631684,192,154,4,27,28,16,-3,-11,1025,55,1,20141108170000
240,"Reservoir, Fushun",,41.8464,123.802857,147,64,25,22,41,11,-3,-11,1025,55,1,20141108170000
241,"Train Station, Fushun",,41.89726,124.017604,187,123,5,29,27,19,-3,-11,1025,55,1,20141108170000
242,"Dongzhou, Fushun",,41.855578,124.044738,149,80,13,12,6,10,-3,-11,1025,55,1,20141108170000
243,"Xinhua, Fushun",,41.888598,123.932932,187,138,2,34,20,25,-3,-11,1025,55,1,20141108170000
244,"Wanghua, Fushun",,41.888825,123.093723,155,153,3,37,34,22,-3,-11,1025,55,1,20141108170000
245,Benxi,,41.296267,123.772371,158,68,1,32,50,20,-4,-11,1025,59,1,20141108170000
246,"Weining, Benxi",,41.349663,123.826071,158,97,37,38,3,14,-2,-11,1025,51,2,20141108170000
247,"Occupational disease hospital, Benxi",,41.305432,123.74645,112,56,1,27,18,19,-3,-11,1025,55,1,20141108170000
248,"Dongming, Benxi",,41.292369,123.765058,163,69,2,30,63,41,-2,-11,1025,51,2,20141108170000
249,"Caitun, Benxi",,41.301591,123.746039,165,129,4,40,47,39,-2,-11,1025,51,2,20141108170000
250,"Xihu, Benxi",,41.331332,123.773537,181,-,4,13,70,-,-2,-11,1025,51,2,20141108170000
251,"Dayu, Benxi",,41.308091,123.818442,158,68,1,32,50,20,-4,-11,1025,59,1,20141108170000
1116,"Xinlitun , Benxi , Benxi",,41.264104,123.811523,109,55,1,26,17,18,-4,-11,1025,59,1,20141108170000
252,Jinzhou,,41.097169,121.132647,197,107,4,41,44,33,3,0,1025,74,4,20141108170000
253,"Beihu Park, Jinzhou",,41.141447,121.137339,197,107,3,41,44,22,3,0,1025,74,4,20141108170000
254,"Monitoring station, Jinzhou",,41.113441,121.140911,168,104,16,32,18,9,3,0,1025,74,4,20141108170000
255,"Nanshan, Jinzhou",,41.570689,122.046753,189,97,4,22,12,30,3,0,1025,74,4,20141108170000
1118,"BDA, Jinzhou",,40.853915,121.061756,159,92,4,34,19,33,3,0,1025,74,4,20141108170000
1119,"tianan street, Jinzhou , Jinzhou",,41.124468,121.126119,168,104,4,32,18,14,3,0,1025,74,4,20141108170000
1120,"baigu street, Jinzhou, Jinzhou",,41.12214,121.21027,167,83,4,19,7,28,3,0,1025,74,4,20141108170000
1121,Chaoyang,,41.576022,120.456053,156,91,4,22,11,43,-,-,0,-,-,20141108170000
472,"Fukang road, Tianjin",,39.098136,117.157621,177,86,5,37,13,13,7,2,1028,71,2,20141108170000
1122,"Agricultural Area, Chaoyang",,43.93968,125.247371,174,89,6,11,6,19,-1,-13,1026,27,2,20141108170000
1123,Tieling,,42.225197,123.732174,181,95,20,30,45,17,-,-,0,-,-,20141108170000
260,"Waterpark, Tieling",,42.297031,123.880748,171,128,6,23,23,12,-4,-11,1025,59,1,20141108170000
1124,"Huigong Street West , Tieling , Tieling",,42.311115,123.845614,180,85,20,30,45,17,-3,-11,1025,55,1,20141108170000
1125,Liaoyang,,41.269312,123.24268,74,56,4,23,24,25,-,-,0,-,-,20141108170000
1126,"Riverside Road , Liaoyang , Liaoyang",,41.176884,123.419859,117,60,2,19,18,18,-4,-11,1025,59,1,20141108170000
1127,Fuxin,,42.02373,121.675733,155,113,9,25,14,16,-,-,0,-,-,20141108170000
266,"Agricultural Area, Fuxin",,42.071291,121.696445,153,66,6,21,32,4,0,-11,0,39,2,20141108170000
267,"Industrial Area, Fuxin",,42.041052,121.715554,155,113,11,25,14,16,0,-11,0,39,2,20141108170000
1128,"Yulong Metro , Fuxin , Fuxin",,42.035091,121.666531,160,135,6,19,18,19,0,-11,0,39,2,20141108170000
1129,"Dongyuan , Fuxin , Fuxin",,42.029119,121.681553,158,83,9,33,59,11,0,-11,0,39,2,20141108170000
268,"City Monitoring Station, Jinan",,36.662614,117.054645,188,119,2,41,45,12,8,2,1029,58,1,20141108170000
269,"Shandong Institute of Economics, Jinan",,36.63819,117.074975,189,121,3,34,49,10,8,2,1029,58,1,20141108170000
270,"Quancheng Plaza, Jinan",,36.661711,117.027043,188,130,7,33,42,13,8,2,1029,58,1,20141108170000
271,"Kegansuo, Jinan",,36.611582,116.99384,179,142,4,41,40,6,8,2,1029,58,1,20141108170000
272,"Agriculture Science Institute, Jinan",,36.663115,116.95063,194,153,3,40,22,16,8,2,1029,58,1,20141108170000
273,"Lanxiang technical school, Jinan",,36.700421,116.95342,191,114,9,42,37,12,8,2,1029,58,1,20141108170000
274,"Chemical factory, Jinan",,36.687463,116.994406,194,129,3,39,45,13,8,2,1029,58,1,20141108170000
275,"Provincial Seed Warehouse, Jinan",,36.685706,117.066348,185,130,2,42,41,12,8,2,1029,58,1,20141108170000
276,"Shandong Architecture University, Jinan",,36.681732,117.191868,192,151,6,24,33,15,8,2,1029,58,1,20141108170000
277,"Baosheng cable company, Jinan",,36.724638,117.130855,219,147,2,42,26,14,8,2,1029,58,1,20141108170000
278,"Paomaling, Jinan",,36.47869,117.219027,192,112,15,20,51,8,8,2,1029,58,1,20141108170000
279,"Changqing District Communist Party School, Jinan",,36.548797,116.770859,183,126,6,42,46,13,8,2,1029,58,1,20141108170000
280,"BDA, Jinan",,36.685835,117.130851,177,104,12,30,32,11,8,2,1029,58,1,20141108170000
281,Jinan,,36.651426,117.126625,188,119,2,41,45,12,8,2,1029,58,1,20141108170000
282,"Shinan district No. 1, Qingdao",,36.065534,120.40839,153,70,2,22,16,15,5,1,1028,76,1,20141108170000
283,"Shibei district No. 1, Qingdao",,36.069919,120.341264,163,125,6,39,21,14,5,1,1028,76,1,20141108170000
284,"Shibei district No. 2, Qingdao",,36.104146,120.36637,164,131,7,48,15,13,5,1,1028,76,1,20141108170000
285,"Huangdao District No. 1, Qingdao",,35.958935,120.191041,171,125,10,58,18,13,5,1,1028,76,1,20141108170000
286,"Huangdao District No. 2, Qingdao",,35.970487,120.160339,157,58,10,36,9,8,5,1,1028,76,1,20141108170000
287,"Laoshan District No. 1, Qingdao",,36.085881,120.451839,156,73,6,47,18,11,5,1,1028,76,1,20141108170000
288,"Laoshan District No. 2, Qingdao",,36.091075,120.490388,144,65,7,16,17,8,5,1,1028,76,1,20141108170000
289,"Licang District No. 1, Qingdao",,36.184872,120.38533,155,140,7,38,13,10,5,1,1028,76,1,20141108170000
290,"Licang District No. 2, Qingdao",,36.154369,120.432287,173,81,6,41,78,7,5,1,1028,76,1,20141108170000
291,"Chengyang District No. 1, Qingdao",,36.308502,120.40008,181,93,5,38,16,13,5,2,1028,81,1,20141108170000
292,"Chengyang District No. 2, Qingdao",,36.308429,120.465806,152,54,16,15,8,10,5,2,1028,81,1,20141108170000
293,Qingdao,,36.067358,120.387773,153,70,2,22,16,15,5,1,1028,76,1,20141108170000
294,"Zichuan Meteo. Stations, Zibo",,36.637916,117.960222,-,-,-,-,-,-,-,-,0,-,-,20141108170000
295,"Dongfeng Chemical factory, Zibo",,36.838576,118.050785,181,130,2,32,32,24,5,1,0,75,1,20141108170000
296,"Boshan shuangshan, Zibo",,36.497278,117.853581,230,142,1,42,58,26,5,1,0,75,1,20141108170000
297,"Linzi Putian Park, Zibo",,36.820171,118.315022,203,225,4,52,54,31,5,1,0,75,1,20141108170000
298,"Qilu Petrochemical, Zibo",,36.765907,118.254967,170,141,2,39,46,19,5,1,0,75,1,20141108170000
299,"Zhoucun sanjin Group, Zibo",,36.8044,117.85694,243,139,9,32,40,22,5,1,0,75,1,20141108170000
300,"Vocational College, Zibo",,36.825208,117.926305,192,139,1,29,27,25,5,1,0,75,1,20141108170000
301,"BDA, Zibo",,36.905214,118.021824,198,139,1,22,13,21,5,1,0,75,1,20141108170000
302,Zibo,,36.813618,118.060948,266,190,2,49,77,27,5,1,0,75,1,20141108170000
303,"Shizhong District Government, Zaozhuang",,34.850397,117.569545,186,173,15,33,45,12,6,4,1029,88,1,20141108170000
304,"Sewage treatment plant, Zaozhuang",,34.818951,117.595345,258,166,19,30,52,10,6,4,1029,88,1,20141108170000
305,"Xuecheng EPA, Zaozhuang",,34.790214,117.272455,167,99,15,33,29,12,6,4,1029,88,1,20141108170000
306,"Yicheng District government, Zaozhuang",,34.772806,117.57647,193,145,14,41,28,9,6,4,1029,88,1,20141108170000
307,"Taierzhuang EPA, Zaozhuang",,34.579462,117.741067,181,102,11,27,16,15,6,4,1029,88,1,20141108170000
308,"Shanting EPA, Zaozhuang",,35.070373,117.457691,163,96,17,21,14,11,6,4,1029,88,1,20141108170000
309,"City EPA, Zaozhuang",,34.809466,117.320608,165,96,24,21,21,6,6,4,1029,88,1,20141108170000
310,"High-tech zone, Zaozhuang",,34.821779,117.363495,152,30,16,23,33,9,6,4,1029,88,1,20141108170000
311,Zaozhuang,,34.809693,117.329634,186,173,15,33,45,12,6,4,1029,88,1,20141108170000
312,"City EPA, Dongying",,37.432052,118.672871,179,111,4,38,29,15,9,1,0,60,3,20141108170000
313,"Vocational College, Dongying",,37.438653,118.630567,182,127,4,41,34,11,9,1,0,60,3,20141108170000
314,"Xianhe Oil Production Plant, Dongying",,37.442419,118.510222,183,118,4,35,18,15,9,1,0,60,3,20141108170000
315,"Gengjin village, Dongying",,37.445072,118.55839,182,130,6,28,14,10,9,1,0,60,3,20141108170000
316,"City environmental company, Dongying",,37.466599,118.508012,175,105,5,39,15,10,9,1,0,60,3,20141108170000
317,"Hekou  district, Dongying",,37.883786,118.522171,158,71,18,27,7,7,9,1,0,60,3,20141108170000
318,"BDA, Dongying",,37.435162,118.701827,171,102,9,44,29,14,9,1,0,60,3,20141108170000
319,Dongying,,37.435429,118.680434,179,111,4,38,29,15,9,1,0,60,3,20141108170000
320,"Bearing Factory, Yantai",,37.544126,121.376956,112,54,8,28,15,12,,,0,,,20141108170000
321,"Xijiao Chemical Station, Yantai",,37.547148,121.323695,157,71,5,30,22,14,,,0,,,20141108170000
322,"Fushan Monitoring Stations, Yantai",,37.472245,121.260116,114,32,7,13,8,12,,,0,,,20141108170000
323,"Mouping EPA, Yantai",,37.376681,121.586509,154,65,4,22,5,15,,,0,,,20141108170000
324,"Laishan EPA, Yantai",,37.478422,121.44829,102,48,12,22,13,8,,,0,,,20141108170000
325,"Laishan Shengquan Industrial Park, Yantai",,37.4271,121.408386,152,72,3,31,11,3,,,0,,,20141108170000
326,"China Agricultural University, Yantai",,37.423568,121.511838,154,74,5,27,10,9,,,0,,,20141108170000
327,"BDA EPA, Yantai",,37.560827,121.257954,112,54,4,12,9,11,,,0,,,20141108170000
329,"Dajijia, Yantai",,37.673849,121.071465,102,29,18,6,7,10,,,0,,,20141108170000
330,Yantai,,37.464793,121.453142,112,54,8,30,22,14,,,0,,,20141108170000
331,"BDA, Weifang",,36.720022,119.054064,183,142,5,36,20,9,,,0,,,20141108170000
332,"Business School, Weifang",,36.682442,119.105909,173,113,8,33,17,8,,,0,,,20141108170000
333,"Hanting District, Weifang",,36.773484,119.199705,179,118,13,29,18,8,,,0,,,20141108170000
334,"Gongda Company, Weifang",,36.657635,119.167266,208,158,10,33,13,12,,,0,,,20141108170000
335,"City EPA, Weifang",,36.701272,119.16838,202,167,10,33,18,11,,,0,,,20141108170000
336,"City Arbitration Committee, Weifang",,36.702422,119.145927,219,150,14,32,22,14,,,0,,,20141108170000
337,"Xinhui Group, Weifang",,36.641581,119.11679,208,137,8,39,13,21,,,0,,,20141108170000
338,"Jincheng Middle School, Weifang",,36.773611,119.115539,193,143,24,34,20,8,,,0,,,20141108170000
339,Weifang,,36.707217,119.167638,189,150,7,42,28,14,,,0,,,20141108170000
340,"City Monitoring Station, Jining",,35.408443,116.623917,180,138,13,38,41,21,6,4,1028,78,0,20141108170000
1090,"Shengdi Hollidays Resort, Jining",,35.424746,116.699093,169,112,8,47,44,10,6,4,1028,78,0,20141108170000
341,"Sewage treatment plant, Jining",,35.364286,116.609177,224,152,13,33,11,15,6,4,1028,78,0,20141108170000
342,"Electrochemical Factory, Jining",,35.390473,116.552956,173,156,9,49,56,15,6,4,1028,78,0,20141108170000
343,"Rencheng BDA, Jining",,35.390484,116.662995,251,129,11,28,7,14,6,4,1028,78,0,20141108170000
344,"Agricultural School, Jining",,35.44235,116.601682,233,568,5,25,38,10,6,4,1028,78,0,20141108170000
345,"BDA Huojucheng, Jining",,35.436377,116.642953,189,141,7,35,64,16,6,4,1028,78,0,20141108170000
346,Jining,,35.414473,116.59239,180,138,8,38,41,21,6,4,1028,78,0,20141108170000
347,"Taishan monitoring station, Taian",,36.194362,117.159648,221,150,3,27,19,21,0,-1,0,88,6,20141108170000
348,"Shandong Electric Power School, Taian",,36.176071,117.12413,223,145,4,43,26,21,0,-1,0,88,6,20141108170000
349,"Population Education school, Taian",,36.194417,117.104131,207,145,4,25,12,18,0,-1,0,88,6,20141108170000
350,"Houfeng company, Taian",,36.204863,117.19015,226,193,2,18,9,25,0,-1,0,88,6,20141108170000
351,"Nongda new campus, Taian",,36.170179,117.165191,265,173,2,42,26,36,0,-1,0,88,6,20141108170000
352,"Transportation technical school, Taian",,36.202126,117.047068,193,103,2,30,22,21,0,-1,0,88,6,20141108170000
353,"ICT Technology, Taian",,36.116621,117.107458,189,100,11,33,33,16,0,-1,0,88,6,20141108170000
354,Taian,,36.200502,117.093682,221,150,12,27,19,21,0,-1,0,88,6,20141108170000
355,"City Environmental Monitoring Station, Weihai",,37.513939,122.067058,149,80,15,28,17,8,10,6,0,73,5,20141108170000
356,"Woodworking Factory, Weihai",,37.325455,122.160777,149,68,14,23,16,7,10,6,0,73,5,20141108170000
357,"Lantian Hotel, Weihai",,37.514641,122.146276,151,68,21,27,36,11,10,6,0,73,5,20141108170000
358,"Zhang village government, Weihai",,37.485561,122.049436,151,55,15,24,13,9,10,6,0,73,5,20141108170000
359,"Gao District Bank, Weihai",,37.534919,122.056294,95,53,22,12,12,7,10,6,0,72,5,20141108170000
360,"Huxia technical school, Weihai",,37.427951,122.130811,157,78,17,27,22,8,10,6,0,73,5,20141108170000
361,Weihai,,37.5141,122.125477,149,80,15,28,17,8,10,6,0,73,5,20141108170000
362,"City governement square, Rizhao",,35.4075,119.526008,159,80,11,20,13,6,8,1,1029,49,2,20141108170000
363,"Port Authority, Rizhao",,35.381297,119.55396,-,-,-,-,-,-,-,-,0,-,-,20141108170000
364,"City Monitoring Station, Rizhao",,35.388683,119.496405,152,80,4,24,11,13,8,1,1029,49,2,20141108170000
365,"Professor Garden, Rizhao",,35.462161,119.574193,97,58,26,9,9,8,8,1,1029,49,2,20141108170000
366,"Vocational and Technical College, Rizhao",,35.441939,119.538187,127,63,18,17,7,7,8,1,1029,49,2,20141108170000
367,"Lanshan EPA branch, Rizhao",,35.293405,119.345716,151,73,10,34,12,7,8,1,1029,49,2,20141108170000
368,"Jinma Industrial Park, Rizhao",,35.373339,119.514108,162,105,6,36,12,7,8,1,1029,49,2,20141108170000
369,Rizhao,,35.416089,119.532316,159,80,11,20,13,6,8,1,1029,49,2,20141108170000
370,"Vegetable oil factory, Laiwu",,36.205028,117.700917,203,139,5,38,52,22,6,2,1030,64,1,20141108170000
371,"Nursing home, Laiwu",,36.266067,117.652769,308,160,13,31,28,24,6,2,1030,64,1,20141108170000
372,"Xinyi middle school, Laiwu",,36.245086,117.739025,182,115,4,46,46,21,6,2,1030,64,1,20141108170000
373,"Risheng International School, Laiwu",,36.208125,117.730959,199,146,6,18,29,17,6,2,1030,64,1,20141108170000
374,"Gangcheng EPA, Laiwu",,36.066836,117.871823,181,143,4,35,50,18,6,2,1030,64,1,20141108170000
375,"City EPA, Laiwu",,36.228913,117.694797,224,140,2,1,31,25,6,2,1030,64,1,20141108170000
376,Laiwu,,36.213688,117.682612,203,139,5,38,52,22,-,-,0,-,-,20141108170000
377,"Lunan Pharmaceutical Factory, Linyi",,35.061671,118.299527,213,184,3,48,33,16,6,1,0,68,1,20141108170000
378,"Yihe compound, Linyi",,35.056752,118.34739,198,166,2,45,44,20,6,1,0,68,1,20141108170000
379,"Linyi University, Linyi",,35.114777,118.293414,276,365,4,49,42,29,6,1,0,68,1,20141108170000
380,City EPA,Nanfang,35.104871,118.353518,174,167,4,46,38,18,6,1,0,68,1,20141108170000
381,"Xinguang woolen factory, Linyi",,34.981004,118.282,198,179,8,33,47,19,6,1,0,68,1,20141108170000
382,"Hongfu Baijiu Factory, Linyi",,34.998788,118.257275,195,245,2,52,25,22,6,1,0,68,1,20141108170000
384,"Hedong insurance company, Linyi",,35.089354,118.40812,189,155,3,48,14,17,6,1,0,68,1,20141108170000
385,"Jianghua vehicule center, Linyi",,35.010082,118.435749,211,145,2,124,54,21,6,1,0,68,1,20141108170000
386,Linyi,,35.10428,118.362202,213,184,3,48,75,16,6,1,0,68,1,20141108170000
387,"Heima group, Dezhou",,37.466063,116.314134,182,95,5,33,14,17,6,3,1028,72,0,20141108170000
388,"Monitoring station, Dezhou",,37.433107,116.377312,181,95,2,31,13,15,6,3,1028,72,0,20141108170000
1248,Jingningxian,,27.977454,119.634837,63,20,5,10,2,6,,,,,,20141108180000
389,"Supervision Station, Dezhou",,37.449689,116.324709,205,99,16,39,16,18,6,3,1028,72,0,20141108170000
390,"Huayu technical school, Dezhou",,37.462809,116.357559,178,83,4,17,10,11,6,3,1028,72,0,20141108170000
391,"Shuangyi group, Dezhou",,37.478848,116.316362,198,126,4,36,15,15,6,3,1028,72,0,20141108170000
392,Dezhou,,37.434959,116.363366,182,95,5,33,17,17,6,3,1028,72,0,20141108170000
393,"Dongchang District Government, Liaocheng",,36.444473,115.971733,210,139,4,44,39,29,8,4,1028,65,0,20141108170000
394,"Light Machinery Factory No. 2, Liaocheng",,36.456788,116.002383,171,99,16,27,50,13,12,2,1027,42,2,20141108170000
395,"City committee communist party school, Liaocheng",,36.479537,115.989288,213,174,6,37,52,19,8,4,1028,65,0,20141108170000
396,"Customs, Liaocheng",,36.431933,115.956974,235,178,8,39,31,27,8,4,1028,65,0,20141108170000
397,"Hongshun Garden, Liaocheng",,36.471124,115.960319,223,175,1,52,46,25,8,4,1028,65,0,20141108170000
398,"BDA, Liaocheng",,36.459407,116.043621,230,150,4,41,60,25,8,4,1028,65,0,20141108170000
399,Liaocheng,,36.456792,115.991051,210,139,9,44,39,29,8,4,1028,65,0,20141108170000
400,"City EPA, Binzhou",,37.38024,118.026895,169,72,5,28,6,5,4,3,1028,83,0,20141108170000
401,"Beizhong new school, Binzhou",,37.38374,117.988996,158,80,12,27,3,11,4,3,1028,83,0,20141108170000
402,"No.2 water factory, Binzhou",,37.36155,118.002648,193,114,5,28,12,18,4,3,1028,83,0,20141108170000
403,"Keling Chemical factory, Binzhou",,37.396138,117.943609,170,73,6,8,12,16,4,3,1028,83,0,20141108170000
404,"Yinhe logistics company, Binzhou",,37.356122,117.943326,180,94,6,19,18,12,4,3,1028,83,0,20141108170000
405,"Bilin compond, Binzhou",,37.36815,117.978964,175,90,6,47,4,16,4,3,1028,83,0,20141108170000
406,Binzhou,,37.382639,117.976606,169,72,5,28,6,5,4,3,1028,83,0,20141108170000
407,"Bureau of Meteorology, Heze",,35.248625,115.428775,204,141,10,29,9,17,7,0,0,57,1,20141108170000
408,"Sewage treatment plant, Heze",,35.222517,115.531511,189,193,2,34,14,23,7,0,0,57,1,20141108180000
409,"Municipal CPPCC, Heze",,35.237125,115.480591,195,156,7,33,21,17,7,0,0,57,1,20141108180000
410,"Huarun Pharmaceutical Company, Heze",,35.261463,115.524873,200,226,3,22,12,17,7,0,0,57,1,20141108180000
411,"Heze University, Heze",,35.269706,115.460934,192,126,8,33,18,21,7,0,0,57,1,20141108180000
412,Heze,,35.233354,115.486503,204,141,10,29,9,17,7,0,0,57,1,20141108180000
413,"Shiji Park, Shijiazhuang",,38.03155,114.547873,169,101,5,25,5,15,2,2,1028,100,1,20141108180000
414,"Xinan College, Shijiazhuang",,38.012764,114.473163,175,88,2,16,8,8,2,2,1028,100,1,20141108180000
415,"Chemical College, Shijiazhuang",,38.055503,114.569816,177,87,1,22,5,11,2,2,1028,100,1,20141108180000
416,"Worker hospital, Shijiazhuang",,38.051784,114.461209,181,117,7,36,12,14,3,3,1028,100,2,20141108180000
417,"Northwest Water Company, Shijiazhuang",,38.140638,114.508038,185,129,1,29,8,13,2,2,1028,100,1,20141108180000
418,"High-tech zone, Shijiazhuang",,38.040482,114.610775,185,126,3,41,16,14,2,2,1028,100,1,20141108180000
419,"Fenglong Montain, Shijiazhuang",,37.910829,114.360264,155,79,21,14,18,8,2,2,1028,100,1,20141108180000
1130,"Zhengding Unicom, Shijiazhuang",,38.159458,114.59879,232,156,3,32,8,16,2,2,1028,100,1,20141108180000
1131,"Luancheng Communications, Shijiazhuang",,37.906534,114.638785,195,142,13,30,19,7,2,2,1028,100,1,20141108180000
1132,"Gaocheng Experimental School, Shijiazhuang",,38.039518,114.867812,187,108,7,23,22,13,2,2,1028,100,1,20141108180000
1133,"Wuji EPA, Shijiazhuang",,38.17862,114.997012,200,121,5,28,9,12,2,2,1028,100,1,20141108180000
1134,"Shenze Power Supply Bureau, Shijiazhuang",,38.197674,115.219126,225,164,5,34,48,16,2,2,1028,100,1,20141108180000
1135,"Zhaoxian EPA, Shijiazhuang",,37.77171,114.775957,191,121,7,33,28,13,2,2,1028,100,1,20141108180000
1136,"Gaoyi County City Hall, Shijiazhuang",,37.623535,114.612729,205,134,3,32,16,18,2,2,1028,100,1,20141108180000
1137,"Zanhuang County City Hall, Shijiazhuang",,37.672898,114.398269,163,87,4,22,4,10,2,2,1028,100,1,20141108180000
1138,"Jingxing Bureau of Meteorology, Shijiazhuang",,38.038788,114.158406,179,97,1,19,12,11,2,2,1028,100,1,20141108180000
1139,"Pingshan Ye River, Shijiazhuang",,38.266657,114.210275,177,101,3,21,4,10,2,2,1028,100,1,20141108180000
420,Shijiazhuang,,38.042926,114.520834,185,108,1,28,10,7,2,2,1028,100,1,20141108180000
421,"No. 12 middle school, Tangshan",,39.659306,118.190271,,,,,,,-,-,0,-,-,20141108180000
422,"Ceramics Company, Tangshan",,39.669255,118.225185,181,123,15,21,8,11,7,2,1028,71,2,20141108180000
423,"Commodities Bureau, Tangshan",,39.642301,118.191265,181,98,11,19,13,10,7,2,1028,71,2,20141108180000
424,"Leidazhanzi Station, Tangshan",,39.644375,118.150383,179,102,7,35,7,15,7,2,1028,71,2,20141108180000
425,"Supply and marketing cooperatives, Tangshan",,39.632334,118.17232,170,91,14,32,8,15,7,2,1028,71,2,20141108180000
1140,"Guye District City Hall, Tangshan",,39.741379,118.460246,177,115,5,23,9,25,7,2,1028,71,2,20141108180000
1141,"Kaiping Stations, Tangshan",,39.675246,118.275149,170,77,10,26,11,12,7,2,1028,71,2,20141108180000
1142,"Fengnan District City Hall, Tangshan",,39.5834,118.097454,180,104,22,28,4,9,7,2,1028,71,2,20141108180000
1143,"Fengrun City Hall, Tangshan",,39.840355,118.175338,76,107,10,30,13,16,7,2,1028,71,2,20141108180000
1144,"Qianxi EPA, Tangshan",,40.153339,118.317265,165,79,5,29,7,21,7,2,1028,71,2,20141108180000
1145,"Caofeidian Xinli  Primary School, Tangshan",,39.291232,118.462182,189,115,13,43,21,8,7,2,1028,71,2,20141108180000
1146,"Zunhua EPA, Tangshan",,40.206249,117.997315,173,92,5,33,5,16,7,2,1028,71,2,20141108180000
1147,"Qianan No.1 middle school, Tangshan",,40.004248,118.717055,177,92,7,33,15,27,7,2,1028,71,2,20141108180000
1266,"Luannan County , Tangshan",,39.511132,118.686928,173,90,12,35,11,14,7,2,1028,71,2,20141108180000
1267,"Yutian County , Tangshan",,39.908249,117.751417,172,97,18,22,11,12,7,2,1028,71,2,20141108180000
426,Tangshan,,39.632175,118.186472,181,98,11,19,13,10,-,-,0,-,-,20141108180000
427,"City Monitoring Station, Qinhuangdao",,39.958109,119.607773,180,116,8,50,37,27,,,0,,,20141108180000
428,"Beidaihe, Qinhuangdao",,39.829209,119.53194,163,97,4,39,26,37,,,0,,,20141108180000
429,"Shanhai Pass, Qinhuangdao",,40.019298,119.767898,174,100,1,38,12,28,,,0,,,20141108180000
430,"Contruction Plazz, Qinhuangdao",,39.943187,119.542912,173,124,15,30,23,19,,,0,,,20141108180000
431,"City government, Qinhuangdao",,39.93711,119.612769,171,106,6,28,21,21,,,0,,,20141108180000
1148,"Qinglong EPA, Qinhuangdao",,40.419223,118.958002,127,59,13,12,23,11,,,0,,,20141108180000
1149,"Changli EPA, Qinhuangdao",,39.714369,119.173237,179,121,11,67,48,30,,,0,,,20141108180000
1268,"Lulong County Bureau of Meteorology , Qinhuangdao",,39.901091,118.904857,195,115,23,1,25,13,,,0,,,20141108180000
432,Qinhuangdao,,39.936485,119.606263,171,106,6,28,21,21,,,0,,,20141108180000
433,"CongTai Park, Handan",,36.620197,114.501891,190,120,1,12,23,7,,,0,,,20141108180000
434,"City EPA, Handan",,36.618145,114.518822,241,104,6,33,23,15,,,0,,,20141108180000
435,"East Sewage Factory, Handan",,36.616064,114.548714,178,107,1,36,20,7,,,0,,,20141108180000
436,"Mine Hospital, Handan",,36.578149,114.509854,189,110,2,28,7,8,,,0,,,20141108180000
1150,"Fengfeng mine Inland Revenue Department, Handan",,36.423085,114.245994,200,117,4,21,36,3,,,0,,,20141108180000
1151,"Shexian EPA, Handan",,36.589084,113.692341,185,118,6,23,3,21,,,0,,,20141108180000
1152,"Ci County Vocational Education Center, Handan",,36.380247,114.390119,198,160,4,32,35,16,,,0,,,20141108180000
1153,"Yongnian government guesthouse, Handan",,36.783297,114.502905,204,163,1,31,1,14,,,0,,,20141108180000
1154,"Wuan BDA, Handan",,36.686223,114.269009,189,142,2,24,13,13,,,0,,,20141108180000
1085,Handan,,36.625683,114.544812,178,107,1,36,20,7,,,0,,,20141108180000
437,"Road and Bridge Corporation, Xingtai",,37.096415,114.538799,190,123,1,33,23,19,5,4,1029,92,1,20141108180000
438,"Dahuo fontain, Xingtai",,37.097563,114.488001,186,109,1,16,5,22,5,4,1029,92,1,20141108180000
439,"Xingtai Normal College, Xingtai",,37.053404,114.531819,209,140,3,33,35,19,5,4,1029,92,1,20141108180000
440,"Environment protection office, Xingtai",,37.06253,114.490985,185,121,1,28,14,21,5,4,1029,92,1,20141108180000
1155,"Cultural centers within the mound, Xingtai",,37.293569,114.524873,178,108,2,21,2,35,5,4,1029,92,1,20141108180000
383,Xingtai,,37.071066,114.510749,185,121,1,28,14,21,5,4,1029,92,1,20141108180000
441,"City Monitoring Station, Baoding",,38.871737,115.527103,213,117,10,28,10,0,3,2,1028,87,1,20141108180000
442,"Surface water Company, Baoding",,38.842891,115.467326,224,128,5,30,10,16,3,2,1028,87,1,20141108180000
443,"Huadian II, Baoding",,38.896748,115.528102,193,105,6,29,24,1,3,2,1028,87,1,20141108180000
444,"Reception Center, Baoding",,38.911905,115.477301,214,119,5,24,15,7,3,2,1028,87,1,20141108180000
445,"Film Factory, Baoding",,38.876949,115.448383,184,142,5,27,3,13,3,2,1028,87,1,20141108180000
446,"Natatorium, Baoding",,38.863815,115.499212,184,135,5,29,11,12,3,2,1028,87,1,20141108180000
1156,"Qingyuan City Hall, Baoding",,38.771758,115.502189,203,132,4,26,3,15,3,2,1028,87,1,20141108180000
1157,"Xushui EPA, Baoding",,39.025781,115.668023,209,125,4,25,3,14,3,2,1028,87,1,20141108180000
1158,"Zhouzhou Monitoring Stations, Baoding",,39.493241,116.040187,174,101,9,20,8,9,3,2,1028,87,1,20141108180000
1159,"Gaobeidian EPA, Baoding",,39.3329,115.885891,198,119,6,28,37,12,3,2,1028,87,1,20141108180000
447,Baoding,,38.874791,115.471124,184,142,5,27,3,13,3,2,1028,87,1,20141108180000
448,"Century Compound, Zhangjiakou",,40.770279,114.909106,61,20,8,6,6,8,-1,-12,1031,27,2,20141108180000
449,"North Pumping Station, Zhangjiakou",,40.874362,114.910119,70,14,15,3,4,8,-1,-12,1031,27,2,20141108180000
450,"Hardware Warehouse, Zhangjiakou",,40.81232,114.887119,65,25,35,10,20,18,-1,-12,1031,27,2,20141108180000
451,"Tanji Chang, Zhangjiakou",,40.796301,114.89811,25,13,11,5,15,7,-1,-12,1031,27,2,20141108180000
1160,"Xiahuayuan EPA, Zhangjiakou",,40.509345,115.302442,99,45,18,17,41,2,-1,-12,1031,27,2,20141108180000
1161,"Huaian EPA, Zhangjiakou",,40.68157,114.398646,78,40,10,44,7,11,-1,-12,1031,27,2,20141108180000
1162,"Huailai Fuqian Primary School, Zhangjiakou",,40.422204,115.530285,154,62,7,22,1,10,-1,-12,1031,27,2,20141108180000
1269,"Zhangbei EPA , Zhangjiakou",,41.166775,114.732369,159,62,5,17,9,13,-1,-12,1031,27,2,20141108180000
1270,"Kangbao County Environmental Protection Agency , Zhangjiakou",,41.837866,114.591246,99,51,19,9,12,4,-1,-12,1031,27,2,20141108180000
1271,"Guyuan County welfare , Zhangjiakou",,41.669984,115.687401,95,36,14,5,3,8,-1,-12,1031,27,2,20141108180000
1272,"Shangyi County Environmental Protection Bureau , Zhangjiakou",,41.086638,113.984688,97,55,8,12,10,11,-1,-12,1031,27,2,20141108180000
1273,"Yuxian Secondary School , Zhangjiakou",,39.84699,114.601986,166,103,15,30,37,17,-1,-12,1031,27,2,20141108180000
1274,"Yang County Vocational Education Center , Zhangjiakou",,40.106343,114.134732,122,54,17,5,11,11,-1,-12,1031,27,2,20141108180000
1275,"Wan county Environmental Protection Agency , Zhangjiakou",,40.770459,114.75033,55,24,24,9,3,5,-1,-12,1031,27,2,20141108180000
473,"Nankou road, Tianjin",,39.174022,117.199688,177,84,7,38,18,15,7,2,1028,71,2,20141108180000
1276,"Zhuolu County Environmental Protection Agency , Zhangjiakou",,40.374273,115.221393,144,53,12,2,11,15,-1,-12,1031,27,2,20141108180000
452,Zhangjiakou,,40.825744,114.893659,57,13,13,2,14,3,-1,-12,1031,27,2,20141108180000
453,"Railway, Chengde",,40.917557,117.972331,76,51,4,19,11,7,-2,-11,1029,35,1,20141108180000
454,"Cultural Center, Chengde",,40.974625,117.824437,119,55,2,20,8,12,-2,-11,1029,35,1,20141108180000
455,"Bank of China, Chengde",,40.985582,117.958304,166,65,2,23,10,9,-2,-11,1029,35,1,20141108180000
456,"BDA, Chengde",,40.937567,117.969325,124,81,5,22,9,6,-2,-11,1029,35,1,20141108180000
457,"Ligong, Chengde",,41.012579,117.94428,151,31,15,20,9,5,-2,-11,1029,35,1,20141108180000
1163,"Chengde County EPA, Chengde",,40.776643,118.17646,129,59,2,23,7,18,-2,-11,1029,35,1,20141108180000
1164,"Xinglong County City Hall, Chengde",,40.424301,117.513488,119,58,8,21,6,20,-2,-11,1029,35,1,20141108180000
1165,"Luanping EPA, Chengde",,40.950792,117.350715,117,49,4,27,6,13,-2,-11,1029,35,1,20141108180000
1166,"Fengning County City Hall, Chengde",,41.216739,116.658037,57,74,9,22,27,31,-2,-11,1029,35,1,20141108180000
1277,"Longhua EPA , Chengde",,41.311956,117.739605,132,50,6,20,17,11,-2,-11,1029,35,1,20141108180000
458,Chengde,,40.955652,117.968737,124,81,5,22,9,6,-2,-11,1029,35,1,20141108180000
459,"Municipal EPB, Cangzhou",,38.323507,116.876746,153,93,8,25,7,10,7,2,1028,71,2,20141108180000
460,"Cangxian Urban Construction Bureau, Cangzhou",,38.299495,116.890734,181,84,5,23,7,8,7,2,1027,71,2,20141108180000
461,"TV Broadcast Station, Cangzhou",,38.325525,116.863761,178,85,10,13,13,9,7,2,1027,71,2,20141108180000
1167,"Qing County City Hall, Cangzhou",,38.589643,116.815876,182,63,2,28,33,12,7,2,1028,71,2,20141108180000
1168,"Poyoushi City Hall, Cangzhou",,38.089516,116.590575,188,96,12,10,3,14,7,2,1028,71,2,20141108180000
1169,"Huanghua Finance Bureau Training Center, Cangzhou",,38.377793,117.343356,169,94,1,31,12,3,7,2,1028,71,2,20141108180000
462,Cangzhou,,38.305035,116.844625,178,85,10,13,13,9,7,2,1027,71,2,20141108180000
463,"Environmental Monitoring Supervision Center, Langfang",,39.558157,116.720995,183,97,11,28,6,9,7,2,1028,71,2,20141108180000
464,"TCM Medical Material Company, Langfang",,39.519096,116.689914,183,101,9,34,4,12,7,2,1028,71,2,20141108180000
465,"BDA, Langfang",,39.576175,116.779041,170,92,9,30,8,12,7,2,1028,71,2,20141108180000
466,"North China Institute of Aerospace, Langfang",,39.53517,116.743027,173,96,12,20,4,11,7,2,1028,71,2,20141108180000
1170,"Guan Party School, Langfang",,39.446185,116.311026,185,119,10,35,4,9,7,2,1028,71,2,20141108180000
1171,"Xianghe EPA, Langfang",,39.76725,117.015252,190,102,14,36,6,14,7,2,1028,71,2,20141108180000
1172,"Wenan County EPA, Langfang",,38.880927,116.47001,264,128,17,32,14,8,7,2,1028,71,2,20141108180000
1173,"Three Rivers Department of Transportation, Langfang",,39.989419,117.091528,198,140,12,26,4,16,7,2,1028,71,2,20141108180000
1278,"Yongqing EPA , Langfang",,39.329071,116.510917,192,118,7,25,3,9,7,2,1028,71,2,20141108180000
1279,"Dacheng EPA, Langfang",,38.712628,116.665751,192,113,15,37,14,10,7,2,1028,71,2,20141108180000
467,Langfang,,39.539148,116.689668,183,101,9,34,4,12,7,2,1028,71,2,20141108180000
468,"Hengshui City EPB, Hengshui",,37.739679,115.695929,180,106,8,39,7,11,5,1,0,74,1,20141108180000
469,"Environmental Monitoring Station, Hengshui",,37.738593,115.648837,185,102,12,29,5,10,5,1,0,71,1,20141108180000
470,"Electrical Machine North Factory, Hengshui",,37.758686,115.70094,193,119,8,21,10,11,5,1,0,74,1,20141108180000
1174,"Anping EPA, Hengshui",,38.238559,115.537988,231,137,5,30,20,15,5,1,0,71,1,20141108180000
1175,"Jizhou EPA, Hengshui",,37.548552,115.58679,182,97,7,33,11,10,5,1,0,71,1,20141108180000
1280,"Zaoqiang EPA, Hengshui",,37.520698,115.714936,190,111,39,22,25,12,5,1,0,71,1,20141108180000
1281,"Wuyi EPA, Hengshui",,37.801554,115.898697,187,118,15,28,33,9,5,1,0,71,1,20141108180000
1282,"Wuqiang EPA , Hengshui",,38.03557,115.959767,189,103,5,1,18,12,5,1,0,71,1,20141108180000
1283,"Raoyang EPA , Hengshui",,38.230652,115.741041,200,139,7,1,17,14,5,1,0,71,1,20141108180000
1284,"Gucheng County , Hengshui",,37.347569,115.966707,175,86,13,26,17,31,5,1,0,71,1,20141108180000
471,Hengshui,,37.739562,115.676066,193,119,8,21,10,11,5,1,0,74,1,20141108180000
1176,"Xinji City Hall, Xinji",,37.949711,115.230084,191,128,6,21,12,13,5,1,0,71,1,20141108180000
474,"Qinjian street, Tianjin",,39.166588,117.15104,180,90,8,38,20,13,7,2,1028,71,2,20141108180000
475,"Nanjing Road, Tianjin",,39.120958,117.195112,176,85,7,34,18,12,7,2,1028,71,2,20141108180000
476,"Dazhigu No.8 road, Tianjin",,39.111811,117.25147,176,89,12,25,16,15,7,2,1028,71,2,20141108180000
477,"Qianjin street, Tianjin",,39.09371,117.207981,177,81,10,34,13,11,7,2,1028,71,2,20141108180000
478,"Huaihe street, Tianjin",,39.227167,117.191293,187,87,4,30,7,9,7,2,1028,71,2,20141108180000
479,"Xiangshan street, Tianjin",,39.134752,117.275125,175,77,7,38,9,15,7,2,1028,71,2,20141108180000
480,"Yuejin Road, Tianjin",,39.088177,117.320884,169,91,8,42,14,17,7,2,1028,71,2,20141108180000
481,"Zhujiang street, Tianjin",,39.064463,117.231268,-,-,-,-,-,-,-,-,0,-,-,20141108180000
482,"No.4 street, Tianjin",,39.035228,117.713424,173,72,8,27,10,17,7,2,1028,71,2,20141108180000
483,"Yongming road, Tianjin",,38.840392,117.463805,168,79,9,33,17,14,7,2,1028,71,2,20141108180000
484,"Xinhua street, Tianjin",,39.138671,117.010083,182,99,4,19,18,13,7,2,1028,71,2,20141108180000
485,"Jingu Road, Tianjin",,38.985659,117.381254,185,86,5,34,9,11,7,2,1028,71,2,20141108180000
486,"Tanggu Yingkou street, Tianjin",,39.021768,117.656454,168,67,7,20,2,12,7,2,1028,71,2,20141108180000
487,"Hexi Yijing road, Tianjin",,39.248392,117.798043,177,50,17,38,9,9,7,2,1028,71,2,20141108180000
488,"Jianshe Road, Tianjin",,39.720075,117.310588,169,79,10,30,6,16,7,2,1028,71,2,20141108180000
489,"Quanzhou South road, Tianjin",,39.373857,117.050329,172,73,11,28,14,19,7,2,1028,71,2,20141108180000
490,"Donghuan road, Tianjin",,40.043144,117.451062,175,113,4,38,7,29,7,2,1028,71,2,20141108180000
491,"Tuanpowa, Tianjin",,38.920418,117.16299,193,92,16,24,4,9,7,2,1028,71,2,20141108180000
493,"Beiwei No.2 road, Tianjin",,38.943857,116.920624,187,96,4,20,8,14,7,2,1028,71,2,20141108180000
494,"Haitai fazhan No.2 road, Tianjin",,39.079608,117.096583,187,94,8,34,10,17,7,2,1028,71,2,20141108180000
495,"Hangtian road, Tianjin",,39.152244,117.381309,174,87,6,41,19,14,7,2,1028,71,2,20141108180000
496,"Hanbei road, Tianjin",,39.159768,117.770477,177,78,13,33,13,18,7,2,1028,71,2,20141108180000
497,"Baobai highway, Tianjin",,39.51757,117.349635,183,112,13,14,5,12,7,2,1028,71,2,20141108180000
498,Tianjin,,39.085164,117.207281,177,81,10,34,13,11,7,2,1028,71,2,20141108180000
499,"Wolong bridge, Hangzhou",,30.24371,120.132762,89,21,15,12,4,6,12,9,1026,82,2,20141108180000
500,"Hemu primary school, Hangzhou",,30.309669,120.124507,97,20,15,17,7,8,12,9,1027,82,2,20141108180000
501,"Zhejiang Agricultural University, Hangzhou",,30.265601,120.197583,107,33,16,19,11,5,12,9,1027,82,2,20141108180000
502,"Xiasha, Hangzhou",,30.303516,120.352618,127,31,12,16,7,4,12,9,1027,82,2,20141108180000
503,"Yunqi, Hangzhou",,30.178555,120.093142,59,17,15,10,3,4,12,9,1027,82,2,20141108180000
504,"Xixi, Hangzhou",,30.272425,120.068144,95,17,15,17,5,7,12,9,1027,82,2,20141108180000
505,"Chengxiang town, Hangzhou",,30.179493,120.274184,107,39,13,18,10,5,12,9,1027,82,2,20141108180000
506,"Qiandao lake, Hangzhou",,29.638139,119.031092,30,15,28,6,4,4,12,9,1027,82,2,20141108180000
507,"Linping town, Hangzhou",,30.415948,120.305059,122,35,21,16,13,6,12,9,1027,82,2,20141108180000
509,"No.2 Middle School, Hangzhou",,30.044303,119.956356,97,45,19,10,4,8,12,9,1027,82,2,20141108180000
510,"City Hall, Hangzhou",,30.234185,119.723503,42,18,41,6,3,8,12,9,1027,82,2,20141108180000
511,"No. 4 middle school, Hangzhou",,30.229428,119.699591,61,23,9,16,7,12,12,9,1027,82,2,20141108180000
512,Hangzhou,,30.271756,120.159765,114,34,13,19,5,7,12,9,1027,82,2,20141108180000
513,"City Station, Wenzhou",,28.009715,120.679129,80,31,8,26,5,8,14,13,0,92,3,20141108180000
514,"Ouhai, Wenzhou",,28.001846,120.641982,55,18,6,21,5,10,14,13,0,92,3,20141108180000
515,"Longwan, Wenzhou",,27.968122,120.768393,61,20,7,20,4,7,14,13,0,92,3,20141108180000
516,"Nanpu, Wenzhou",,27.981763,120.683685,70,27,4,26,6,12,14,13,0,92,3,20141108180000
517,Wenzhou,,27.990985,120.703425,70,27,4,26,6,12,14,13,0,92,3,20141108180000
518,"Monitoring station, Jiaxing",,30.75437,120.767373,80,32,20,15,10,3,14,11,1026,82,4,20141108180000
519,"Jiaxing University, Jiaxing",,30.745099,120.735004,102,0,17,22,8,4,14,11,1026,82,4,20141108180000
520,"Qinghe Primary School, Jiaxing",,30.775685,120.747969,91,33,18,22,11,5,14,11,1026,82,4,20141108180000
521,Jiaxing,,30.751627,120.762862,80,32,20,15,10,3,14,11,1026,82,4,20141108180000
522,"Chengbei water plant, Huzhou",,30.891155,120.096593,74,21,17,15,4,8,14,11,1026,82,4,20141108180000
523,"Jishan new village, Huzhou",,30.859939,120.120168,93,0,18,15,6,10,14,11,1026,82,4,20141108180000
524,"Town west water plant, Huzhou",,30.862371,120.084577,78,26,18,29,6,9,14,11,1026,82,4,20141108180000
525,Huzhou,,30.892304,120.091694,74,21,17,15,4,8,14,11,1026,82,4,20141108180000
526,"Donghu middle school, Shaoxing",,29.990447,120.647547,55,51,13,21,13,5,12,9,1027,82,2,20141108180000
527,"City EPA station, Shaoxing",,30.001695,120.584318,95,51,9,21,13,4,12,9,1027,82,2,20141108180000
528,"Chengdong BDA committee, Shaoxing",,29.986643,120.613578,144,53,10,13,10,5,12,9,1027,82,2,20141108180000
529,"Paojiang station, Shaoxing",,30.07574,120.62154,89,38,13,15,10,5,12,9,1027,82,2,20141108180000
530,"Shaoxing technical school, Shaoxing",,29.930983,120.577131,102,50,12,19,12,6,12,9,1027,82,2,20141108180000
531,"Library, Shaoxing",,29.706266,120.253183,97,36,8,14,6,8,12,9,1027,82,2,20141108180000
532,"Transporation management station, Shaoxing",,29.726405,120.221602,87,0,10,6,5,8,12,9,1027,82,2,20141108180000
533,"Dongpu Town Governement, Shaoxing",,30.049601,120.539893,107,44,13,12,16,4,12,9,1027,82,2,20141108180000
534,Shaoxing,,29.993122,120.590182,95,51,9,21,13,4,-,-,0,-,-,20141108180000
535,"City Monitoring Station, Jinhua",,29.100031,119.690373,63,27,7,20,9,9,11,10,0,95,1,20141108180000
536,"No.15 middle school, Jinhua",,29.074022,119.652121,89,30,7,22,7,6,11,10,0,95,1,20141108180000
537,"No.4 middle school, Jinhua",,29.110109,119.653654,87,26,6,19,12,6,11,10,0,95,1,20141108180000
538,"Beiyuan, Jinhua",,29.332898,120.083351,78,32,8,12,7,14,11,10,0,95,1,20141108180000
539,"Jiangdong, Jinhua",,29.302486,120.095291,74,27,8,15,6,12,11,10,0,95,1,20141108180000
540,Jinhua,,29.076083,119.65215,89,30,7,22,7,6,11,10,0,95,1,20141108180000
541,"EPA building, Quzhou",,28.937291,118.876081,63,21,10,12,8,8,13,12,1026,93,3,20141108180000
542,"Experimental school, Quzhou",,28.961502,118.880916,59,18,13,12,4,7,13,12,1026,93,3,20141108180000
543,"Quzhou University, Quzhou",,28.971452,118.860052,61,23,5,17,5,9,13,12,1026,93,3,20141108180000
544,Quzhou,,28.966994,118.864252,61,23,5,17,5,9,13,12,1026,93,3,20141108180000
545,"Putuo east port, Zhoushan",,29.951412,122.317679,34,16,34,1,1,4,14,12,1024,88,3,20141108180000
546,"Dinghai tanfeng, Zhoushan",,30.018014,122.126566,34,16,37,2,1,3,14,12,1024,88,3,20141108180000
547,Zhoushan,,29.983049,122.210763,57,19,31,3,2,4,14,12,1024,88,3,20141108180000
548,"Taizhou EPA building, Taizhou",,28.651216,121.42331,42,12,10,7,2,5,14,13,0,95,2,20141108180000
549,"Luqiao Tian Yang Wang, Taizhou",,28.574364,121.381194,61,23,13,12,2,7,14,13,0,95,2,20141108180000
550,"Huangyan EPA building, Taizhou",,28.656151,121.285064,-,-,-,-,-,-,-,-,0,-,-,20141108180000
551,"Yu Zhuang Qian, Lishui",,28.419638,119.883884,80,32,9,28,3,7,14,13,1025,86,2,20141108180000
552,"Monitoring station building, Lishui",,28.444379,119.923103,63,20,5,22,3,6,14,13,1025,86,2,20141108180000
553,"Liandu primary school, Lishui",,28.450912,119.939332,74,26,8,20,2,8,14,13,1025,86,2,20141108180000
554,Lishui,,28.464224,119.927201,63,20,5,22,3,6,14,13,1025,86,2,20141108180000
555,Taigu Primary School,,29.864178,121.60022,74,36,17,15,3,4,14,12,1024,88,3,20141108180000
556,Qianhu shuihan,,29.862459,121.5328,85,46,14,14,4,7,14,12,1024,88,3,20141108180000
557,Sanjiang secondary schools,,29.891563,121.568427,99,44,20,24,5,6,14,12,1024,88,3,20141108180000
558,Longsai Hospital,,29.957301,121.726734,55,20,32,16,8,5,14,12,1024,88,3,20141108180000
559,Beilun District EPB,,29.911633,121.850773,53,20,21,12,4,5,14,12,1024,88,3,20141108180000
560,Wanli University,,29.821314,121.574364,91,43,19,7,10,6,14,12,1024,88,3,20141108180000
561,Qianhu water plant,,29.774416,121.648136,87,30,27,13,5,7,14,12,1024,88,3,20141108180000
562,Municipal management station,,29.899182,121.626691,89,38,21,11,3,6,14,12,1024,88,3,20141108180000
1177,Daxie Literary Museum,,29.9027,121.986447,50,27,30,6,4,4,14,12,1024,88,3,20141108180000
1178,Cixi EPB,,30.165807,121.248991,97,38,16,15,5,6,14,12,1024,88,3,20141108180000
1179,Cixi Experimently Primary School,,30.179808,121.268672,82,40,17,29,4,6,14,12,1024,88,3,20141108180000
1180,"Yongsan Park, Yuyao",,30.050842,121.162477,82,32,12,32,4,8,14,12,1024,88,3,20141108180000
1181,"Qilupu Water Company, Yuyao",,30.039112,121.133416,85,30,15,19,7,6,14,12,1024,88,3,20141108180000
1182,Fenghua EPB,,29.666557,121.42069,76,21,19,31,3,6,14,12,1024,88,3,20141108180000
1183,"Yuelong station, Ninghai",,29.296505,121.445872,50,17,18,7,3,4,14,12,1024,88,3,20141108180000
1184,"Wenfeng Primary School, Xiangshan",,29.470908,121.889544,65,22,24,6,4,5,14,12,1024,88,3,20141108180000
1185,"Chengnan Primary School, Ninghai",,29.293812,121.43666,55,9,20,7,4,5,14,12,1024,88,3,20141108180000
1186,"Xingang Primary School, Xiangshan",,29.203878,121.952514,53,33,30,6,3,4,14,12,1024,88,3,20141108180000
1356,Haishu City Monitoring Center,,29.86835,121.539341,102,54,15,16,5,7,14,12,1024,88,3,20141108180000
1357,Fenghua Xikou government,,29.693164,121.29331,61,19,21,16,2,6,14,12,1024,88,3,20141108180000
1294,Ningbo,,29.865766,121.548164,89,38,21,11,3,6,14,12,1024,88,3,20141108180000
1187,Fuyang,,30.046157,119.96468,97,45,19,10,4,8,-,-,0,-,-,20141108180000
1188,Yiwu,,29.304353,120.079794,78,32,8,15,7,14,-,-,0,-,-,20141108180000
1189,Zhuji,,29.711185,120.240748,97,36,10,14,6,8,12,9,1027,82,2,20141108180000
563,"Shanxi Road , Nanjing",,32.06795,118.779216,124,56,7,27,6,0,11,10,1028,94,1,20141108180000
564,"Ruijin Road , Nanjing",,32.029321,118.80817,129,52,4,31,10,0,11,10,1028,94,1,20141108180000
565,"Xuanwu Lake, Nanjing",,32.075423,118.800188,127,52,6,24,6,0,11,10,1028,94,1,20141108180000
566,"Olympic Center, Nanjing",,32.007171,118.742217,144,63,7,15,3,0,11,10,1027,94,2,20141108180000
567,"Xianlin University Town , Nanjing",,32.106958,118.919882,139,60,7,26,5,0,11,10,1028,94,1,20141108180000
568,Nanjing,,32.058179,118.802061,117,58,5,26,7,0,11,10,1028,94,1,20141108180000
569,"Shangfang hill , Suzhou",,31.24502,120.565211,152,72,7,28,10,0,14,11,1026,82,4,20141108180000
570,"Wuzhong District , Suzhou",,31.268105,120.61717,-,-,-,-,-,-,-,-,0,-,-,20141108180000
571,"Suzhou New District , Suzhou",,31.297277,120.547262,132,47,9,30,24,0,14,11,1026,82,4,20141108180000
572,"Suzhou Industrial Area, Suzhou",,31.307603,120.673257,134,56,13,31,20,0,14,11,1026,82,4,20141108180000
573,"Xiangcheng district, Suzhou",,31.368674,120.645209,137,54,12,24,21,0,14,11,1026,82,4,20141108180000
574,Suzhou,,31.296701,120.589493,157,72,9,31,24,0,14,11,1026,82,4,20141108180000
575,"South suburb , Nantong",,31.957836,120.917218,99,24,23,8,6,0,12,9,0,83,3,20141108180000
576,"Xinghu park, Nantong",,31.927873,120.944254,97,41,22,8,7,0,12,9,0,83,3,20141108180000
577,"Zilang school, Nantong",,32.039638,120.814358,107,50,23,12,6,0,12,9,0,83,3,20141108180000
578,Nantong,,31.978005,120.898555,107,50,23,16,7,0,12,9,0,83,3,20141108180000
579,Lianyungang,,34.595509,119.226814,152,84,21,27,10,7,8,8,1016,96,0,20141108180000
580,"Hongmen police substation, Lianyungang",,34.588692,119.146693,155,150,-,30,11,0,5,4,1028,88,0,20141108180000
581,"Xugou Nuclear Expert Village , Lianyungang",,34.749957,119.373707,80,76,-,23,17,0,5,4,1028,88,0,20141108180000
582,"Hengrui pharmaceutical company, BDA, Lianyungang",,34.697574,119.353668,107,67,12,25,8,0,5,4,1028,88,0,20141108180000
583,"City Monitoring Station, Lianyungang",,34.586791,119.186929,151,88,3,16,12,0,5,4,1028,88,0,20141108180000
584,"Yellow river new village , Xuzhou",,34.271542,117.177241,172,120,4,27,30,0,6,4,1029,88,1,20141108180000
585,"Tongshan Veterinary Hospital , Xuzhou",,34.307086,117.197766,165,138,3,31,28,0,6,4,1029,88,1,20141108180000
586,"New Town , Xuzhou",,34.213992,117.261718,163,78,4,26,4,0,6,4,1029,88,1,20141108180000
587,"Taoyuan road, Xuzhou",,34.289822,117.249721,171,92,5,32,13,0,6,4,1029,88,1,20141108180000
588,"Agricultural Science Academy , Xuzhou",,34.27655,117.299079,173,114,2,2,19,0,6,4,1029,88,1,20141108180000
589,"Tongshan EPA, Xuzhou",,34.179384,117.171798,155,94,2,14,11,0,6,4,1029,88,1,20141108180000
590,Xuzhou,,34.20346,117.289825,173,138,5,32,30,0,6,4,1029,88,1,20141108180000
591,Yangzhou,,32.39233,119.418446,159,69,10,19,10,5,11,9,0,90,6,20141108180000
592,"Hanjiang Monitoring Station, Yangzhou",,32.374218,119.394484,85,53,11,27,8,0,9,7,0,84,2,20141108180000
593,"No. 4 Hospital, Yangzhou",,32.401394,119.44444,137,60,5,4,12,0,9,7,0,84,2,20141108180000
594,"City Monitoring Station, Yangzhou",,32.406588,119.41591,119,61,5,6,18,0,9,7,0,84,2,20141108180000
595,"University Town , Wuxi",,31.484752,120.273571,122,57,7,17,14,0,14,11,1026,82,4,20141108180000
596,"Shibei High School , Wuxi",,31.619969,120.279584,155,63,7,24,15,0,14,11,1026,82,4,20141108180000
597,"Yuhong Elementary School , Wuxi",,31.561155,120.249588,154,61,10,19,15,0,14,11,1026,82,4,20141108180000
598,Wuxi,,31.488746,120.31575,161,64,10,24,16,0,-,-,0,-,-,20141108180000
599,Changzhou,,31.808037,119.979205,172,86,6,22,36,13,11,9,0,88,5,20141108180000
600,"Chengjian School, Changzhou",,31.776476,119.937681,134,53,12,15,10,0,11,9,0,88,3,20141108180000
601,"Changzhou Engineering Institute , Changzhou",,31.806828,119.966724,109,50,13,15,11,0,11,9,0,88,3,20141108180000
602,"Wujin Monitoring Station, Changzhou",,31.701788,119.939676,134,51,12,15,6,0,11,9,0,88,3,20141108180000
603,"City Monitoring Station, Changzhou",,31.777201,119.979426,112,46,9,18,7,0,11,9,0,88,3,20141108180000
604,Zhenjiang,,32.18597,119.431281,170,79,4,39,15,13,9,8,0,93,5,20141108180000
605,"New District Administrative office , Zhenjiang",,32.186174,119.685021,117,39,16,28,6,0,11,10,1028,94,1,20141108180000
606,"Vocational Education Center , Zhenjiang",,32.212973,119.496253,102,40,20,22,4,0,11,10,1028,94,1,20141108180000
607,"Dantu Monitoring Station , Zhenjiang",,32.130026,119.435432,99,55,10,28,7,0,11,10,1028,94,1,20141108180000
608,"City Monitoring Station, Zhenjiang",,32.202178,119.439766,85,54,12,33,7,0,11,10,1028,94,1,20141108180000
609,"Gaogang Adminstrative office , Taizhoushi",,32.300768,119.886757,153,66,9,10,12,0,9,7,0,84,2,20141108180000
610,"Students Innovation Park , Taizhoushi",,32.461672,119.892761,127,-,17,8,20,0,9,7,0,84,2,20141108180000
611,Taizhoushi,,32.453555,119.927852,153,66,17,16,12,0,9,7,0,84,2,20141108180000
612,"Yancheng power station , Yancheng",,33.400859,120.123067,68,31,22,13,4,0,,,0,,,20141108180000
613,Yancheng,,33.345939,120.168504,144,52,30,5,3,7,11,10,1016,95,4,20141108180000
614,"Wenfeng Middle School , Yancheng",,33.370531,120.134041,63,27,30,7,13,0,,,0,,,20141108180000
615,"BDA Management Committe, Yancheng",,33.393191,120.22978,53,23,24,11,6,0,,,0,,,20141108180000
616,"City Monitoring Station, Yancheng",,33.390623,120.164423,63,28,21,17,4,0,,,0,,,20141108180000
617,Suqian,,33.960666,118.281004,160,87,24,7,5,7,11,10,0,91,6,20141108180000
618,"Suqian College , Suqian",,33.951472,118.298523,89,57,6,26,8,0,8,6,0,86,1,20141108180000
619,"Suqian Middle School , Suqian",,33.95784,118.249505,102,81,3,32,7,0,8,6,0,87,1,20141108180000
620,"Suyu District Environmental Protection Agency , Suqian",,33.94932,118.326569,132,65,4,19,13,0,8,6,0,86,1,20141108180000
621,"City Monitoring Station, Suqian",,33.956982,118.277022,122,58,3,11,4,0,8,6,0,86,1,20141108180000
622,Taizhou,,28.653436,121.425185,42,12,10,7,2,5,14,13,0,95,2,20141108180000
623,Donghu Liyuan,,30.572324,114.377844,122,1,5,33,0,6,11,9,1027,88,1,20141108180000
624,Yuehu Lake,,30.554662,114.256937,99,1,4,0,0,4,11,9,1027,88,1,20141108180000
625,Hankou Huaqiao ,,30.61724,114.287652,102,1,6,0,0,4,11,9,1027,88,1,20141108180000
626,Wuchang Ziyang ,,30.530801,114.309438,129,52,3,32,16,4,11,9,1027,88,1,20141108180000
627,Qingshan Ganghua,,30.622435,114.375599,114,28,6,21,10,3,11,9,1027,88,1,20141108180000
628,Dunkou Xinou,,30.480091,114.162176,109,1,3,0,0,5,11,9,1027,88,1,20141108180000
629,Donghu Gaoxin,,30.48095,114.40724,95,1,3,0,0,5,11,9,1027,88,1,20141108180000
630,Wujianshan,,30.63114,114.135907,102,1,6,0,0,4,11,9,1027,88,1,20141108180000
631,Yuanshun Road,,30.297142,113.858587,95,1,5,0,0,2,11,9,1027,88,1,20141108180000
632,Wuhan,,30.590689,114.310838,104,51,6,33,12,6,11,9,1027,88,1,20141108180000
1190,"Silingsan Factory, Yichang",,30.713288,111.306585,1,1,7,0,0,6,12,8,1028,70,2,20141108180000
633,Yichang,,30.689528,111.292131,1,1,8,0,0,9,12,8,1028,70,2,20141108180000
633,Yichang,,30.689528,111.292131,1,1,8,0,0,9,12,8,1028,70,2,20141108180000
1191,"City Library , Jingzhou",,30.31494,112.260844,1,1,11,0,0,8,11,10,1026,86,0,20141108180000
1192,"City committee communist party school, Jingzhou",,30.35054,112.20743,1,1,6,0,0,9,11,10,1026,86,0,20141108180000
1193,"kerong EPA, Jingzhou",,30.302965,112.29443,1,1,17,0,0,9,11,10,1026,86,0,20141108180000
634,Jingzhou,,30.332608,112.245451,1,1,11,0,0,9,11,10,1026,86,0,20141108180000
634,Jingzhou,,30.332608,112.245451,1,1,11,0,0,9,11,10,1026,86,0,20141108180000
635,Huangshi,,30.19723,115.043908,109,54,12,11,8,19,11,,1027,100,2,20141108180000
635,Huangshi,,30.19723,115.043908,109,54,12,11,8,19,11,,1027,100,2,20141108180000
1194,"Chenjiaying, Huangshi",,30.232823,115.067923,82,53,9,14,10,19,11,,1027,100,2,20141108180000
1195,"Chenjiawan , Huangshi",,30.200422,115.082138,99,51,16,10,7,16,11,,1027,100,2,20141108180000
1196,"Xinxialu, Huangshi",,30.17332,114.954357,107,56,11,11,7,19,11,,1027,100,2,20141108180000
1197,"Tie montian, Huangshi",,30.203885,114.906439,154,58,7,12,13,19,11,,1027,100,2,20141108180000
1198,"BDA, Huangshi",,30.207491,115.031739,95,51,19,8,4,21,11,,1027,100,2,20141108180000
636,Shiyan,,32.627208,110.803311,167,81,6,17,7,9,6,,0,96,1,20141108180000
636,Shiyan,,32.627208,110.803311,167,81,6,17,7,9,6,,0,96,1,20141108180000
1199,"Wudang Mountain , Shiyan",,32.392921,111.047655,117,49,27,4,6,7,6,,0,96,1,20141108180000
1200,"Riverside Village , Shiyan",,32.647286,110.785335,162,75,10,24,7,6,6,,0,96,1,20141108180000
1201,"Liujiagou , Shiyan",,32.636732,110.731129,175,88,2,18,10,10,6,,0,96,1,20141108180000
637,Xiangyang,,32.007029,112.128496,102,50,20,7,5,9,9,,1027,81,1,20141108180000
638,Ezhou,,30.389244,114.899884,97,49,12,15,16,7,12,,1035,100,1,20141108180000
638,Ezhou,,30.389244,114.899884,97,49,12,15,16,7,12,,1035,100,1,20141108180000
1203,"City government, Ezhou",,30.391836,114.892822,99,39,15,17,15,7,12,,1035,100,1,20141108190000
1204,"Zhaojiaba, Ezhou",,30.368966,114.90365,85,51,9,10,5,6,12,,1035,100,1,20141108190000
1205,"Fankou BDA, Ezhou",,30.410759,114.818225,112,53,12,18,27,8,12,,1035,100,1,20141108190000
639,Jingmen,,31.033208,112.205093,155,67,21,16,19,4,10,,1019,92,1,20141108190000
639,Jingmen,,31.033208,112.205093,155,67,21,16,19,4,10,,1019,92,1,20141108190000
640,Xiaogan,,30.922089,113.922387,97,42,24,5,6,7,9,,1035,93,1,20141108190000
640,Xiaogan,,30.922089,113.922387,97,42,24,5,6,7,9,,1035,93,1,20141108190000
1206,"wenhua street, Shenyang , Xiaogan",,30.925856,113.92104,99,44,21,1,6,10,9,,1035,93,1,20141108190000
1207,"Dongcheng District , Huludao , Xiaogan",,30.917963,113.943904,93,41,28,8,5,4,9,,1035,93,1,20141108190000
641,Huanggang,,30.45124,114.877378,89,46,42,14,3,15,12,,1035,100,1,20141108190000
641,Huanggang,,30.45124,114.877378,89,46,42,14,3,15,12,,1035,100,1,20141108190000
1208,"Dazhou Island, Huanggang",,30.446205,114.900323,89,55,20,21,5,12,12,,1035,100,1,20141108190000
1209,"Workers Center , Huanggang",,30.469244,114.912504,91,31,105,7,2,18,12,,1035,100,1,20141108190000
642,Xianning,,29.838978,114.327898,85,42,12,5,6,21,7,,998,95,1,20141108190000
642,Xianning,,29.838978,114.327898,85,42,12,5,6,21,7,,998,95,1,20141108190000
1210,"Municipal Development and Reform Commission , Xianning",,29.818645,114.328461,93,40,15,5,6,18,7,,998,95,1,20141108190000
1211,"Xianan District Governement, Xianning",,29.51107,114.181864,89,40,5,4,3,23,6,,1007,96,1,20141108190000
1212,"Yangtze River Industrial Park , Xianning",,29.883098,114.32909,74,47,19,6,9,20,7,,998,95,1,20141108190000
1213,"Qianshan Park, Xianning",,29.815351,114.328689,85,43,10,5,5,20,7,,998,95,1,20141108190000
643,Suizhou,,31.688342,113.388675,132,58,22,2,6,18,5,,1021,90,1,20141108190000
643,Suizhou,,31.688342,113.388675,132,58,22,2,6,18,5,,1021,90,1,20141108190000
1338,"City committee communist party school, Suizhou",,31.725316,113.3648,134,68,15,1,1,9,5,,1021,90,1,20141108190000
1339,"Forestry Bureau, Suizhou",,31.690065,113.383157,132,50,29,1,5,17,5,,1021,90,1,20141108190000
645,Xiantao,,30.360228,113.460616,117,62,10,7,21,10,11,,1037,87,3,20141108190000
645,Xiantao,,30.360228,113.460616,117,62,10,7,21,10,11,,1037,87,3,20141108190000
1088,Shennongjia,,31.741307,110.685554,109,40,34,4,3,4,5,,,99,1,20141108190000
1088,Shennongjia,,31.741307,110.685554,109,40,34,4,3,4,5,,,99,1,20141108190000
1214,"Xiangcheng Yundong Street, Xiangfan",,32.017716,112.16102,117,49,13,8,4,4,9,,1027,81,1,20141108190000
1359,"Fancheng Xinhua Road , Xiangfan",,32.0544,112.145224,91,50,26,6,5,14,9,,1027,81,1,20141108190000
655,"City Environmental Monitoring Station, Baotou",,40.657201,109.886738,158,80,4,30,16,18,,,0,,,20141108190000
656,"Donghe EPB, Baotou",,40.586213,110.002224,139,113,5,30,26,22,,,0,,,20141108190000
657,"Baotou shopping mall, Baotou",,40.508334,109.819085,181,110,3,33,24,37,,,0,,,20141108190000
658,"Huilong logistics, Baotou",,40.633436,109.879821,142,71,5,35,18,17,,,0,,,20141108190000
659,Baotou,,40.658597,109.846051,197,138,10,35,26,41,,,0,,,20141108190000
660,"Huatai Automobile Mall, Eerduosi",,39.837048,109.972209,149,68,30,23,4,9,1,-4,1030,59,1,20141108190000
661,"Olympus Garden, Eerduosi",,39.789171,109.987742,144,62,27,32,19,21,1,-4,1030,59,1,20141108190000
662,Eerduosi,,39.609284,109.78704,149,68,31,32,23,21,1,-4,1030,59,1,20141108190000
663,"Tianyi Road, Chifeng",,42.275552,118.88507,80,40,22,5,9,10,-1,-14,1028,24,1,20141108190000
664,"Songshan No.1 Middle School, Chifeng",,42.329307,118.793045,183,137,21,18,53,26,-1,-14,1028,24,1,20141108190000
665,"Hada Street, Chifeng",,42.280714,118.988235,87,55,12,6,14,12,-1,-14,1028,24,1,20141108190000
666,"Songshan Road, Chifeng",,42.171487,118.89501,182,123,42,10,36,25,-1,-14,1028,24,1,20141108190000
667,Chifeng,,42.259752,118.893027,183,137,42,18,53,26,-1,-14,1028,24,1,20141108190000
674,Fuzhou,,26.071406,119.301294,74,32,7,15,1,7,20,16,1021,78,4,20141108190000
675,"Xidong, Xiamen",,24.815345,118.161848,65,20,28,6,2,6,19,18,1019,94,3,20141108190000
676,"Hongwen, Xiamen",,24.473969,118.156281,124,71,26,32,19,8,19,18,1019,94,3,20141108190000
677,"Gulangyu, Xiamen",,24.443168,118.068571,149,63,30,33,12,9,19,18,1019,94,3,20141108190000
678,"Huli, Xiamen",,24.51235,118.099146,155,77,34,29,9,7,19,18,1019,94,3,20141108190000
679,Xiamen,,24.477187,118.094402,155,77,34,29,9,7,-,-,0,-,-,20141108190000
680,"Qingyuan Montain, Quanzhou",,24.939503,118.598337,80,29,25,10,4,7,19,18,1019,94,3,20141108190000
681,"Tushan Street, Quanzhou",,24.90867,118.586397,89,43,36,11,4,6,19,18,1019,94,3,20141108190000
682,"Wanan, Quanzhou",,24.304154,118.070903,102,42,30,20,4,8,19,18,1019,94,3,20141108190000
683,Quanzhou,,24.87179,118.68001,102,47,36,21,9,8,19,18,1019,94,3,20141108190000
687,"Jiancaoping, Taiyuan",,37.887889,112.528383,169,91,2,15,42,19,1,-1,1027,87,1,20141108190000
688,"Jianhe, Taiyuan",,37.910779,112.579258,179,149,2,5,49,19,1,-1,1027,87,1,20141108190000
689,"Shanglan, Taiyuan",,38.011589,112.440679,102,51,5,21,14,9,1,-1,1027,87,1,20141108190000
690,"Jinyuan, Taiyuan",,37.713164,112.475552,167,84,5,15,42,10,1,-1,1027,87,1,20141108190000
691,"Xiaodian, Taiyuan",,37.782137,112.483533,159,76,12,12,70,17,1,-1,1027,87,1,20141108190000
692,"Taoyuan, Taiyuan",,37.869752,112.543332,173,93,2,25,37,20,-1,-2,1027,93,1,20141108190000
693,"Wucheng, Taiyuan",,37.819998,112.576252,181,111,1,15,63,12,-1,-2,1027,93,1,20141108190000
694,"Nanzhai, Taiyuan",,37.985902,112.555312,162,75,3,11,11,6,1,-1,1027,87,1,20141108190000
695,"Jinsheng, Taiyuan",,37.781205,112.494494,167,86,3,49,36,17,1,-1,1027,87,1,20141108190000
696,Taiyuan,,37.871115,112.555178,173,93,2,25,37,20,-,-,0,-,-,20141108190000
697,"Monitoring station, Changzhi",,36.194062,113.10389,158,94,14,24,51,46,,,0,,,20141108190000
698,"Auditing bureau, Changzhi",,36.212787,113.095221,160,79,10,30,13,47,,,0,,,20141108190000
699,"Qinghua station, Changzhi",,36.154328,113.116385,152,72,14,23,17,43,,,0,,,20141108190000
700,"No.8 middle school, Changzhi",,36.185451,113.099481,157,77,14,24,54,38,,,0,,,20141108190000
701,Changzhi,,36.195553,113.12292,162,97,15,34,32,44,,,0,,,20141108190000
702,"Yungang Hotel, Datong",,40.076997,113.278079,127,70,8,9,17,21,-4,-7,1032,73,1,20141108190000
703,"college of education, Datong",,40.085608,113.27808,132,70,6,3,31,17,-4,-7,1032,73,1,20141108190000
704,Datong,,40.078016,113.307143,107,59,2,9,24,16,-6,-8,1032,83,2,20141108190000
705,"Technical Schools, Linfen",,36.07131,111.509046,162,37,8,19,11,28,3,0,0,81,2,20141108190000
706,"Municipal party committee, Linfen",,36.087425,111.508771,155,47,10,3,7,26,3,0,0,81,2,20141108190000
1073,"City Monitoring Station, Linfen",,36.097676,111.518739,170,-,7,19,30,20,3,0,0,81,2,20141108190000
707,"South Airport, Linfen",,36.041614,111.497968,155,41,25,22,21,17,3,0,0,81,2,20141108190000
708,Linfen,,36.087944,111.525098,154,51,9,47,21,12,3,0,0,81,2,20141108190000
709,"City center, Yangquan",,37.848012,113.578636,168,112,9,17,31,20,1,-1,1027,87,1,20141108190000
710,Yangquan,,37.857475,113.586921,188,112,9,59,64,20,1,-1,1027,87,1,20141108190000
711,"Water Company, Jincheng",,35.504787,112.857245,198,115,6,16,48,18,7,2,1029,63,2,20141108190000
712,"Baiyun shopping mall, Jincheng",,35.492858,112.841566,192,112,6,36,52,16,7,2,1029,63,2,20141108190000
713,"City EPA, Jincheng",,35.488422,112.858528,190,117,7,42,84,17,7,2,1029,63,2,20141108190000
714,"Institute of Technology, Jincheng",,35.484844,112.878073,208,115,7,13,51,11,7,2,1029,63,2,20141108190000
715,"No.1 middle school, Jincheng",,35.478725,112.838636,191,155,6,18,49,15,7,2,1029,63,2,20141108190000
716,Jincheng,,35.490287,112.85794,208,155,7,42,84,18,7,2,1029,63,2,20141108190000
718,"District Government, Shuozhou",,39.320857,112.430641,184,91,7,26,59,21,3,-2,1030,58,1,20141108190000
719,"City EPA, Shuozhou",,39.331495,112.407997,-,74,-,23,20,-,0,-3,1031,71,1,20141108190000
720,"No.2 middle school, Shuozhou",,39.377963,112.432877,163,97,15,32,48,16,3,-2,1030,58,1,20141108190000
721,Shuozhou,,39.332756,112.439672,184,119,15,34,67,21,3,-2,1030,58,1,20141108190000
722,"Jinlun compound, Jinzhong",,37.697891,112.771017,154,62,4,6,24,16,-1,-2,1027,93,1,20141108190000
723,"Hydraulic Component Factory, Jinzhong",,37.688355,112.725844,157,79,5,24,33,17,1,-1,1027,87,1,20141108190000
724,"Nandu compound, Jinzhong",,37.713148,112.732036,-,69,3,3,10,13,1,-1,1027,87,1,20141108190000
725,"Yuci district government, Jinzhong",,37.698228,112.714167,159,68,3,1,32,19,1,-1,1027,87,1,20141108190000
726,Jinzhong,,37.687705,112.759187,154,62,4,6,24,16,-1,-2,1027,93,1,20141108190000
727,"Yuncheng Middle School, Yuncheng",,35.012345,111.003215,161,102,29,7,24,13,9,4,1028,58,1,20141108190000
728,"Yudou BDA, Yuncheng",,35.05065,111.029571,174,109,18,5,13,13,9,4,1028,58,1,20141108190000
730,"Regional Technical School, Yuncheng",,35.028727,110.974076,164,84,20,7,9,18,9,4,1028,58,1,20141108190000
731,"Airport new district, Yuncheng",,35.084515,111.05339,155,94,17,15,25,23,9,4,1028,58,1,20141108190000
732,Yuncheng,,35.025675,111.013344,174,109,29,15,25,23,-,-,0,-,-,20141108190000
733,"Jiyin, Xinzhou",,38.413292,112.742432,162,145,9,24,27,25,1,-1,1027,87,1,20141108190000
734,"BDA, Xinzhou",,38.450069,112.736723,144,85,2,8,28,18,1,-1,1027,87,1,20141108190000
735,"Convention Center, Xinzhou",,38.492043,112.709772,168,73,8,19,14,25,1,-1,1027,87,1,20141108190000
736,Xinzhou,,38.417244,112.740742,168,85,8,19,28,25,1,-1,1027,87,1,20141108190000
737,"City EPA, Luliang",,37.522189,111.144365,158,72,2,15,37,30,16,11,0,69,2,20141108190000
738,"Soybean factory, Luliang",,37.51689,111.135101,164,94,5,16,53,36,16,11,0,69,2,20141108190000
739,"Water Company, Luliang",,37.53394,111.138834,156,90,8,13,16,32,16,11,0,69,2,20141108190000
740,Luliang,,25.027007,103.668566,164,94,5,16,53,36,16,11,0,69,2,20141108190000
741,"City government, Sanmenxia",,34.776251,111.198781,185,128,7,22,14,14,6,4,1027,73,1,20141108190000
743,"BDA, Sanmenxia",,34.800434,111.204332,199,144,14,28,48,14,6,4,1027,73,1,20141108190000
744,Sanmenxia,,34.771506,111.206129,199,144,15,28,48,17,6,4,1027,73,1,20141108190000
745,"Food Factory, Changchun",,43.919094,125.329521,165,86,3,28,59,8,-2,-12,1023,47,4,20141108190000
746,"Bus Factory, Changchun",,43.912337,125.293431,168,88,6,35,51,10,-2,-12,1023,47,4,20141108190000
747,"Institute of Posts and Telecommunications, Changchun",,43.842368,125.285005,169,96,3,13,41,9,-3,-12,1023,51,4,20141108190000
748,"Laodong Park, Changchun",,43.877293,125.371519,165,101,5,28,16,11,-2,-12,1023,47,4,20141108190000
749,"Forest area, Changchun",,43.871825,125.331519,173,92,2,28,26,18,-3,-12,1023,51,4,20141108190000
750,"Jinyuetan, Changchun",,43.79031,125.460561,158,62,22,10,13,14,-2,-12,1023,47,4,20141108190000
751,"Shuaiwanzi, Changchun",,43.552321,125.639086,184,98,12,15,5,12,-2,-12,1023,47,4,20141108190000
752,"Economic Development Zone Sanitation Department, Changchun",,43.869221,125.42365,169,110,8,28,12,8,-2,-12,1023,47,4,20141108190000
753,"High-tech Zone Administrative Committee, Changchun",,43.819064,125.256375,180,125,8,23,10,20,-2,-12,1023,47,4,20141108190000
754,"Daishan Park, Changchun",,43.852365,125.223399,164,91,8,27,25,11,-2,-12,1023,47,4,20141108190000
755,Changchun,,43.819415,125.329977,169,96,3,13,41,9,-,-,0,-,-,20141108190000
756,"Hadawan, Jilin",,43.888081,126.545727,194,125,2,28,15,18,-2,-16,0,32,3,20141108190000
757,"Fengman, Jilin",,43.768169,126.678802,160,64,32,6,3,5,-2,-16,0,32,3,20141108190000
758,"Electric Power College, Jilin",,43.827403,126.502281,173,90,4,19,12,21,-2,-16,0,32,3,20141108190000
759,"Jiangnan Park, Jilin",,43.83531,126.556519,159,60,8,16,8,12,-2,-16,0,32,3,20141108190000
760,"Dongjuzi, Jilin",,43.838597,126.590068,153,70,10,14,5,8,-2,-16,0,32,3,20141108190000
763,Jilin,,43.840137,126.555262,194,125,32,28,15,21,-2,-16,0,32,3,20141108190000
764,"Lingbei, Haerbin",,45.756979,126.548008,282,153,32,40,52,16,-2,-9,1021,59,4,20141108190000
765,"Songbei Commercial University, Haerbin",,45.818624,126.566963,302,161,33,28,49,18,-2,-9,1021,59,4,20141108190000
766,"Acheng huining, Haerbin",,45.544286,126.985183,204,112,29,14,-,9,-2,-9,1021,59,4,20141108190000
767,"Nangang College Street, Haerbin",,45.724121,126.604906,339,223,38,29,40,12,-2,-9,1021,59,4,20141108190000
768,"Taiping Hongwei Park, Haerbin",,45.775332,126.695101,389,192,27,40,58,13,-2,-9,1021,59,4,20141108190000
769,"Daowai Chengde Square, Haerbin",,45.768637,126.640955,332,184,23,44,62,12,-2,-9,1021,59,4,20141108190000
770,"Xiangfang Hongqi Street, Haerbin",,45.733936,126.691083,330,240,26,30,50,15,-2,-9,1021,59,4,20141108190000
771,"Dongli Heping Road, Haerbin",,45.727765,126.651974,349,269,24,44,43,11,-2,-9,1021,59,4,20141108190000
772,"Daoli Jianguo Road, Haerbin",,45.749715,126.59891,306,171,29,43,55,15,-2,-9,1021,59,4,20141108190000
773,"Pingfang Light Factory, Haerbin",,45.611951,126.620898,375,268,7,31,21,19,-2,-9,1021,59,4,20141108190000
774,"Hulan Normal College, Haerbin",,45.983745,126.616553,301,167,26,35,21,10,-2,-9,1021,59,4,20141108190000
775,"Provincial Academy of Agricultural Sciences, Haerbin",,45.686141,126.626517,370,278,21,37,54,9,-2,-9,1021,59,4,20141108190000
776,Haerbin,,45.805757,126.541007,302,161,33,28,49,18,-,-,0,-,-,20141108190000
777,"Anju Compound, Qiqihaer",,47.365672,123.937016,190,101,38,23,10,14,3,-11,1019,22,3,20141108190000
778,"Farming Vehicule Factory, Qiqihaer",,47.326793,123.961427,181,28,23,25,8,11,3,-11,1019,22,3,20141108190000
779,"Fuqu EPA, Qiqihaer",,47.1853,123.62322,305,130,50,,23,19,3,-11,1019,22,3,20141108190000
780,"City Center Square, Qiqihaer",,47.343096,123.96192,196,111,26,7,26,12,3,-11,1019,22,3,20141108190000
1217,"City Environmental Monitoring Station, Qiqihaer",,47.303639,123.957551,197,116,28,22,15,8,3,-11,1019,22,3,20141108190000
781,Qiqihaer,,47.356387,123.924736,305,116,50,25,26,19,3,-11,1019,22,3,20141108190000
782,"Saertu District, Daqing",,46.582368,125.152904,89,43,24,5,17,5,-1,-12,1021,29,2,20141108190000
783,"Datong District, Daqing",,46.036786,124.842115,63,31,29,3,8,7,-1,-12,1021,29,2,20141108190000
784,"Honggang District, Daqing",,46.418381,124.88973,76,37,47,10,7,6,-1,-12,1021,29,2,20141108190000
785,"Longfeng District, Daqing",,46.535426,125.107043,114,43,26,11,9,12,-1,-12,1021,29,2,20141108190000
786,"Ranghulu District, Daqing",,46.635123,124.85648,63,37,31,13,9,5,-1,-12,1021,29,2,20141108190000
787,Daqing,,46.591414,125.110838,114,43,47,13,17,12,-1,-12,1021,29,2,20141108190000
788,"Locomotive Factory, Mudanjiang",,44.610589,129.652672,200,119,30,17,11,21,-7,-13,1025,46,1,20141108190000
789,"No. 1 hospital, Mudanjiang",,44.567775,129.617043,191,104,29,23,16,18,-7,-13,1025,46,1,20141108190000
1220,"EPA building, Mudanjiang",,44.567777,129.620658,200,108,5,15,10,13,-7,-13,1025,46,1,20141108190000
1221,"Cultural Square, Mudanjiang",,44.586388,129.623164,197,126,2,28,15,19,-7,-13,1025,46,1,20141108190000
790,Mudanjiang,,44.553619,129.640246,200,126,37,28,16,21,-7,-13,1025,46,1,20141108190000
791,"Mingzhu Plaza, Hefei",,31.782847,117.201512,134,53,34,14,15,9,10,8,1027,87,1,20141108190000
792,"Sanli Street, Hefei",,31.874637,117.312573,151,49,27,12,6,5,10,9,1028,94,2,20141108190000
793,"Hupo Compound, Hefei",,31.868583,117.264491,151,55,23,5,11,5,10,9,1028,94,2,20141108190000
794,"Dongpu Reservoir, Hefei",,31.90319,117.165584,152,54,31,4,6,4,10,9,1028,94,2,20141108190000
795,"Changjiang middle road, Hefei",,31.855185,117.255484,142,54,8,8,5,8,10,9,1028,94,2,20141108190000
796,"Luyang District, Hefei",,31.941771,117.271504,153,65,10,2,18,5,10,9,1028,94,2,20141108190000
797,"Yaohai District, Hefei",,31.856595,117.341644,149,55,14,13,15,11,10,9,1028,94,2,20141108190000
798,"Baohe District, Hefei",,31.793644,117.307554,142,56,3,3,11,8,10,9,1028,94,2,20141108190000
799,"Lake district, Hefei",,31.736619,117.283501,151,53,32,16,3,5,10,9,1028,94,2,20141108190000
800,"High-tech zone, Hefei",,31.849755,117.129624,137,54,10,8,9,3,10,9,1028,94,2,20141108190000
801,Hefei,,31.819449,117.232753,142,54,8,8,5,8,-,-,0,-,-,20141108190000
802,"Hudong Road No.4 Elementary School, Maanshan",,31.684121,118.511017,87,30,21,28,7,6,11,10,1027,94,2,20141108190000
803,"Tianping Garment Factory, Maanshan",,31.64197,118.488043,95,39,33,28,14,12,11,10,1027,94,2,20141108190000
804,"City education base, Maanshan",,31.711216,118.648913,68,20,6,4,2,3,11,10,1027,94,2,20141108190000
805,"Cihu No.2 elementary school, Maanshan",,31.748546,118.515729,117,43,24,29,8,12,11,10,1027,94,2,20141108190000
806,"Maanshan steel factory power plant, Maanshan",,31.690864,118.48528,93,62,12,30,10,6,11,10,1027,94,2,20141108190000
807,Maanshan,,31.668461,118.511939,117,62,33,30,14,12,11,10,1027,94,2,20141108190000
808,"Science Innovation Center, Wuhu",,31.417056,118.375406,89,25,19,10,4,10,11,10,1027,94,2,20141108190000
809,"No.4 Water Plant, Wuhu",,31.315914,118.376231,82,26,15,21,6,12,11,10,1027,94,2,20141108190000
810,"Monitoring station, Wuhu",,31.348955,118.358154,89,24,8,21,9,10,11,10,1027,94,2,20141108190000
811,"Wuqierling Factory, Wuhu",,31.382068,118.407639,97,45,38,15,8,3,11,10,1027,94,2,20141108190000
812,Wuhu,,31.351007,118.438322,97,45,38,21,9,12,11,10,1027,94,2,20141108190000
813,"Jiangxi Foreign Affairs Office, Nanchang",,28.678027,115.903436,144,54,10,1,1,13,11,8,1026,83,2,20141108190000
814,"Provincial forestry company, Nanchang",,28.69065,115.898546,102,38,14,1,1,6,11,8,1026,83,2,20141108190000
815,"Institute of Forestry, Nanchang",,28.731518,115.82478,70,33,16,1,2,2,11,8,1026,83,2,20141108190000
816,"Jingdong town government, Nanchang",,28.680659,115.972736,89,33,14,1,2,5,11,8,1026,83,2,20141108190000
817,"Contruction Industry College, Nanchang",,28.684018,115.865891,78,36,15,13,5,6,11,8,1026,83,2,20141108190000
818,"Xianghu, Nanchang",,28.637831,115.9033,-,-,-,-,-,-,-,-,0,-,-,20141108190000
819,"Martial Arts School, Nanchang",,28.794538,115.752876,-,-,-,-,-,-,-,-,0,-,-,20141108190000
820,"Petrifaction Company, Nanchang",,28.608634,115.912999,112,41,13,1,1,5,11,8,1026,83,2,20141108190000
821,"Provincial Station, Nanchang",,28.677155,115.941896,93,60,16,1,1,4,11,8,1026,83,2,20141108190000
822,Nanchang,,28.679883,115.863022,144,60,21,13,15,13,11,8,1026,83,2,20141108190000
939,Sanya,,18.251142,109.515993,21,20,23,3,1,5,25,22,1015,83,3,20141108190000
823,"Lushan Mountain Observatory, Jiujiang",,29.5751,115.998926,34,10,35,11,1,3,4,4,1027,100,3,20141108190000
824,"Shili, Jiujiang",,29.668119,115.992381,85,32,18,10,10,5,4,4,1027,100,3,20141108190000
825,"Maoshantou, Jiujiang",,29.700819,115.967192,80,31,12,17,14,3,4,4,1027,100,3,20141108190000
826,"Xiyuan, Jiujiang",,29.723929,115.998206,78,29,16,13,5,4,4,4,1027,100,3,20141108190000
827,"Wuqierling Factory, Jiujiang",,29.640802,116.022713,74,33,20,12,16,6,4,4,1027,100,3,20141108190000
828,"Water Scientific Research Institute, Jiujiang",,29.679179,116.068081,72,46,15,12,6,4,4,4,1027,100,3,20141108190000
829,"Zonghe Industrial Park, Jiujiang",,29.592047,115.916335,68,19,20,14,7,3,4,4,1027,100,3,20141108190000
830,"Petrochemical General Plant, Jiujiang",,29.738832,116.09463,68,27,17,16,9,5,4,4,1027,100,3,20141108190000
831,Jiujiang,,29.70254,116.007025,85,46,35,17,16,6,4,4,1027,100,3,20141108190000
1332,"Feiyu, Xinyu",,27.844697,115.000136,-,-,-,-,-,,-,,0,-,-,20141108190000
1333,"Beigang, Xinyu",,27.932491,115.103767,89,40,19,7,11,,12,,1026,83,1,20141108190000
1334,"No.2 water factory, Xinyu",,27.839577,114.933915,87,48,7,9,7,,12,,1026,83,1,20141108190000
1335,"Bureau of Meteorology, Xinyu",,27.81048,114.936507,87,53,14,10,17,,12,,1026,83,1,20141108190000
1336,Xinyu,,27.814351,114.922194,89,53,19,12,17,,12,,1026,83,1,20141108190000
832,"Tobacco Factory, Zhengzhou",,34.753419,113.687131,190,134,11,48,12,38,6,5,1028,93,1,20141108190000
833,"Textile Machinery Factory, Zhengzhou",,34.773366,113.647067,185,138,7,33,18,30,6,5,1028,93,1,20141108190000
834,"Banking College, Zhengzhou",,34.800856,113.681126,182,129,2,28,16,14,6,5,1028,93,1,20141108190000
835,"Water Supply Company, Zhengzhou",,34.807188,113.571089,214,129,5,36,18,13,6,5,1028,93,1,20141108190000
836,"Economic Development Zone Management Committee, Zhengzhou",,34.717652,113.733182,277,179,2,24,17,24,6,5,1028,93,1,20141108190000
837,"No. 47 middle school, Zhengzhou",,34.772211,113.74009,193,130,4,33,11,17,6,5,1028,93,1,20141108190000
838,"City Monitoring Station, Zhengzhou",,34.748404,113.60514,248,266,16,49,12,44,6,5,1028,93,1,20141108190000
839,"Henan Medical University, Zhengzhou",,34.752637,113.641658,220,200,16,49,11,14,6,5,1028,93,1,20141108190000
840,"Gangli Reservoir, Zhengzhou",,34.952652,113.64248,187,103,6,28,12,13,6,5,1028,93,1,20141108190000
841,Zhengzhou,,34.745417,113.631415,220,200,16,49,11,14,-,-,0,-,-,20141108190000
842,"Henan University No.1 Hospital, Kaifeng",,34.799302,114.352706,153,92,3,23,5,13,6,5,1028,93,1,20141108190000
843,"Maternity And Child Hospital, Kaifeng",,34.795803,114.386103,187,106,12,46,11,12,6,5,1028,93,1,20141108190000
844,"Cancer Hospital, Kaifeng",,34.775428,114.350292,321,166,1,27,9,21,6,5,1028,93,1,20141108190000
845,"Yellow River Conservancy Institute, Kaifeng",,34.826066,114.324772,137,93,19,9,26,12,6,5,1028,93,1,20141108190000
846,"Shijixing Kindergarden, Kaifeng",,34.793606,114.302744,172,119,1,23,5,12,6,5,1028,93,1,20141108190000
847,Kaifeng,,34.796346,114.313426,153,92,3,23,5,13,6,5,1028,93,1,20141108190000
852,Jiaozuo,,35.215381,113.248188,168,111,8,54,20,19,7,5,1028,87,0,20141108190000
853,"Cotton Research Institute, Anyang",,36.081435,114.486451,162,92,4,20,3,10,6,2,1028,69,2,20141108190000
854,"Hongmiao Street, Anyang",,36.086733,114.326,13,6,,,,,6,2,1028,69,2,20141108190000
855,"Yinxing Compound, Anyang",,36.056519,114.36495,202,106,3,23,10,22,6,2,1028,69,2,20141108190000
856,"Tiefo Temple, Anyang",,36.110041,114.309309,185,123,1,26,12,27,6,2,1028,69,2,20141108190000
857,Anyang,,36.097767,114.398846,202,125,4,34,15,27,6,2,1028,69,2,20141108190000
858,"City Monitoring Station, Luoyang",,34.669055,112.439633,194,109,8,39,45,26,8,,1028,69,3,20141108190000
859,"BDA Management Committee, Luoyang",,34.622084,112.390759,185,98,14,60,43,29,8,,1028,69,3,20141108190000
860,"New municipal office, Luoyang",,34.623745,112.432973,240,94,12,37,45,22,8,,1028,69,3,20141108190000
861,"City committee communist party school, Luoyang",,34.650169,112.400212,217,124,7,22,43,12,8,,1028,69,3,20141108190000
862,"Henan Forestry College, Luoyang",,34.685566,112.509429,240,114,10,39,57,30,8,,1028,69,3,20141108190000
863,"CITIC No.2 Elementary School, Luoyang",,34.668212,112.36907,212,87,6,32,39,18,8,,1028,69,3,20141108190000
864,"Yuxi Hotel, Luoyang",,34.685949,112.472611,238,147,8,22,49,25,8,,1028,69,3,20141108190000
865,Luoyang,,34.617424,112.46054,240,147,14,60,57,30,8,,1028,69,3,20141108190000
866,"City Planning Design Institute, Pingdingshan",,33.7352,113.297916,154,55,25,18,13,8,6,5,1028,93,1,20141108190000
867,"Xinhua Hotel, Pingdingshan",,33.737754,113.328814,154,63,24,17,15,6,6,5,1028,93,1,20141108190000
868,"Engineering College, Pingdingshan",,33.772474,113.188235,152,85,16,30,38,9,6,5,1028,93,1,20141108190000
869,"High Voltage Switchgear Factory, Pingdingshan",,33.719941,113.312665,154,67,18,18,15,9,6,5,1028,93,1,20141108190000
870,Pingdingshan,,33.764754,113.199082,154,67,24,18,15,9,6,5,1028,93,1,20141108190000
1303,"City Monitoring Station, Hebi",,35.748411,114.313927,188,115,5,21,10,25,2,,1033,76,1,20141108190000
1304,"BDA, Xinxiang",,35.281373,113.908605,166,112,10,39,17,11,-2,,983,76,1,20141108190000
1305,"Environment protection office, Puyang",,35.851321,115.512901,198,108,4,26,52,23,3,,1037,82,1,20141108190000
