locationid,stationname,chinesename,latitude,longitude,pm25,pm10,o3,no2,so2,co,temperature,dewpoint,pressure,humidity,wind,est_time
1,Dongcheng Dongsi,,39.9304,116.423239,86,55,7,33,6,8,1,-8,1024,52,1,20141113170000
2,"Temple of Heaven, Dongcheng",,39.887403,116.41324,97,60,7,30,2,7,1,-8,1024,52,1,20141113170000
3,West Park officials,,39.930333,116.345162,92,52,5,38,4,8,1,-8,1024,52,1,20141113170000
4,West Wanshou Nishinomiya,,39.879354,116.358183,125,61,4,38,4,9,1,-8,1024,52,1,20141113170000
5,Chaoyang Olympic Sports Center,,39.983406,116.403253,95,65,4,38,3,8,1,-8,1024,52,1,20141113170000
6,Chaoyang Agricultural Exhibition Hall,,39.938331,116.46715,136,72,7,40,6,7,1,-8,1024,52,1,20141113170000
7,Haidian Wanliu,,39.988245,116.293062,76,58,3,37,4,8,1,-8,1024,52,1,20141113170000
8,The Haidian northern New Area,,40.091313,116.180194,173,83,9,23,4,14,1,-8,1024,52,1,20141113170000
9,Haidian Beijing Botanical Garden,,40.003252,116.213097,13,11,25,4,3,3,1,-8,1024,52,1,20141113170000
10,Fengtai garden,,39.86423,116.285037,158,101,3,37,7,10,1,-8,1024,52,1,20141113170000
11,Fengtai Yungang,,39.82535,116.152237,96,47,6,22,5,6,1,-8,1024,52,1,20141113170000
12,Shijingshan city,,39.915286,116.190144,102,47,11,26,6,7,1,-8,1024,52,1,20141113170000
13,"Fangshan, Liangxiang",,39.743357,116.14225,160,74,3,32,13,10,1,-8,1024,52,1,20141113170000
14,"Huangcunzhen, Daxing",,39.719389,116.410219,173,112,12,34,12,8,1,-8,1024,52,1,20141113170000
15,BDA,,39.796197,116.51197,170,88,13,34,16,8,1,-8,1024,52,1,20141113170000
16,Tongzhou New Town,,39.887113,116.6689,161,82,4,35,12,8,1,-8,1024,52,1,20141113170000
17,Shunyi New Town ,,40.128111,116.660908,108,44,3,31,7,8,1,-8,1024,52,1,20141113170000
18,Changping Town,,40.218245,116.236084,96,49,7,28,8,9,1,-8,1024,52,1,20141113170000
19,"Mentougou, Longquan Town",,39.938397,116.112323,81,41,7,20,7,9,1,-8,1024,52,1,20141113170000
20,Pinggu town,,40.144433,117.106563,127,53,8,19,6,10,1,-8,1024,52,1,20141113170000
21,Huairou town,,40.329104,116.63387,82,54,7,24,3,10,1,-8,1024,52,1,20141113170000
22,The town of Miyun,,40.371186,116.838053,125,52,3,23,5,7,1,-8,1024,52,1,20141113170000
23,Yanqing town,,40.454217,115.978106,164,77,9,30,9,11,1,-8,1024,52,1,20141113170000
24,Changping Dingling,,40.293269,116.226108,59,20,17,6,4,4,1,-8,1024,52,1,20141113170000
25,Badaling Northwest,,40.36623,115.994146,85,42,14,17,12,5,1,-8,1024,52,1,20141113170000
26,Miyun Reservoir,,40.500157,116.91701,65,29,20,10,3,4,1,-8,1024,52,1,20141113170000
27,"Donggaocun Zhen, Pinggu",,40.10142,117.126556,121,69,14,40,8,5,1,-8,1024,52,1,20141113170000
28,"Yongledianzhen, Tongzhou",,39.713192,116.78905,151,65,5,43,6,5,1,-8,1024,52,1,20141113170000
29,"Yufazhen, Daxing",,39.521203,116.306026,167,76,7,38,8,6,1,-8,1024,52,1,20141113170000
30,"Liulihezhen, Fangshan",,39.581169,116.006089,163,97,11,28,6,9,1,-8,1024,52,1,20141113170000
31,"Qianmen E St, Dongcheng",,39.900402,116.401242,149,66,4,29,7,11,1,-8,1024,52,1,20141113170000
32,Yongdingmen Inner St,,39.877401,116.400238,152,80,5,39,10,9,1,-8,1024,52,1,20141113170000
33,Xizhimen N St,,39.955352,116.355187,148,95,3,33,7,14,1,-8,1024,52,1,20141113170000
34,South Ring Road,,39.857377,116.37421,152,76,1,38,13,11,1,-8,1024,52,1,20141113170000
35,East Fourth Ring Road,,39.940273,116.489075,119,54,7,34,2,6,1,-8,1024,52,1,20141113170000
36,Beijing,,39.955906,116.474246,119,55,7,33,6,8,2,-9,1024,44,2,20141113170000
37,Putuo,,31.232979,121.415378,75,49,9,47,13,5,10,2,1026,58,1,20141113170000
38,Yangpu Sipiao,,31.263795,121.540311,80,52,21,42,7,4,10,2,1026,58,1,20141113170000
39,Shanghai Normal College Primary Division,,31.199031,121.487719,78,47,19,32,9,6,10,2,1026,58,1,20141113170000
40,Dianshan Lake,,31.091338,120.982293,159,91,12,40,29,9,10,2,1026,58,1,20141113170000
41,Hongkou Liangcheng,,31.298906,121.47155,79,46,13,38,11,6,10,2,1026,58,1,20141113170000
42,Jingan,,31.224251,121.429637,71,43,17,34,11,7,10,2,1026,58,1,20141113170000
43,Shanghai Normal University,,31.163531,121.416643,70,51,16,43,7,8,10,2,1026,58,1,20141113170000
44,Chuansha,,31.188626,121.707342,85,53,15,34,7,3,10,2,1026,58,1,20141113170000
45,Zhangjiang,,31.204896,121.581215,104,57,16,39,7,5,10,2,1026,58,1,20141113170000
46,Lingshan Road,,31.226286,121.537317,66,54,14,48,5,6,10,2,1026,58,1,20141113170000
1080,City average,,31.228451,121.478227,78,51,15,40,9,5,10,2,1026,58,1,20141113170000
47,Shanghai,,31.202842,121.453493,87,52,18,35,9,5,10,2,1026,58,1,20141113170000
48,Guangzhou,,23.138517,113.263701,154,58,13,22,4,13,18,11,1022,64,3,20141113170000
49,"Huadu town, Guangzhou",,23.389121,113.220062,147,68,30,12,9,8,18,11,1022,64,3,20141113170000
50,"Luogang Zhenlong, Guangzhou",,23.308027,113.567032,152,57,28,7,8,9,18,11,1022,64,3,20141113170000
51,"LuHu, Guangzhou",,23.151743,113.281842,134,56,9,22,5,11,18,11,1022,64,3,20141113170000
52,"Tianhu, Guangzhou",,23.647433,113.629715,151,62,38,6,13,7,18,11,1022,64,3,20141113170000
53,"Zhudong, Guangzhou",,23.418406,113.078552,124,56,34,3,9,9,18,11,1022,64,3,20141113170000
54,"Modiesha station, Guangzhou",,23.103814,113.338238,117,65,21,23,11,3,18,11,1022,64,3,20141113170000
55,Zhuhai,,22.2677,113.581765,156,59,15,12,5,12,20,15,1020,73,8,20141113170000
1075,"Huicai technical school, Foshan",,23.039667,113.105492,151,64,17,29,9,9,18,11,1022,64,3,20141113170000
56,"Sanshuiyun donghai, Foshan",,23.185788,112.865368,153,61,26,18,21,9,18,11,1022,64,3,20141113170000
57,"Nanhai Bureau of Meteorology, Foshan",,23.046836,113.145764,142,58,17,20,7,16,18,11,1022,64,3,20141113170000
58,"Sanshui Monitoring Station, Foshan",,23.163551,112.890843,154,54,20,17,14,12,18,11,1022,64,3,20141113170000
1087,Foshan,,23.018995,113.126899,142,58,17,20,7,16,18,11,1022,64,3,20141113170000
59,"Ronggui street committee, Shunde",,22.762729,113.258356,156,71,11,14,14,13,18,11,1022,64,3,20141113170000
60,Shunde,,22.80246,113.298701,151,62,10,17,17,8,-,-,0,-,-,20141113170000
61,"Donghu, Jiangmen",,22.590411,113.087351,154,64,8,14,9,8,20,15,1020,73,8,20141113170000
62,"Taoyuan Atmosphere Premier Station, Jiangmen",,22.72489,112.93404,158,80,13,25,8,11,20,15,1020,73,8,20141113170000
63,Jiangmen,,22.576047,113.087351,154,64,8,14,9,8,20,15,1020,73,8,20141113170000
64,"Kengkouzi station, Zhaoqing",,23.158865,112.570287,169,70,30,19,22,11,18,11,1022,64,3,20141113170000
65,"Mugangzi station, Zhaoqing",,23.067961,112.431934,160,70,31,18,14,10,18,11,1022,64,3,20141113170000
67,Zhaoqing,,23.044571,112.470346,159,65,32,10,12,9,18,11,1022,64,3,20141113170000
68,"Jinguo Bay, Huizhou",,22.937223,114.385567,134,56,27,6,7,7,19,13,1021,68,6,20141113170000
1091,"Xiabu, Huizhou",,23.077493,114.410275,144,61,23,5,9,4,19,13,1021,68,6,20141113170000
69,"Xijiao, Huizhou",,23.338178,114.112867,151,57,26,6,12,11,19,13,1021,68,6,20141113170000
70,"Jiangbei, Huizhou",,23.111706,114.415274,134,63,25,7,11,4,19,13,1021,68,6,20141113170000
71,"Huiyang chuanhu, Huizhou",,22.814485,114.329292,117,41,15,8,6,8,19,13,1021,68,6,20141113170000
72,"Daya bay management committee, Huizhou",,22.739283,114.53631,117,50,19,6,4,8,19,13,1021,68,6,20141113170000
73,Huizhou,,23.109349,114.421164,134,63,25,7,11,4,19,13,1021,68,6,20141113170000
74,"Guancheng No.2 water plant, Dongguan",,23.057294,113.753254,151,71,21,27,10,9,19,13,1021,68,6,20141113170000
75,"Dongcheng Shijing, Dongguan",,23.010039,113.799529,153,57,22,12,14,8,19,13,1021,68,6,20141113170000
76,"Nancheng Xiping, Dongguan",,22.963051,113.743494,152,58,14,16,11,10,19,13,1021,68,6,20141113170000
77,"Nancheng Yuanling, Dongguan",,23.025058,113.751308,151,61,23,15,14,10,19,13,1021,68,6,20141113170000
78,Dongguan,,23.017813,113.756958,151,61,23,15,14,10,19,13,1021,68,6,20141113170000
79,"Zimaling, Zhongshan",,22.505112,113.407183,161,61,8,15,14,9,20,15,1020,73,8,20141113170000
80,"Yangtze River tourist area, Zhongshan",,22.48589,113.439054,153,65,10,15,11,9,20,15,1020,73,8,20141113170000
81,"Huabai Park, Zhongshan",,22.51839,113.374362,157,62,8,13,11,12,20,15,1020,73,8,20141113170000
82,Zhongshan,,22.513997,113.398277,161,61,8,15,14,9,20,15,1020,73,8,20141113170000
83,"No.8 middle school, Shaoguan",,24.767777,113.583537,134,65,20,17,15,13,14,12,1024,83,0,20141113170000
83,"No.8 middle school, Shaoguan",,24.767777,113.583537,134,65,20,17,15,13,14,12,1024,83,0,20141113170000
84,"Forest area, Shaoguan",,24.796106,113.612131,144,66,31,6,14,10,14,12,1024,83,0,20141113170000
84,"Forest area, Shaoguan",,24.796107,113.612131,144,66,31,6,14,10,14,12,1024,83,0,20141113170000
86,"Shaoguan University, Shaoguan",,24.790864,113.646599,153,74,26,14,13,8,14,12,1024,83,0,20141113170000
86,"Shaoguan University, Shaoguan",,24.790864,113.646598,153,74,26,14,13,8,14,12,1024,83,0,20141113170000
88,"Qujiang Monitoring Station, Shaoguan",,24.683042,113.60157,153,69,32,15,18,10,14,12,1024,83,0,20141113170000
88,"Qujiang Monitoring Station, Shaoguan",,24.683042,113.60157,153,69,32,15,18,10,14,12,1024,83,0,20141113170000
89,Shaoguan,,24.807342,113.602712,144,66,31,6,14,10,14,12,1024,83,0,20141113170000
90,"Chaonanzi Station, Shantou",,23.251213,116.406762,157,69,8,12,3,15,18,16,1022,88,2,20141113170000
91,Shantou,,23.350642,116.686306,165,69,9,22,20,18,18,16,1022,88,2,20141113170000
92,"City Environmental Monitoring Station, Zhanjiang",,21.220431,110.397317,139,53,31,7,6,8,20,14,1020,64,4,20141113170000
93,"EPB Dormitory, Zhanjiang",,21.197376,110.406487,82,50,30,14,7,5,20,14,1020,64,4,20141113170000
94,"Xiashan Swimming Park, Zhanjiang",,21.200431,110.415655,-,-,-,-,-,-,-,-,0,-,-,20141113170000
95,"Zhanjiang Theatre, Zhanjiang",,21.268177,110.366445,119,51,25,6,7,3,20,14,1020,64,4,20141113170000
96,"Mazhang EPA, Zhanjiang",,21.265486,110.335993,122,54,7,8,6,14,20,14,1020,64,4,20141113170000
97,"Potou District EPB, Zhanjiang",,21.247604,110.454508,109,51,33,7,4,15,20,14,1020,64,4,20141113170000
98,Zhanjiang,,21.26832,110.363883,119,51,25,6,7,3,20,14,1020,64,4,20141113170000
99,"Maogang sub-office EPB, Maoming",,21.466435,111.033462,107,53,35,4,7,7,19,14,0,74,5,20141113170000
100,"Petrochemical No. 7 elementaty school, Maoming",,21.648905,110.937861,117,49,32,6,7,8,19,14,0,74,5,20141113170000
101,"Jiankang road, Maoming",,21.662211,110.909482,152,61,19,14,37,11,19,14,0,74,5,20141113170000
102,"Gaoling, Maoming",,21.690558,110.871146,91,51,19,9,25,7,19,14,0,74,5,20141113170000
1094,Maoming,,21.660223,110.929968,152,61,19,14,37,11,19,14,0,74,5,20141113170000
103,"Jiaying University, Meizhou",,24.325415,116.12816,74,24,8,13,5,11,18,16,1022,88,2,20141113170000
104,"Mexian new town, Meizhou",,24.269283,116.084546,89,34,11,6,5,11,18,16,1022,88,2,20141113170000
105,"Environmental Monitoring Center, Meizhou",,24.262778,116.129621,82,38,7,14,7,11,18,16,1022,88,2,20141113170000
1095,Meizhou,,24.285988,116.127065,82,38,7,14,7,11,18,16,1022,88,2,20141113170000
106,"City EPA, Shanwei",,22.772349,115.370227,87,44,17,5,5,13,18,14,1022,71,3,20141113170000
107,"City government, Shanwei",,22.787161,115.375536,80,33,18,4,5,10,18,14,1022,71,3,20141113170000
108,"Xincheng Middle School, Shanwei",,22.789851,115.367124,85,29,13,4,4,13,18,14,1022,71,3,20141113170000
1099,Shanwei,,22.783576,115.38022,85,29,13,4,4,13,18,14,1022,71,3,20141113170000
109,"No.3 elementary school, Heyuan",,23.755946,114.699091,124,48,17,15,9,10,16,12,1023,72,2,20141113170000
109,"No.3 elementary school, Heyuan",,23.75435,114.703514,124,48,17,15,9,10,16,12,1023,72,2,20141113170000
111,"City water company, Heyuan",,23.688709,114.954652,157,69,17,22,6,9,16,12,1023,72,2,20141113170000
111,"City water company, Heyuan",,23.754246,114.682459,157,69,17,22,6,9,16,12,1023,72,2,20141113170000
113,"Heyuan high school, Heyuan",,23.720037,114.699563,119,55,17,13,8,10,16,12,1023,72,2,20141113170000
113,"Heyuan high school, Heyuan",,23.720666,114.693879,119,55,17,13,8,10,16,12,1023,72,2,20141113170000
115,Heyuan,,23.740888,114.705147,119,55,17,13,8,10,16,12,1023,72,2,20141113170000
116,"Yuanyang Lake, Yangjiang",,21.855869,111.983676,171,71,38,20,15,9,20,13,1021,56,5,20141113170000
1100,Yangjiang,,21.855227,111.987308,171,71,38,20,15,9,20,13,1021,56,5,20141113170000
118,"Town governement, Qingyuan",,23.708005,113.026215,61,53,22,9,15,12,18,11,1022,64,3,20141113170000
119,"Fupin district, Qingyuan",,23.624781,113.067713,85,51,18,8,10,18,18,11,1022,64,3,20141113170000
121,"Environment protection office, Qingyuan",,23.691109,113.047948,78,23,30,9,14,9,18,11,1022,64,3,20141113170000
121,"Environment protection office, Qingyuan",,23.685931,113.053239,78,23,30,9,14,9,18,11,1022,64,3,20141113170000
123,"Fengcheng Subdistrict, Qingyuan",,23.695447,113.068189,61,53,22,9,15,12,18,11,1022,64,3,20141113170000
124,Qingyuan,,23.679304,113.061513,78,23,30,9,14,9,18,11,1022,64,3,20141113170000
125,"Xiyuan Road, Chaozhou",,23.668654,116.638272,68,20,12,2,5,12,18,16,1022,88,2,20141113170000
126,"Archives Bureau, Chaozhou",,23.667881,116.649104,63,17,14,5,5,7,18,16,1022,88,2,20141113170000
127,"Municipal Corporation, Chaozhou",,23.65035,116.621859,76,24,10,9,6,11,18,16,1022,88,2,20141113170000
1101,Chaozhou,,23.654204,116.626969,76,24,10,9,6,11,18,16,1022,88,2,20141113170000
128,"Donghu Park, Jieyang",,23.532877,116.374427,61,19,4,10,10,13,18,16,1022,88,2,20141113170000
129,"Yuhu Middle School, Jieyang",,23.52682,116.414123,80,40,2,18,9,12,18,16,1022,88,2,20141113170000
130,"Experimental Primary School, Jieyang",,23.571473,116.364137,70,20,8,16,23,14,18,16,1022,88,2,20141113170000
1102,Jieyang,,23.547596,116.37754,61,19,4,10,10,13,18,16,1022,88,2,20141113170000
131,"City Environmental Monitoring Station, Yunfu",,22.936779,112.042248,72,55,25,12,9,12,18,13,1022,73,2,20141113170000
331,"BDA, Weifang",,36.720022,119.054064,175,137,4,36,36,9,,,0,,,20141113170000
132,"The new city government headquarters, Yunfu",,22.914275,112.044475,162,65,19,14,9,22,18,11,1022,64,3,20141113170000
133,"Muyang police sub-station, Yunfu",,22.951267,112.05923,87,41,24,15,16,16,18,11,1022,64,3,20141113170000
1103,Yunfu,,22.912436,112.049811,162,65,19,14,9,22,18,11,1022,64,3,20141113170000
134,Yantian,,22.587949,114.266899,112,39,32,6,6,12,19,13,1021,68,6,20141113170000
135,Kwai Chung,,22.354168,114.134558,127,56,13,17,4,14,19,13,1021,68,6,20141113170000
135,Kwai Chung,,22.572837,113.867166,127,56,13,17,4,14,19,13,1021,68,6,20141113170000
137,Nanyou,,22.513802,113.928051,139,69,21,26,6,14,19,13,1021,68,6,20141113170000
138,Meisha,,22.59611,114.318345,119,40,22,4,5,11,19,13,1021,68,6,20141113170000
139,Xi xiang,,22.717524,114.252304,129,56,20,11,5,16,19,13,1021,68,6,20141113170000
140,Liyuan,,22.54732,114.101205,132,55,9,15,3,14,19,13,1021,68,6,20141113170000
1072,Kwai Chung,,22.354168,114.134558,132,50,20,1,2,6,19,13,1021,68,6,20141113170000
1072,Kwai Chung,,22.627947,114.428875,132,50,20,1,2,6,19,13,1021,68,6,20141113170000
141,OCT,,22.539549,113.992458,132,52,17,12,10,14,19,13,1021,68,6,20141113170000
142,Honghu,,22.559647,114.121976,144,43,10,14,1,10,19,13,1021,68,6,20141113170000
143,Mission Hills,,22.694131,114.050496,104,46,26,13,5,9,19,13,1021,68,6,20141113170000
144,Shenzhen,,22.540382,114.062982,144,69,32,26,10,16,-,-,0,-,-,20141113170000
145,Chengdu,,30.622581,104.069564,137,74,12,33,4,9,13,8,1023,72,2,20141113170000
146,"Jinquan lianghe, Chengdu",,30.710359,103.974209,175,92,8,33,4,12,14,8,1024,67,2,20141113170000
147,"Shilidian, Chengdu",,30.684718,104.17845,172,142,9,37,5,8,14,8,1024,67,2,20141113170000
148,"Sanwayao, Chengdu",,30.568159,104.081524,132,75,,,,8,14,8,1024,67,2,20141113170000
149,"Shahepu, Chengdu",,30.633685,104.120536,156,77,8,28,2,9,14,8,1024,67,2,20141113170000
150,"Liang Lane, Chengdu",,30.682601,104.076522,152,78,20,29,5,6,14,8,1024,67,2,20141113170000
151,"Caotang Temple, Chengdu",,30.651891,104.0284,142,74,12,33,4,9,14,8,1024,67,2,20141113170000
152,"Lingyansi, Chengdu",,31.025729,103.615022,152,62,31,7,6,3,14,8,1024,67,2,20141113170000
153,"Fuleshan, Mianyang",,31.472493,104.7806,78,40,21,5,5,7,14,8,1025,60,2,20141113170000
154,"High-tech Zone Water Company, Mianyang",,31.463309,104.674293,149,60,13,21,13,8,14,8,1025,60,2,20141113170000
155,"No.3 water company, Mianyang",,31.505002,104.731054,152,78,11,23,4,6,14,8,1025,60,2,20141113170000
156,Mianyang,,31.465174,104.681731,152,78,21,23,13,8,14,8,1025,60,2,20141113170000
157,"Dongshan Park, Deyang",,31.118648,104.424587,78,45,12,8,8,5,14,8,1024,67,2,20141113170000
158,"Xixiaoqu, Deyang",,31.131159,104.390972,119,60,7,22,4,10,14,8,1024,67,2,20141113170000
159,"City Procuratorate, Deyang",,31.114554,104.407986,134,54,6,21,3,11,14,8,1024,67,2,20141113170000
160,"Refractory Factory, Deyang",,31.108606,104.356506,139,57,19,17,3,6,14,8,1024,67,2,20141113170000
161,Deyang,,31.124715,104.400703,139,60,19,22,8,11,14,8,1024,67,2,20141113170000
162,"Nongnongping, Panzhihua",,26.566698,101.695438,78,30,17,17,2,5,12,7,0,65,2,20141113170000
163,"Hemenkou, Panzhihua",,26.589072,101.578312,144,71,13,20,50,21,12,7,0,65,2,20141113170000
164,"Bingcaogang, Panzhihua",,26.58143,101.718473,42,18,7,18,20,13,12,7,0,65,2,20141113170000
165,"Renhe, Panzhihua",,26.498166,101.746887,59,28,11,15,6,11,12,7,0,65,2,20141113170000
166,"Jinjina, Panzhihua",,26.553226,101.84862,61,24,18,6,6,9,12,7,0,65,2,20141113170000
167,Panzhihua,,26.578779,101.720211,144,71,18,20,50,21,12,7,0,65,2,20141113170000
168,"Shima Middle School, Yibin",,28.815979,104.599199,151,68,10,18,14,9,12,11,1025,90,1,20141113170000
169,"Municipal party committee, Yibin",,28.762654,104.624834,124,57,12,20,20,6,12,11,1025,90,1,20141113170000
170,"No. 4 middle school, Yibin",,28.783257,104.608407,149,63,10,18,11,7,12,11,1025,90,1,20141113170000
171,"City government, Yibin",,28.760477,104.644079,151,65,9,17,6,8,12,11,1025,90,1,20141113170000
172,"Huangjinzui, Yibin",,28.712319,104.578389,119,56,8,15,6,12,12,11,1025,90,1,20141113170000
173,"Shaping Middle School, Yibin",,28.795569,104.681393,97,52,14,10,8,7,12,11,1025,90,1,20141113170000
174,Yibin,,28.748384,104.645766,151,68,14,20,20,12,12,11,1025,90,1,20141113170000
175,"Datang Hill, Zigong",,29.359969,104.757388,174,139,18,13,39,7,13,10,0,79,1,20141113170000
176,"Yanma Road, Zigong",,29.355752,104.724036,170,78,24,17,2,4,13,10,0,79,1,20141113170000
177,"Tanmulin Street, Zigong",,29.353555,104.777397,155,63,21,9,7,5,13,10,0,79,1,20141113170000
178,"Chunhua Road, Zigong",,29.33825,104.771895,154,67,15,18,9,8,13,10,0,79,1,20141113170000
179,Zigong,,29.33617,104.781138,174,139,24,18,39,8,13,10,0,79,1,20141113170000
180,"Jiushi Hill, Luzhou",,28.955347,105.434207,85,42,17,8,1,3,13,10,0,78,1,20141113170000
181,"Xiaoshishang Port, Luzhou",,28.899583,105.447192,95,41,17,15,22,8,13,10,0,78,1,20141113170000
182,"Lantianxian Bridge, Luzhou",,28.852766,105.4358,80,40,21,19,3,3,13,10,0,78,1,20141113170000
183,"City Environment Monitoring Station, Luzhou",,28.895898,105.435802,95,40,15,20,3,5,13,10,0,78,1,20141113170000
184,Luzhou,,28.868782,105.445938,95,42,21,20,22,8,13,10,0,78,1,20141113170000
185,"City Committee, Nanchong",,30.799993,106.082906,161,110,16,9,5,7,12,12,1025,99,0,20141113170000
186,"Refinery Factory, Nanchong",,30.819412,106.10712,157,67,7,23,2,4,12,12,1025,99,0,20141113170000
187,"Gaoping District Monitoring Station, Nanchong",,30.783291,106.110417,152,71,6,18,9,13,12,12,1025,99,0,20141113170000
188,"Jialing District EPB, Nanchong",,30.761255,106.06818,160,80,7,28,9,12,12,12,1025,99,0,20141113170000
189,"City Environmental Monitoring Station, Nanchong",,30.836519,106.11272,156,69,8,21,33,10,12,12,1025,99,0,20141113170000
190,Nanchong,,30.835511,106.114717,161,110,16,38,33,13,12,12,1025,99,0,20141113170000
1249,"City Monitoring Station, Neijiang",,29.592673,105.036234,176,91,13,15,7,8,13,10,0,79,1,20141113170000
1250,"Dongxing District Government , Neijiang",,29.592148,105.074966,155,68,17,10,7,5,13,10,0,79,1,20141113170000
1251,"No 2 middle school, Neijiang",,29.579135,105.068548,172,87,17,19,7,5,13,10,0,79,1,20141113170000
1252,Neijiang,,29.577653,105.06166,176,91,17,22,10,8,13,10,0,79,1,20141113170000
1253,"City Monitoring Station, Suining",,30.610641,105.683583,152,77,11,18,15,9,12,10,0,84,1,20141113170000
1254,"Administrative center , Suining",,30.63206,105.819747,99,61,11,21,22,7,12,10,0,84,1,20141113170000
1255,Suining,,30.530053,105.596307,152,77,12,21,22,9,12,10,0,84,1,20141113170000
1256,"City Monitoring Station, Leshan",,29.560651,103.759211,155,70,18,16,14,7,12,7,0,72,0,20141113170000
1257,"Leshan Giant Buddha Scenic Area , Leshan",,29.543938,103.772706,132,57,22,12,4,6,12,7,0,72,0,20141113170000
1258,Leshan,,29.54935,103.767777,155,70,22,23,14,7,12,7,0,72,0,20141113170000
1259,"Heilongtan , Meishan",,30.047726,103.900649,152,65,27,6,2,3,14,8,1024,67,2,20141113170000
1260,"Bureau of Meteorology, Meishan",,30.084591,103.843715,124,64,16,14,6,7,14,8,1024,67,2,20141113170000
1261,"Xuguang Community , Meishan",,30.066277,103.8516,139,65,21,12,4,5,14,8,1024,67,2,20141113170000
1262,"City Monitoring Station, Meishan",,30.059205,103.836229,127,62,18,15,11,4,14,8,1024,67,2,20141113170000
1263,Meishan,,30.072618,103.85064,152,65,27,15,11,7,14,8,1024,67,2,20141113170000
1264,"Ziyang middle school, Ziyang",,30.147763,104.638024,97,65,31,7,11,4,15,10,0,72,2,20141113170000
1265,Ziyang,,30.126054,104.63004,137,69,27,16,21,10,14,10,1001,77,1,20141113170000
191,Shenyang US Consulate,,41.785668,123.432865,178,116,,38,51,,-7,-14,1022,58,2,20141113170000
192,"Huishan, Shenyang",,41.835421,123.647773,189,123,15,34,21,9,-7,-14,1022,58,2,20141113170000
193,"Hunnan, Shenyang",,41.758263,123.540809,194,124,4,36,35,16,-7,-14,1022,58,2,20141113170000
194,"Zhangshi, Shenyang",,41.771679,123.289859,197,136,3,32,24,19,-5,-14,1022,50,1,20141113170000
195,"Artillery College, Shenyang",,41.835749,123.547799,155,112,6,32,32,14,-7,-14,1022,58,2,20141113170000
196,"Beiling, Shenyang",,41.849633,123.434146,186,128,4,36,57,9,-5,-14,1022,50,1,20141113170000
197,"Wenyi Road, Shenyang",,41.767444,123.416144,209,116,12,38,51,10,-7,-14,1022,58,2,20141113170000
198,"Xiaoheyan, Shenyang",,41.779828,123.484015,173,97,4,34,48,10,-5,-14,1022,50,1,20141113170000
199,"Taiyuan Street, Shenyang",,41.799646,123.406146,197,124,3,38,70,12,-5,-14,1022,50,1,20141113170000
200,"Ermao, Shenyang",,41.783011,123.366679,190,123,13,37,32,11,-7,-14,1022,58,2,20141113170000
201,"Liaoning University, Shenyang",,41.830704,123.361071,204,128,5,35,50,13,-7,-14,1022,58,2,20141113170000
202,Shenyang,,41.808126,123.437611,197,124,3,38,70,12,-5,-14,1022,50,0,20141113170000
1104,"wenhua street, Shenyang , Shenyang",,41.774139,123.441839,209,116,12,38,51,10,-5,-14,1022,50,1,20141113170000
1105,"Tanglin Road , Shenyang , Shenyang",,41.823665,123.562317,155,112,6,32,32,14,-5,-14,1022,50,1,20141113170000
203,"Ganjingzi, Dalian",,38.9747,121.616893,99,56,20,40,27,10,1,-4,1023,70,0,20141113170000
204,"Zhoushuizi, Dalian",,38.951928,121.569981,117,58,3,23,30,19,1,-4,1023,70,0,20141113170000
205,"Xinghai No 3 station, Dalian",,38.885779,121.568864,114,56,7,35,18,12,1,-4,1023,70,0,20141113170000
206,"Qingniwa Bridge, Dalian",,38.91274,121.638018,107,56,4,36,34,16,1,-4,1023,70,0,20141113170000
207,"Fujiazhuang, Dalian",,38.864647,121.629947,-,-,-,-,-,-,-,-,0,-,-,20141113170000
208,"Qixianling, Dalian",,38.856978,121.523169,85,49,8,21,11,13,1,-4,1023,70,0,20141113170000
209,"Lushun, Dalian",,38.808946,121.264063,76,40,21,11,7,6,1,-4,1023,70,0,20141113170000
210,"Jinzhou, Dalian",,39.132192,121.753259,87,48,11,7,11,4,1,-4,1023,70,0,20141113170000
211,"BDA, Dalian",,39.05213,121.782022,104,57,7,47,43,9,2,-5,1023,60,1,20141113170000
212,"D&D Port, Dalian",,39.064087,121.981874,78,29,10,5,3,9,1,-4,1023,70,0,20141113170000
213,Dalian,,38.91478,121.619625,107,56,4,36,34,16,-,-,0,-,-,20141113170000
214,"Bearing Factory, Dandong",,40.068929,124.345703,151,155,,20,51,,-5,-16,1026,31,1,20141113170000
215,"Financial school, Dandong",,40.158723,124.432593,161,91,6,24,29,16,-5,-9,1024,62,1,20141113170000
216,"Yuanbaoshan water, Dandong",,40.149431,124.391698,99,58,9,12,19,16,-5,-9,1024,62,1,20141113170000
217,"Experimental Primary School, Dandong",,39.887343,124.158056,163,102,3,28,33,27,-5,-9,1024,62,1,20141113170000
218,Dandong,,40.002046,124.360479,163,102,9,28,33,24,-5,-9,1024,62,1,20141113170000
1106,"minzhu bridge, Dandong , Dandong",,40.112974,124.373604,163,102,6,28,33,24,-5,-9,1024,62,1,20141113170000
1107,"yuanbaoshan, Dandong , Dandong",,40.146298,124.399081,99,58,10,12,19,15,-5,-9,1024,62,1,20141113170000
1108,"linjiang houjie, Dandong , Dandong",,40.152757,124.431745,161,91,9,24,29,15,-5,-9,1024,62,1,20141113170000
219,"BDA, Panjin",,41.157144,122.06645,152,64,8,41,17,21,-2,-15,0,36,3,20141113170000
220,"Xinglongtai, Panjin",,41.140948,122.111343,155,68,6,30,14,16,-2,-15,0,36,3,20141113170000
221,"Dingxiang, Panjin",,41.16139,121.928781,80,40,29,24,10,5,-2,-15,0,36,3,20141113170000
222,Panjin,,41.122089,122.076206,155,68,8,41,17,21,-2,-15,0,36,3,20141113170000
223,"No.3 water company, Yingkou",,40.682052,122.385352,93,61,11,31,13,7,0,-8,1023,41,2,20141113170000
224,"Yingkou University, Yingkou",,40.683689,122.388285,127,51,10,31,12,9,0,-8,1023,41,2,20141113170000
332,"Business School, Weifang",,36.682442,119.105909,174,123,7,41,49,9,,,0,,,20141113170000
225,"Botanical garden, Yingkou",,40.711674,122.281568,82,37,9,35,22,9,0,-8,1023,41,2,20141113170000
226,Yingkou,,40.668578,122.24059,127,62,12,38,25,9,0,-8,1023,41,2,20141113170000
1109,"jinghu west street, Yingkou , Yingkou",,40.653831,122.221943,93,61,11,31,13,7,0,-8,1023,41,2,20141113170000
1110,"Daqing Road , Yingkou , Yingkou",,40.709181,122.28243,82,37,9,35,22,9,0,-8,1023,41,2,20141113170000
227,"Xishanpo, Huludao",,40.724078,120.921974,179,160,11,33,74,19,,,0,,,20141113170000
228,"Huagong hospital, Huludao",,40.755662,120.848435,154,83,10,24,49,32,,,0,,,20141113170000
229,"New district park, Huludao",,40.723415,120.853801,180,150,7,30,43,20,,,0,,,20141113170000
230,"Lianshan district governement, Huludao",,40.775488,120.872292,160,119,4,27,25,32,,,0,,,20141113170000
231,Huludao,,40.712501,120.842107,180,150,7,30,43,20,,,0,,,20141113170000
1111,"Dongcheng District , Huludao , Huludao",,40.775362,120.871706,160,119,4,27,25,32,,,0,,,20141113170000
1112,"huagong street, Huludao , Huludao",,40.758901,120.842935,154,83,10,24,49,32,,,0,,,20141113170000
232,Anshan,,41.110466,123.000147,158,87,22,37,53,21,-6,-13,1022,58,0,20141113170000
233,"Qianshan Park, Anshan",,41.033486,123.143897,112,55,22,11,10,4,-6,-13,1022,58,0,20141113170000
234,"Tiexi, Anshan",,41.121636,122.97506,152,84,4,31,46,21,-6,-13,1022,58,0,20141113170000
235,"Taiping Station, Anshan",,41.153322,123.052433,158,87,3,22,39,20,-6,-13,1022,58,0,20141113170000
236,"Central Station, Anshan",,41.106731,123.002736,127,68,9,24,53,21,-6,-13,1022,58,0,20141113170000
237,"Shengou Temple, Anshan",,41.137157,123.031901,129,62,9,28,42,17,-6,-13,1022,58,0,20141113170000
1113,"Qianshan , Anshan , Anshan",,41.014521,123.122538,93,48,22,9,9,4,-6,-13,1022,58,0,20141113170000
1114,"Tiexi Sandao jie, Anshan",,41.103264,122.978613,152,84,4,31,46,21,-6,-13,1022,58,0,20141113170000
1115,"Taiyang, Anshan",,41.094946,123.019037,127,68,9,24,53,21,-6,-13,1022,58,0,20141113170000
238,Fushun,,41.883028,123.962984,193,110,9,34,24,24,-5,-14,1022,50,0,20141113170000
239,"Shenfu new town, Fushun",,41.804638,123.631684,175,99,5,28,16,13,-7,-14,1022,58,2,20141113170000
240,"Reservoir, Fushun",,41.8464,123.802857,165,100,12,35,18,14,-7,-14,1022,58,2,20141113170000
241,"Train Station, Fushun",,41.89726,124.017604,193,102,7,31,24,13,-7,-14,1022,58,2,20141113170000
242,"Dongzhou, Fushun",,41.855578,124.044738,163,110,9,29,18,14,-7,-14,1022,58,2,20141113170000
243,"Xinhua, Fushun",,41.888598,123.932932,185,99,3,34,24,24,-7,-14,1022,58,2,20141113170000
244,"Wanghua, Fushun",,41.888825,123.093723,189,117,9,30,46,22,-7,-14,1022,58,2,20141113170000
245,Benxi,,41.296267,123.772371,182,185,49,103,65,39,-7,-14,1022,58,2,20141113170000
246,"Weining, Benxi",,41.349663,123.826071,168,128,49,38,3,35,-5,-14,1022,50,1,20141113170000
247,"Occupational disease hospital, Benxi",,41.305432,123.74645,114,58,6,37,15,11,-7,-14,1022,58,2,20141113170000
248,"Dongming, Benxi",,41.292369,123.765058,162,67,5,105,64,31,-5,-14,1022,50,1,20141113170000
249,"Caitun, Benxi",,41.301591,123.746039,134,86,7,31,21,39,-5,-14,1022,50,1,20141113170000
250,"Xihu, Benxi",,41.331332,123.773537,182,185,11,24,53,22,-7,-14,1022,58,2,20141113170000
251,"Dayu, Benxi",,41.308091,123.818442,157,62,7,23,28,17,-6,-13,1022,58,1,20141113170000
1116,"Xinlitun , Benxi , Benxi",,41.264104,123.811523,114,58,6,37,15,11,-5,-14,1022,50,1,20141113170000
252,Jinzhou,,41.097169,121.132647,174,109,5,29,40,40,-1,-13,1023,24,1,20141113170000
253,"Beihu Park, Jinzhou",,41.141447,121.137339,174,109,5,29,40,21,-1,-13,1023,24,1,20141113170000
254,"Monitoring station, Jinzhou",,41.113441,121.140911,139,101,5,25,21,14,-1,-13,1023,24,1,20141113170000
255,"Nanshan, Jinzhou",,41.570689,122.046753,170,84,3,23,40,40,-1,-13,1023,24,1,20141113170000
1118,"BDA, Jinzhou",,40.853915,121.061756,137,94,3,24,60,25,-1,-13,1023,24,1,20141113170000
1119,"tianan street, Jinzhou , Jinzhou",,41.124468,121.126119,129,75,4,22,20,14,-1,-13,1023,24,1,20141113170000
1120,"baigu street, Jinzhou, Jinzhou",,41.12214,121.21027,170,106,8,24,16,34,-1,-13,1023,24,1,20141113170000
1121,Chaoyang,,41.576022,120.456053,180,131,8,27,51,54,-,-,0,-,-,20141113170000
472,"Fukang road, Tianjin",,39.098136,117.157621,174,92,5,40,26,15,6,-11,1024,29,2,20141113170000
1122,"Agricultural Area, Chaoyang",,43.93968,125.247371,61,54,5,8,8,20,-3,-16,1024,23,1,20141113170000
1123,Tieling,,42.225197,123.732174,194,117,20,35,58,13,-,-,0,-,-,20141113170000
260,"Waterpark, Tieling",,42.297031,123.880748,168,108,7,28,37,13,-6,-13,1022,58,0,20141113170000
1124,"Huigong Street West , Tieling , Tieling",,42.311115,123.845614,199,86,3,35,48,12,-6,-13,1022,58,1,20141113170000
1125,Liaoyang,,41.269312,123.24268,99,75,7,27,38,11,-,-,0,-,-,20141113170000
1126,"Riverside Road , Liaoyang , Liaoyang",,41.176884,123.419859,89,66,3,20,30,19,-6,-13,1022,58,1,20141113170000
1127,Fuxin,,42.02373,121.675733,144,102,4,25,18,24,-,-,0,-,-,20141113170000
266,"Agricultural Area, Fuxin",,42.071291,121.696445,46,41,7,6,14,14,-4,-14,0,43,3,20141113170000
267,"Industrial Area, Fuxin",,42.041052,121.715554,144,102,4,25,18,24,-4,-14,0,44,3,20141113170000
1128,"Yulong Metro , Fuxin , Fuxin",,42.035091,121.666531,74,77,5,21,26,20,-4,-14,0,43,3,20141113170000
1129,"Dongyuan , Fuxin , Fuxin",,42.029119,121.681553,61,76,11,22,27,17,-4,-14,0,44,3,20141113170000
268,"City Monitoring Station, Jinan",,36.662614,117.054645,160,105,4,44,40,9,6,-10,1026,19,1,20141113170000
269,"Shandong Institute of Economics, Jinan",,36.63819,117.074975,134,80,17,14,22,3,6,-10,1026,19,1,20141113170000
270,"Quancheng Plaza, Jinan",,36.661711,117.027043,155,96,8,37,27,13,6,-10,1026,19,1,20141113170000
271,"Kegansuo, Jinan",,36.611582,116.99384,122,82,21,22,34,11,6,-10,1026,19,1,20141113170000
272,"Agriculture Science Institute, Jinan",,36.663115,116.95063,171,152,5,43,30,11,6,-10,1026,19,1,20141113170000
273,"Lanxiang technical school, Jinan",,36.700421,116.95342,162,113,13,45,33,9,6,-10,1026,19,1,20141113170000
274,"Chemical factory, Jinan",,36.687463,116.994406,159,100,3,53,39,13,6,-10,1026,19,1,20141113170000
275,"Provincial Seed Warehouse, Jinan",,36.685706,117.066348,160,119,7,39,42,6,6,-10,1026,19,1,20141113170000
276,"Shandong Architecture University, Jinan",,36.681732,117.191868,158,127,9,17,22,10,6,-10,1026,19,1,20141113170000
277,"Baosheng cable company, Jinan",,36.724638,117.130855,179,155,3,43,29,12,6,-10,1026,19,1,20141113170000
278,"Paomaling, Jinan",,36.47869,117.219027,109,68,28,10,29,4,6,-10,1026,19,1,20141113170000
279,"Changqing District Communist Party School, Jinan",,36.548797,116.770859,152,96,15,45,35,7,6,-10,1026,19,1,20141113170000
280,"BDA, Jinan",,36.685835,117.130851,134,86,16,33,20,5,6,-10,1026,19,1,20141113170000
281,Jinan,,36.651426,117.126625,160,105,4,44,40,9,6,-10,1026,19,1,20141113170000
282,"Shinan district No. 1, Qingdao",,36.065534,120.40839,142,63,5,1,45,9,3,-9,1025,41,2,20141113170000
283,"Shibei district No. 1, Qingdao",,36.069919,120.341264,117,51,9,40,45,26,3,-9,1025,41,2,20141113170000
284,"Shibei district No. 2, Qingdao",,36.104146,120.36637,114,77,10,50,17,10,3,-9,1025,41,2,20141113170000
285,"Huangdao District No. 1, Qingdao",,35.958935,120.191041,154,112,12,73,20,10,3,-9,1025,41,2,20141113170000
286,"Huangdao District No. 2, Qingdao",,35.970487,120.160339,165,65,23,39,8,6,3,-9,1025,41,2,20141113170000
287,"Laoshan District No. 1, Qingdao",,36.085881,120.451839,151,71,9,55,24,10,3,-9,1025,41,2,20141113170000
288,"Laoshan District No. 2, Qingdao",,36.091075,120.490388,122,64,12,12,25,6,3,-9,1025,41,2,20141113170000
289,"Licang District No. 1, Qingdao",,36.184872,120.38533,122,102,7,43,42,9,3,-9,1025,41,2,20141113170000
290,"Licang District No. 2, Qingdao",,36.154369,120.432287,163,73,10,32,17,5,3,-9,1025,41,2,20141113170000
291,"Chengyang District No. 1, Qingdao",,36.308502,120.40008,178,127,11,44,17,13,3,-9,1025,41,2,20141113170000
292,"Chengyang District No. 2, Qingdao",,36.308429,120.465806,132,54,20,17,15,7,3,-9,1025,41,2,20141113170000
293,Qingdao,,36.067358,120.387773,142,63,5,73,45,9,3,-9,1025,41,2,20141113170000
294,"Zichuan Meteo. Stations, Zibo",,36.637916,117.960222,-,-,-,-,-,-,-,-,0,-,-,20141113170000
295,"Dongfeng Chemical factory, Zibo",,36.838576,118.050785,179,259,2,62,64,15,1,-12,0,35,1,20141113170000
296,"Boshan shuangshan, Zibo",,36.497278,117.853581,155,73,6,37,44,14,2,-11,0,35,1,20141113170000
297,"Linzi Putian Park, Zibo",,36.820171,118.315022,157,106,7,80,65,24,2,-11,0,35,1,20141113170000
298,"Qilu Petrochemical, Zibo",,36.765907,118.254967,155,111,6,32,27,15,2,-11,0,35,1,20141113170000
299,"Zhoucun sanjin Group, Zibo",,36.8044,117.85694,184,137,12,35,74,17,2,-11,0,35,1,20141113170000
300,"Vocational College, Zibo",,36.825208,117.926305,82,59,209,22,66,16,2,-11,0,35,1,20141113170000
301,"BDA, Zibo",,36.905214,118.021824,170,112,4,28,36,11,2,-11,0,35,1,20141113170000
302,Zibo,,36.813618,118.060948,193,259,17,64,113,21,1,-12,0,35,1,20141113170000
303,"Shizhong District Government, Zaozhuang",,34.850397,117.569545,172,81,11,22,82,11,5,-3,1026,46,1,20141113170000
304,"Sewage treatment plant, Zaozhuang",,34.818951,117.595345,182,118,13,41,72,22,5,-3,1026,46,1,20141113170000
305,"Xuecheng EPA, Zaozhuang",,34.790214,117.272455,181,130,14,27,30,6,5,-3,1026,46,1,20141113170000
306,"Yicheng District government, Zaozhuang",,34.772806,117.57647,204,167,11,38,24,9,5,-3,1026,46,1,20141113170000
307,"Taierzhuang EPA, Zaozhuang",,34.579462,117.741067,184,144,10,35,22,8,5,-3,1026,46,1,20141113170000
308,"Shanting EPA, Zaozhuang",,35.070373,117.457691,152,81,8,20,10,9,5,-3,1026,46,1,20141113170000
309,"City EPA, Zaozhuang",,34.809466,117.320608,163,100,18,22,24,6,5,-3,1026,46,1,20141113170000
310,"High-tech zone, Zaozhuang",,34.821779,117.363495,202,136,15,31,28,11,5,-3,1026,46,1,20141113170000
311,Zaozhuang,,34.809693,117.329634,172,81,11,22,82,11,5,-3,1026,46,1,20141113170000
312,"City EPA, Dongying",,37.432052,118.672871,165,84,4,37,50,11,6,-8,0,33,3,20141113170000
313,"Vocational College, Dongying",,37.438653,118.630567,157,95,5,47,44,13,6,-9,0,31,3,20141113170000
314,"Xianhe Oil Production Plant, Dongying",,37.442419,118.510222,169,119,9,49,48,17,6,-9,0,31,3,20141113170000
315,"Gengjin village, Dongying",,37.445072,118.55839,165,104,5,25,19,8,6,-8,0,33,3,20141113170000
316,"City environmental company, Dongying",,37.466599,118.508012,162,86,10,50,48,6,6,-8,0,33,3,20141113170000
317,"Hekou  district, Dongying",,37.883786,118.522171,137,73,20,24,12,7,6,-9,0,31,3,20141113170000
318,"BDA, Dongying",,37.435162,118.701827,156,87,7,49,42,16,6,-9,0,31,3,20141113170000
319,Dongying,,37.435429,118.680434,165,84,4,37,50,11,6,-8,0,33,3,20141113170000
320,"Bearing Factory, Yantai",,37.544126,121.376956,109,48,14,20,12,6,,,0,,,20141113170000
321,"Xijiao Chemical Station, Yantai",,37.547148,121.323695,89,34,17,9,9,6,,,0,,,20141113170000
322,"Fushan Monitoring Stations, Yantai",,37.472245,121.260116,85,58,7,22,9,9,,,0,,,20141113170000
323,"Mouping EPA, Yantai",,37.376681,121.586509,91,53,11,16,5,11,,,0,,,20141113170000
324,"Laishan EPA, Yantai",,37.478422,121.44829,85,41,20,22,17,6,,,0,,,20141113170000
325,"Laishan Shengquan Industrial Park, Yantai",,37.4271,121.408386,117,75,8,32,12,8,,,0,,,20141113170000
326,"China Agricultural University, Yantai",,37.423568,121.511838,61,54,12,24,11,5,,,0,,,20141113170000
327,"BDA EPA, Yantai",,37.560827,121.257954,72,33,6,28,8,6,,,0,,,20141113170000
329,"Dajijia, Yantai",,37.673849,121.071465,65,36,28,9,8,7,,,0,,,20141113170000
330,Yantai,,37.464793,121.453142,109,48,14,20,12,6,,,0,,,20141113170000
333,"Hanting District, Weifang",,36.773484,119.199705,182,139,6,49,44,21,,,0,,,20141113170000
334,"Gongda Company, Weifang",,36.657635,119.167266,204,167,9,46,49,12,,,0,,,20141113170000
335,"City EPA, Weifang",,36.701272,119.16838,190,144,5,44,52,28,,,0,,,20141113170000
336,"City Arbitration Committee, Weifang",,36.702422,119.145927,209,160,14,44,54,28,,,0,,,20141113170000
337,"Xinhui Group, Weifang",,36.641581,119.11679,206,160,6,45,40,21,,,0,,,20141113170000
338,"Jincheng Middle School, Weifang",,36.773611,119.115539,173,118,16,44,58,10,,,0,,,20141113170000
339,Weifang,,36.707217,119.167638,165,124,18,46,60,12,,,0,,,20141113170000
340,"City Monitoring Station, Jining",,35.408443,116.623917,192,134,6,40,52,18,2,-2,1026,64,1,20141113170000
1090,"Shengdi Hollidays Resort, Jining",,35.424746,116.699093,154,91,11,44,58,14,2,-2,1026,64,1,20141113170000
341,"Sewage treatment plant, Jining",,35.364286,116.609177,251,100,4,19,52,12,2,-2,1026,64,1,20141113170000
342,"Electrochemical Factory, Jining",,35.390473,116.552956,159,186,9,17,28,10,2,-2,1026,64,1,20141113170000
343,"Rencheng BDA, Jining",,35.390484,116.662995,185,92,12,35,53,15,2,-2,1026,64,1,20141113170000
344,"Agricultural School, Jining",,35.44235,116.601682,171,126,4,50,50,11,2,-2,1026,64,1,20141113170000
345,"BDA Huojucheng, Jining",,35.436377,116.642953,163,106,10,33,51,13,2,-2,1026,64,1,20141113170000
346,Jining,,35.414473,116.59239,192,134,6,40,52,18,2,-2,1026,64,1,20141113170000
347,"Taishan monitoring station, Taian",,36.194362,117.159648,185,114,3,35,31,14,-3,-11,0,38,8,20141113170000
348,"Shandong Electric Power School, Taian",,36.176071,117.12413,287,176,7,54,54,22,-3,-11,0,38,8,20141113170000
349,"Population Education school, Taian",,36.194417,117.104131,152,94,5,33,29,15,-3,-11,0,38,8,20141113170000
350,"Houfeng company, Taian",,36.204863,117.19015,184,181,3,37,13,17,-3,-11,0,38,8,20141113170000
351,"Nongda new campus, Taian",,36.170179,117.165191,254,228,3,45,39,24,-3,-11,0,38,8,20141113170000
352,"Transportation technical school, Taian",,36.202126,117.047068,158,93,3,35,13,11,-3,-11,0,38,8,20141113170000
353,"ICT Technology, Taian",,36.116621,117.107458,174,79,11,31,32,14,-3,-11,0,38,8,20141113170000
354,Taian,,36.200502,117.093682,185,114,3,35,31,14,-3,-11,0,38,8,20141113170000
355,"City Environmental Monitoring Station, Weihai",,37.513939,122.067058,65,42,21,21,14,6,8,0,0,52,6,20141113170000
356,"Woodworking Factory, Weihai",,37.325455,122.160777,63,31,20,18,13,2,8,0,0,52,6,20141113170000
357,"Lantian Hotel, Weihai",,37.514641,122.146276,34,29,27,15,17,5,8,0,0,52,6,20141113170000
358,"Zhang village government, Weihai",,37.485561,122.049436,50,11,17,10,12,5,8,0,0,52,6,20141113170000
359,"Gao District Bank, Weihai",,37.534919,122.056294,50,40,28,9,8,3,8,0,0,52,6,20141113170000
360,"Huxia technical school, Weihai",,37.427951,122.130811,74,37,25,6,6,2,8,0,0,52,6,20141113170000
361,Weihai,,37.5141,122.125477,65,42,21,21,14,6,8,0,0,52,6,20141113170000
362,"City governement square, Rizhao",,35.4075,119.526008,162,111,5,33,30,8,5,-6,1026,31,1,20141113170000
363,"Port Authority, Rizhao",,35.381297,119.55396,-,-,-,-,-,-,-,-,0,-,-,20141113170000
364,"City Monitoring Station, Rizhao",,35.388683,119.496405,181,142,3,42,29,13,5,-6,1026,31,1,20141113170000
365,"Professor Garden, Rizhao",,35.462161,119.574193,160,120,9,49,32,16,5,-6,1026,31,1,20141113170000
366,"Vocational and Technical College, Rizhao",,35.441939,119.538187,168,111,6,35,32,13,5,-6,1026,31,1,20141113170000
367,"Lanshan EPA branch, Rizhao",,35.293405,119.345716,155,85,5,42,38,10,5,-6,1026,31,1,20141113170000
368,"Jinma Industrial Park, Rizhao",,35.373339,119.514108,169,142,7,45,34,13,5,-6,1026,31,1,20141113170000
369,Rizhao,,35.416089,119.532316,162,111,5,33,30,8,5,-6,1026,31,1,20141113170000
370,"Vegetable oil factory, Laiwu",,36.205028,117.700917,173,140,3,47,57,22,2,-8,1027,35,1,20141113170000
371,"Nursing home, Laiwu",,36.266067,117.652769,142,80,22,16,24,9,8,-13,1026,10,3,20141113170000
372,"Xinyi middle school, Laiwu",,36.245086,117.739025,127,90,4,40,53,16,2,-8,1027,35,1,20141113170000
373,"Risheng International School, Laiwu",,36.208125,117.730959,161,123,2,35,37,16,2,-8,1027,35,1,20141113170000
374,"Gangcheng EPA, Laiwu",,36.066836,117.871823,151,111,6,34,53,15,2,-8,1027,35,1,20141113170000
375,"City EPA, Laiwu",,36.228913,117.694797,181,146,4,42,56,27,2,-8,1027,35,1,20141113170000
376,Laiwu,,36.213688,117.682612,173,140,3,47,57,22,-,-,0,-,-,20141113170000
377,"Lunan Pharmaceutical Factory, Linyi",,35.061671,118.299527,203,191,2,46,53,13,3,-8,0,42,2,20141113170000
378,"Yihe compound, Linyi",,35.056752,118.34739,175,123,4,45,54,15,3,-8,0,42,2,20141113170000
379,"Linyi University, Linyi",,35.114777,118.293414,178,191,4,47,37,21,3,-8,0,42,2,20141113170000
380,City EPA,Nanfang,35.104871,118.353518,134,109,5,48,63,15,3,-8,0,42,2,20141113170000
381,"Xinguang woolen factory, Linyi",,34.981004,118.282,164,104,13,39,53,16,3,-8,0,42,2,20141113170000
382,"Hongfu Baijiu Factory, Linyi",,34.998788,118.257275,184,144,12,45,58,19,3,-8,0,42,2,20141113170000
384,"Hedong insurance company, Linyi",,35.089354,118.40812,158,122,3,42,50,10,3,-8,0,42,2,20141113170000
385,"Jianghua vehicule center, Linyi",,35.010082,118.435749,179,82,2,44,40,12,3,-8,0,42,2,20141113170000
386,Linyi,,35.10428,118.362202,203,191,2,46,53,13,3,-8,0,42,2,20141113170000
387,"Heima group, Dezhou",,37.466063,116.314134,151,84,8,38,27,12,4,-9,1025,27,0,20141113170000
388,"Monitoring station, Dezhou",,37.433107,116.377312,176,87,5,37,16,22,4,-9,1025,27,0,20141113170000
389,"Supervision Station, Dezhou",,37.449689,116.324709,167,117,4,31,21,12,4,-9,1025,27,0,20141113170000
390,"Huayu technical school, Dezhou",,37.462809,116.357559,144,72,4,33,15,10,4,-9,1025,27,0,20141113170000
391,"Shuangyi group, Dezhou",,37.478848,116.316362,186,89,3,34,15,13,4,-9,1025,27,0,20141113170000
392,Dezhou,,37.434959,116.363366,151,84,8,38,27,12,4,-9,1025,27,0,20141113170000
393,"Dongchang District Government, Liaocheng",,36.444473,115.971733,173,115,2,49,44,15,5,-3,1025,45,1,20141113170000
394,"Light Machinery Factory No. 2, Liaocheng",,36.456788,116.002383,175,139,3,41,25,14,5,-3,1025,45,1,20141113170000
395,"City committee communist party school, Liaocheng",,36.479537,115.989288,165,120,7,44,28,13,5,-3,1025,45,1,20141113170000
396,"Customs, Liaocheng",,36.431933,115.956974,175,151,7,67,51,20,5,-3,1025,45,1,20141113170000
397,"Hongshun Garden, Liaocheng",,36.471124,115.960319,165,138,2,71,37,14,5,-3,1025,45,1,20141113170000
398,"BDA, Liaocheng",,36.459407,116.043621,178,182,4,39,28,16,5,-3,1025,45,1,20141113170000
399,Liaocheng,,36.456792,115.991051,173,115,2,49,44,15,5,-3,1025,45,1,20141113170000
400,"City EPA, Binzhou",,37.38024,118.026895,153,74,9,33,11,9,4,-8,1025,28,1,20141113170000
401,"Beizhong new school, Binzhou",,37.38374,117.988996,107,70,2,39,13,10,4,-8,1025,28,1,20141113180000
402,"No.2 water factory, Binzhou",,37.36155,118.002648,155,91,4,28,13,11,4,-8,1025,28,1,20141113180000
403,"Keling Chemical factory, Binzhou",,37.396138,117.943609,132,55,5,18,12,16,4,-8,1025,28,1,20141113180000
404,"Yinhe logistics company, Binzhou",,37.356122,117.943326,149,69,7,44,9,11,4,-8,1025,28,1,20141113180000
405,"Bilin compond, Binzhou",,37.36815,117.978964,155,81,9,48,10,15,4,-8,1025,28,1,20141113180000
406,Binzhou,,37.382639,117.976606,157,74,7,33,5,10,4,-8,1025,28,1,20141113180000
407,"Bureau of Meteorology, Heze",,35.248625,115.428775,177,158,10,38,29,10,5,-9,0,34,1,20141113180000
408,"Sewage treatment plant, Heze",,35.222517,115.531511,186,181,1,53,36,17,5,-9,0,34,1,20141113180000
409,"Municipal CPPCC, Heze",,35.237125,115.480591,171,125,8,40,73,10,5,-9,0,34,1,20141113180000
410,"Huarun Pharmaceutical Company, Heze",,35.261463,115.524873,191,246,4,40,37,18,5,-9,0,34,1,20141113180000
411,"Heze University, Heze",,35.269706,115.460934,168,117,16,35,29,8,5,-9,0,33,1,20141113180000
412,Heze,,35.233354,115.486503,177,158,10,38,29,10,5,-9,0,34,1,20141113180000
413,"Shiji Park, Shijiazhuang",,38.03155,114.547873,167,105,12,41,34,9,3,-8,1025,45,3,20141113180000
414,"Xinan College, Shijiazhuang",,38.012764,114.473163,157,113,3,23,23,9,3,-8,1025,45,3,20141113180000
415,"Chemical College, Shijiazhuang",,38.055503,114.569816,112,72,1,12,5,7,3,-8,1025,45,3,20141113180000
416,"Worker hospital, Shijiazhuang",,38.051784,114.461209,154,97,3,31,22,9,3,-8,1025,45,3,20141113180000
417,"Northwest Water Company, Shijiazhuang",,38.140638,114.508038,164,113,1,28,26,7,3,-8,1025,45,3,20141113180000
418,"High-tech zone, Shijiazhuang",,38.040482,114.610775,164,86,3,37,26,6,3,-8,1025,45,3,20141113180000
419,"Fenglong Montain, Shijiazhuang",,37.910829,114.360264,97,57,18,17,27,8,3,-8,1025,45,3,20141113180000
1130,"Zhengding Unicom, Shijiazhuang",,38.159458,114.59879,181,138,4,42,40,12,3,-8,1025,45,2,20141113180000
1131,"Luancheng Communications, Shijiazhuang",,37.906534,114.638785,192,139,6,38,51,9,3,-8,1025,45,2,20141113180000
1132,"Gaocheng Experimental School, Shijiazhuang",,38.039518,114.867812,162,99,10,29,38,7,3,-8,1025,45,2,20141113180000
1133,"Wuji EPA, Shijiazhuang",,38.17862,114.997012,178,123,8,38,32,9,3,-8,1025,45,2,20141113180000
1134,"Shenze Power Supply Bureau, Shijiazhuang",,38.197674,115.219126,191,134,10,39,38,9,3,-8,1025,45,2,20141113180000
1135,"Zhaoxian EPA, Shijiazhuang",,37.77171,114.775957,153,79,7,36,53,12,3,-8,1025,45,2,20141113180000
1136,"Gaoyi County City Hall, Shijiazhuang",,37.623535,114.612729,193,133,6,37,59,15,3,-8,1025,45,2,20141113180000
1137,"Zanhuang County City Hall, Shijiazhuang",,37.672898,114.398269,154,93,17,29,16,14,3,-8,1025,45,2,20141113180000
1138,"Jingxing Bureau of Meteorology, Shijiazhuang",,38.038788,114.158406,161,127,8,30,45,9,3,-8,1025,45,2,20141113180000
1139,"Pingshan Ye River, Shijiazhuang",,38.266657,114.210275,161,161,5,28,24,12,3,-8,1025,45,2,20141113180000
420,Shijiazhuang,,38.042926,114.520834,154,81,3,35,43,10,3,-8,1025,45,3,20141113180000
421,"No. 12 middle school, Tangshan",,39.659306,118.190271,,,,,,,-,-,0,-,-,20141113180000
422,"Ceramics Company, Tangshan",,39.669255,118.225185,157,76,4,40,14,9,6,-10,1024,31,3,20141113180000
423,"Commodities Bureau, Tangshan",,39.642301,118.191265,166,87,6,32,16,8,6,-10,1024,31,3,20141113180000
424,"Leidazhanzi Station, Tangshan",,39.644375,118.150383,159,102,4,40,15,12,6,-10,1024,31,3,20141113180000
425,"Supply and marketing cooperatives, Tangshan",,39.632334,118.17232,160,95,8,38,14,12,6,-10,1024,31,3,20141113180000
1140,"Guye District City Hall, Tangshan",,39.741379,118.460246,185,155,4,39,27,17,6,-10,1024,31,2,20141113180000
1141,"Kaiping Stations, Tangshan",,39.675246,118.275149,167,115,4,39,19,9,6,-10,1024,31,2,20141113180000
1142,"Fengnan District City Hall, Tangshan",,39.5834,118.097454,188,126,12,44,22,8,6,-10,1024,31,2,20141113180000
1143,"Fengrun City Hall, Tangshan",,39.840355,118.175338,99,114,6,33,38,17,6,-10,1024,31,2,20141113180000
1144,"Qianxi EPA, Tangshan",,40.153339,118.317265,178,112,8,29,16,24,6,-10,1024,31,2,20141113180000
1145,"Caofeidian Xinli  Primary School, Tangshan",,39.291232,118.462182,144,70,5,46,34,8,6,-10,1024,31,2,20141113180000
1146,"Zunhua EPA, Tangshan",,40.206249,117.997315,153,65,9,27,8,10,6,-10,1024,31,2,20141113180000
1147,"Qianan No.1 middle school, Tangshan",,40.004248,118.717055,160,86,6,32,19,18,6,-10,1024,31,2,20141113180000
1266,"Luannan County , Tangshan",,39.511132,118.686928,168,95,10,42,45,10,6,-10,1024,31,2,20141113180000
1267,"Yutian County , Tangshan",,39.908249,117.751417,170,111,5,44,31,18,6,-10,1024,31,2,20141113180000
426,Tangshan,,39.632175,118.186472,166,87,6,32,16,8,-,-,0,-,-,20141113180000
427,"City Monitoring Station, Qinhuangdao",,39.958109,119.607773,157,97,4,51,64,25,,,0,,,20141113180000
428,"Beidaihe, Qinhuangdao",,39.829209,119.53194,132,97,6,41,46,31,,,0,,,20141113180000
429,"Shanhai Pass, Qinhuangdao",,40.019298,119.767898,159,83,24,42,35,12,,,0,,,20141113180000
430,"Contruction Plazz, Qinhuangdao",,39.943187,119.542912,149,103,7,37,40,13,,,0,,,20141113180000
431,"City government, Qinhuangdao",,39.93711,119.612769,174,98,2,28,33,12,,,0,,,20141113180000
1148,"Qinglong EPA, Qinhuangdao",,40.419223,118.958002,122,56,18,8,36,6,,,0,,,20141113180000
1149,"Changli EPA, Qinhuangdao",,39.714369,119.173237,181,142,13,57,50,21,,,0,,,20141113180000
1268,"Lulong County Bureau of Meteorology , Qinhuangdao",,39.901091,118.904857,187,124,8,44,47,16,,,0,,,20141113180000
432,Qinhuangdao,,39.936485,119.606263,174,98,2,28,33,12,,,0,,,20141113180000
433,"CongTai Park, Handan",,36.620197,114.501891,171,131,3,10,4,6,,,0,,,20141113180000
434,"City EPA, Handan",,36.618145,114.518822,181,121,7,51,53,14,,,0,,,20141113180000
435,"East Sewage Factory, Handan",,36.616064,114.548714,151,86,4,39,21,5,,,0,,,20141113180000
436,"Mine Hospital, Handan",,36.578149,114.509854,157,81,3,12,13,7,,,0,,,20141113180000
1150,"Fengfeng mine Inland Revenue Department, Handan",,36.423085,114.245994,205,148,9,25,54,22,,,0,,,20141113180000
1151,"Shexian EPA, Handan",,36.589084,113.692341,137,61,12,23,14,12,,,0,,,20141113180000
1152,"Ci County Vocational Education Center, Handan",,36.380247,114.390119,166,95,11,37,51,8,,,0,,,20141113180000
1153,"Yongnian government guesthouse, Handan",,36.783297,114.502905,179,151,4,35,77,5,,,0,,,20141113180000
1154,"Wuan BDA, Handan",,36.686223,114.269009,177,156,4,32,37,12,,,0,,,20141113180000
1085,Handan,,36.625683,114.544812,151,86,9,39,21,5,,,0,,,20141113180000
437,"Road and Bridge Corporation, Xingtai",,37.096415,114.538799,173,129,3,35,21,13,3,-4,1025,47,1,20141113180000
438,"Dahuo fontain, Xingtai",,37.097563,114.488001,185,120,2,25,20,13,3,-4,1025,47,1,20141113180000
439,"Xingtai Normal College, Xingtai",,37.053404,114.531819,194,147,3,38,36,19,3,-4,1025,47,1,20141113180000
440,"Environment protection office, Xingtai",,37.06253,114.490985,163,120,3,30,19,12,3,-4,1025,47,1,20141113180000
1155,"Cultural centers within the mound, Xingtai",,37.293569,114.524873,160,91,5,20,4,25,3,-4,1025,47,1,20141113180000
383,Xingtai,,37.071066,114.510749,163,120,3,30,19,12,3,-4,1025,47,1,20141113180000
441,"City Monitoring Station, Baoding",,38.871737,115.527103,177,108,10,33,30,14,2,-8,1025,34,0,20141113180000
442,"Surface water Company, Baoding",,38.842891,115.467326,183,118,5,29,30,11,2,-8,1025,34,0,20141113180000
443,"Huadian II, Baoding",,38.896748,115.528102,30,112,5,33,51,33,2,-8,1025,34,0,20141113180000
444,"Reception Center, Baoding",,38.911905,115.477301,187,135,8,35,25,11,2,-8,1025,34,0,20141113180000
445,"Film Factory, Baoding",,38.876949,115.448383,188,153,4,48,18,12,2,-8,1025,34,0,20141113180000
446,"Natatorium, Baoding",,38.863815,115.499212,172,128,6,33,52,13,2,-8,1025,34,0,20141113180000
1156,"Qingyuan City Hall, Baoding",,38.771758,115.502189,177,112,6,30,34,13,2,-8,1025,34,0,20141113180000
1157,"Xushui EPA, Baoding",,39.025781,115.668023,50,17,12,28,3,19,2,-8,1025,34,0,20141113180000
1158,"Zhouzhou Monitoring Stations, Baoding",,39.493241,116.040187,155,76,8,22,22,10,2,-8,1025,34,0,20141113180000
1159,"Gaobeidian EPA, Baoding",,39.3329,115.885891,198,122,9,32,34,13,2,-8,1025,34,0,20141113180000
447,Baoding,,38.874791,115.471124,188,153,4,48,18,12,2,-8,1025,34,0,20141113180000
448,"Century Compound, Zhangjiakou",,40.770279,114.909106,104,47,12,13,19,6,-1,-16,1027,17,1,20141113180000
449,"North Pumping Station, Zhangjiakou",,40.874362,114.910119,13,47,14,4,5,8,-1,-16,1027,17,1,20141113180000
450,"Hardware Warehouse, Zhangjiakou",,40.81232,114.887119,74,51,40,8,18,15,-1,-16,1027,17,1,20141113180000
451,"Tanji Chang, Zhangjiakou",,40.796301,114.89811,109,53,12,10,17,6,-1,-16,1027,17,1,20141113180000
1160,"Xiahuayuan EPA, Zhangjiakou",,40.509345,115.302442,97,90,9,20,27,3,-1,-16,1027,17,1,20141113180000
1161,"Huaian EPA, Zhangjiakou",,40.68157,114.398646,78,10,13,45,9,9,-1,-16,1027,17,1,20141113180000
1162,"Huailai Fuqian Primary School, Zhangjiakou",,40.422204,115.530285,102,58,5,12,5,8,-1,-16,1027,17,1,20141113180000
1269,"Zhangbei EPA , Zhangjiakou",,41.166775,114.732369,124,63,13,10,8,7,-1,-16,1027,17,1,20141113180000
1270,"Kangbao County Environmental Protection Agency , Zhangjiakou",,41.837866,114.591246,46,17,28,1,7,2,-1,-16,1027,17,1,20141113180000
1271,"Guyuan County welfare , Zhangjiakou",,41.669984,115.687401,97,40,16,10,6,7,-1,-16,1027,17,1,20141113180000
1272,"Shangyi County Environmental Protection Bureau , Zhangjiakou",,41.086638,113.984688,119,63,16,12,14,10,-1,-16,1027,17,1,20141113180000
1273,"Yuxian Secondary School , Zhangjiakou",,39.84699,114.601986,154,64,8,24,34,23,-1,-16,1027,17,1,20141113180000
1274,"Yang County Vocational Education Center , Zhangjiakou",,40.106343,114.134732,89,49,23,2,5,10,-1,-16,1027,17,1,20141113180000
1275,"Wan county Environmental Protection Agency , Zhangjiakou",,40.770459,114.75033,70,20,26,6,2,6,-1,-16,1027,17,1,20141113180000
473,"Nankou road, Tianjin",,39.174022,117.199688,154,72,4,44,45,14,6,-11,1024,29,2,20141113180000
1276,"Zhuolu County Environmental Protection Agency , Zhangjiakou",,40.374273,115.221393,99,44,19,1,8,7,-1,-16,1027,17,1,20141113180000
452,Zhangjiakou,,40.825744,114.893659,80,49,18,3,15,5,-1,-16,1027,17,1,20141113180000
453,"Railway, Chengde",,40.917557,117.972331,142,68,2,22,28,9,-3,-14,1025,29,2,20141113180000
454,"Cultural Center, Chengde",,40.974625,117.824437,91,58,3,21,12,13,-3,-14,1025,29,2,20141113180000
455,"Bank of China, Chengde",,40.985582,117.958304,153,62,2,23,17,11,-3,-14,1025,29,2,20141113180000
456,"BDA, Chengde",,40.937567,117.969325,157,105,2,28,19,12,-3,-14,1025,29,2,20141113180000
457,"Ligong, Chengde",,41.012579,117.94428,102,75,10,14,6,6,-3,-14,1025,29,2,20141113180000
1163,"Chengde County EPA, Chengde",,40.776643,118.17646,152,79,4,28,35,18,-3,-14,1025,29,2,20141113180000
1164,"Xinglong County City Hall, Chengde",,40.424301,117.513488,151,60,9,23,11,22,-3,-14,1025,29,2,20141113180000
1165,"Luanping EPA, Chengde",,40.950792,117.350715,87,26,10,26,7,7,-3,-14,1025,29,2,20141113180000
1166,"Fengning County City Hall, Chengde",,41.216739,116.658037,187,101,9,29,18,29,-3,-14,1025,29,2,20141113180000
1277,"Longhua EPA , Chengde",,41.311956,117.739605,114,47,13,17,15,10,-3,-14,1025,29,2,20141113180000
458,Chengde,,40.955652,117.968737,157,105,2,28,19,12,-3,-14,1025,29,2,20141113180000
459,"Municipal EPB, Cangzhou",,38.323507,116.876746,117,79,10,35,15,11,6,-10,1024,31,2,20141113180000
460,"Cangxian Urban Construction Bureau, Cangzhou",,38.299495,116.890734,165,103,3,30,39,12,6,-10,1024,31,3,20141113180000
461,"TV Broadcast Station, Cangzhou",,38.325525,116.863761,152,69,7,12,28,11,6,-10,1024,31,3,20141113180000
1167,"Qing County City Hall, Cangzhou",,38.589643,116.815876,173,78,2,31,36,13,6,-10,1024,31,2,20141113180000
1168,"Poyoushi City Hall, Cangzhou",,38.089516,116.590575,155,76,13,15,13,12,6,-10,1024,31,2,20141113180000
1169,"Huanghua Finance Bureau Training Center, Cangzhou",,38.377793,117.343356,174,114,2,29,27,7,6,-10,1024,31,2,20141113180000
462,Cangzhou,,38.305035,116.844625,152,69,7,12,28,11,6,-10,1024,31,2,20141113180000
463,"Environmental Monitoring Supervision Center, Langfang",,39.558157,116.720995,127,64,12,38,11,7,6,-10,1024,31,2,20141113180000
464,"TCM Medical Material Company, Langfang",,39.519096,116.689914,144,74,8,1,9,7,6,-11,1024,29,2,20141113180000
465,"BDA, Langfang",,39.576175,116.779041,109,61,7,37,14,8,6,-11,1024,29,2,20141113180000
466,"North China Institute of Aerospace, Langfang",,39.53517,116.743027,129,62,8,36,9,7,6,-10,1024,31,2,20141113180000
1170,"Guan Party School, Langfang",,39.446185,116.311026,161,87,11,44,15,6,6,-10,1024,31,2,20141113180000
1171,"Xianghe EPA, Langfang",,39.76725,117.015252,157,80,9,36,11,12,6,-10,1024,31,2,20141113180000
1172,"Wenan County EPA, Langfang",,38.880927,116.47001,166,87,22,23,14,6,6,-10,1024,31,2,20141113180000
1173,"Three Rivers Department of Transportation, Langfang",,39.989419,117.091528,183,143,8,34,16,14,6,-10,1024,31,2,20141113180000
1278,"Yongqing EPA , Langfang",,39.329071,116.510917,157,87,8,41,14,7,6,-10,1024,31,2,20141113180000
1279,"Dacheng EPA, Langfang",,38.712628,116.665751,186,99,12,35,22,14,6,-10,1024,31,2,20141113180000
467,Langfang,,39.539148,116.689668,144,74,8,33,9,7,6,-11,1024,29,2,20141113180000
468,"Hengshui City EPB, Hengshui",,37.739679,115.695929,168,106,11,34,26,9,3,-12,0,31,1,20141113180000
469,"Environmental Monitoring Station, Hengshui",,37.738593,115.648837,129,64,11,42,13,9,2,-12,0,32,1,20141113180000
470,"Electrical Machine North Factory, Hengshui",,37.758686,115.70094,171,140,5,30,26,11,2,-12,0,32,1,20141113180000
1174,"Anping EPA, Hengshui",,38.238559,115.537988,171,92,10,31,17,7,2,-12,0,31,1,20141113180000
1175,"Jizhou EPA, Hengshui",,37.548552,115.58679,154,99,9,45,30,9,2,-12,0,31,1,20141113180000
1280,"Zaoqiang EPA, Hengshui",,37.520698,115.714936,174,104,31,29,25,14,2,-12,0,31,1,20141113180000
1281,"Wuyi EPA, Hengshui",,37.801554,115.898697,173,93,11,22,34,8,2,-12,0,31,1,20141113180000
1282,"Wuqiang EPA , Hengshui",,38.03557,115.959767,160,83,8,1,32,12,2,-12,0,31,1,20141113180000
1283,"Raoyang EPA , Hengshui",,38.230652,115.741041,163,89,9,28,26,8,2,-12,0,31,1,20141113180000
1284,"Gucheng County , Hengshui",,37.347569,115.966707,178,96,15,28,42,12,2,-12,0,31,1,20141113180000
471,Hengshui,,37.739562,115.676066,171,140,5,30,26,11,2,-12,0,32,1,20141113180000
1176,"Xinji City Hall, Xinji",,37.949711,115.230084,164,87,7,25,12,11,2,-12,0,31,1,20141113180000
474,"Qinjian street, Tianjin",,39.166588,117.15104,151,81,17,42,25,13,6,-11,1024,29,2,20141113180000
475,"Nanjing Road, Tianjin",,39.120958,117.195112,153,69,24,41,24,17,6,-11,1024,29,2,20141113180000
476,"Dazhigu No.8 road, Tianjin",,39.111811,117.25147,122,66,4,33,46,16,6,-11,1024,29,2,20141113180000
477,"Qianjin street, Tianjin",,39.09371,117.207981,158,71,4,44,30,10,6,-11,1024,29,2,20141113180000
478,"Huaihe street, Tianjin",,39.227167,117.191293,159,87,2,39,25,10,6,-11,1024,29,2,20141113180000
479,"Xiangshan street, Tianjin",,39.134752,117.275125,161,64,5,38,36,15,6,-11,1024,29,2,20141113180000
480,"Yuejin Road, Tianjin",,39.088177,117.320884,155,96,4,38,38,13,6,-11,1024,29,2,20141113180000
481,"Zhujiang street, Tianjin",,39.064463,117.231268,-,-,-,-,-,-,-,-,0,-,-,20141113180000
482,"No.4 street, Tianjin",,39.035228,117.713424,160,77,3,30,35,19,6,-11,1024,29,2,20141113180000
483,"Yongming road, Tianjin",,38.840392,117.463805,179,90,2,37,26,19,6,-11,1024,29,2,20141113180000
484,"Xinhua street, Tianjin",,39.138671,117.010083,161,78,6,33,35,14,6,-11,0,29,2,20141113180000
485,"Jingu Road, Tianjin",,38.985659,117.381254,170,94,13,43,34,15,6,-11,0,29,2,20141113180000
486,"Tanggu Yingkou street, Tianjin",,39.021768,117.656454,163,78,4,40,42,18,6,-11,0,29,2,20141113180000
487,"Hexi Yijing road, Tianjin",,39.248392,117.798043,161,63,11,39,37,12,6,-11,0,29,2,20141113180000
488,"Jianshe Road, Tianjin",,39.720075,117.310588,151,76,6,39,12,15,6,-11,0,29,2,20141113180000
489,"Quanzhou South road, Tianjin",,39.373857,117.050329,158,59,10,38,23,20,6,-11,0,29,2,20141113180000
490,"Donghuan road, Tianjin",,40.043144,117.451062,129,92,3,34,14,19,6,-11,0,29,2,20141113180000
491,"Tuanpowa, Tianjin",,38.920418,117.16299,182,93,12,31,24,12,6,-11,0,29,2,20141113180000
493,"Beiwei No.2 road, Tianjin",,38.943857,116.920624,187,106,4,42,41,26,6,-11,0,29,2,20141113180000
494,"Haitai fazhan No.2 road, Tianjin",,39.079608,117.096583,181,98,4,41,34,13,6,-11,0,29,2,20141113180000
495,"Hangtian road, Tianjin",,39.152244,117.381309,161,85,2,47,62,16,6,-11,0,29,2,20141113180000
496,"Hanbei road, Tianjin",,39.159768,117.770477,163,85,2,35,19,11,6,-11,1024,29,2,20141113180000
497,"Baobai highway, Tianjin",,39.51757,117.349635,165,79,25,38,10,13,6,-11,0,29,2,20141113180000
498,Tianjin,,39.085164,117.207281,158,71,4,44,30,10,6,-11,1024,29,2,20141113180000
499,"Wolong bridge, Hangzhou",,30.24371,120.132762,153,76,5,38,13,10,8,3,1027,71,1,20141113180000
500,"Hemu primary school, Hangzhou",,30.309669,120.124507,154,82,17,30,6,10,8,3,1027,71,1,20141113180000
501,"Zhejiang Agricultural University, Hangzhou",,30.265601,120.197583,155,100,9,38,7,10,8,3,1027,71,1,20141113180000
502,"Xiasha, Hangzhou",,30.303516,120.352618,170,115,3,38,26,9,8,3,1027,71,1,20141113180000
503,"Yunqi, Hangzhou",,30.178555,120.093142,129,62,5,33,6,7,8,3,1027,71,1,20141113180000
504,"Xixi, Hangzhou",,30.272425,120.068144,124,65,5,32,8,7,8,3,1027,71,1,20141113180000
505,"Chengxiang town, Hangzhou",,30.179493,120.274184,162,103,3,39,16,10,8,3,1027,71,1,20141113180000
506,"Qiandao lake, Hangzhou",,29.638139,119.031092,87,53,34,10,9,5,8,3,1027,71,1,20141113180000
507,"Linping town, Hangzhou",,30.415948,120.305059,160,105,6,40,26,11,8,3,1027,71,1,20141113180000
509,"No.2 Middle School, Hangzhou",,30.044303,119.956356,142,85,12,20,10,9,7,2,1027,71,1,20141113180000
510,"City Hall, Hangzhou",,30.234185,119.723503,124,69,36,18,46,7,7,2,1027,71,1,20141113180000
511,"No. 4 middle school, Hangzhou",,30.229428,119.699591,104,59,6,17,9,6,7,2,1027,71,1,20141113180000
512,Hangzhou,,30.271756,120.159765,151,104,3,40,6,16,8,3,1027,71,1,20141113180000
513,"City Station, Wenzhou",,28.009715,120.679129,152,66,17,26,12,10,12,6,0,66,2,20141113180000
514,"Ouhai, Wenzhou",,28.001846,120.641982,169,78,20,26,15,11,12,6,0,66,2,20141113180000
515,"Longwan, Wenzhou",,27.968122,120.768393,165,73,22,24,13,10,12,6,0,66,2,20141113180000
516,"Nanpu, Wenzhou",,27.981763,120.683685,163,82,14,33,14,13,12,6,0,66,2,20141113180000
517,Wenzhou,,27.990985,120.703425,163,82,14,33,14,13,12,6,0,66,2,20141113180000
518,"Monitoring station, Jiaxing",,30.75437,120.767373,166,95,8,42,34,9,10,2,0,58,0,20141113180000
519,"Jiaxing University, Jiaxing",,30.745099,120.735004,170,99,6,36,21,14,10,2,0,58,0,20141113180000
520,"Qinghe Primary School, Jiaxing",,30.775685,120.747969,172,88,4,39,22,11,10,2,0,58,0,20141113180000
521,Jiaxing,,30.751627,120.762862,166,95,8,42,34,9,10,2,0,58,0,20141113180000
522,"Chengbei water plant, Huzhou",,30.891155,120.096593,163,67,4,38,7,8,8,3,1026,71,1,20141113180000
523,"Jishan new village, Huzhou",,30.859939,120.120168,137,57,6,36,7,10,8,3,1026,71,1,20141113180000
524,"Town west water plant, Huzhou",,30.862371,120.084577,95,57,6,40,6,8,8,3,1026,71,1,20141113180000
525,Huzhou,,30.892304,120.091694,163,67,4,38,7,8,8,3,1026,71,1,20141113180000
526,"Donghu middle school, Shaoxing",,29.990447,120.647547,158,86,7,22,15,8,7,2,0,71,1,20141113180000
527,"City EPA station, Shaoxing",,30.001695,120.584318,171,102,4,33,18,9,7,2,0,71,1,20141113180000
528,"Chengdong BDA committee, Shaoxing",,29.986643,120.613578,162,83,4,22,16,9,7,2,0,71,1,20141113180000
529,"Paojiang station, Shaoxing",,30.07574,120.62154,190,131,7,38,35,9,7,2,0,71,1,20141113180000
530,"Shaoxing technical school, Shaoxing",,29.930983,120.577131,155,77,10,21,14,8,7,2,0,71,1,20141113180000
531,"Library, Shaoxing",,29.706266,120.253183,158,73,2,21,8,11,7,2,0,71,1,20141113180000
532,"Transporation management station, Shaoxing",,29.726405,120.221602,158,0,1,28,13,18,7,2,0,71,1,20141113180000
533,"Dongpu Town Governement, Shaoxing",,30.049601,120.539893,239,176,6,25,44,10,7,2,0,71,1,20141113180000
534,Shaoxing,,29.993122,120.590182,171,102,4,33,18,9,-,-,0,-,-,20141113180000
535,"City Monitoring Station, Jinhua",,29.100031,119.690373,147,83,9,35,23,9,6,0,0,66,1,20141113180000
536,"No.15 middle school, Jinhua",,29.074022,119.652121,153,90,9,40,22,9,6,0,0,66,1,20141113180000
537,"No.4 middle school, Jinhua",,29.110109,119.653654,153,83,9,36,34,10,6,0,0,66,1,20141113180000
538,"Beiyuan, Jinhua",,29.332898,120.083351,162,95,2,32,72,11,6,0,0,66,1,20141113180000
539,"Jiangdong, Jinhua",,29.302486,120.095291,159,83,3,29,24,11,6,0,0,66,1,20141113180000
540,Jinhua,,29.076083,119.65215,153,90,9,40,22,9,6,0,0,66,1,20141113180000
541,"EPA building, Quzhou",,28.937291,118.876081,149,83,22,28,16,12,10,2,1026,43,4,20141113180000
542,"Experimental school, Quzhou",,28.961502,118.880916,142,67,31,39,14,10,10,2,0,43,4,20141113180000
543,"Quzhou University, Quzhou",,28.971452,118.860052,144,66,23,25,8,8,10,2,0,43,4,20141113180000
544,Quzhou,,28.966994,118.864252,144,66,23,25,8,8,10,2,0,43,4,20141113180000
545,"Putuo east port, Zhoushan",,29.951412,122.317679,53,31,33,5,3,4,6,4,0,87,1,20141113180000
546,"Dinghai tanfeng, Zhoushan",,30.018014,122.126566,50,32,20,12,2,4,6,4,1027,87,1,20141113180000
547,Zhoushan,,29.983049,122.210763,65,54,13,11,2,5,6,4,1027,87,1,20141113180000
548,"Taizhou EPA building, Taizhou",,28.651216,121.42331,155,72,29,9,8,7,10,4,0,67,2,20141113180000
549,"Luqiao Tian Yang Wang, Taizhou",,28.574364,121.381194,158,76,23,16,10,10,10,4,0,67,2,20141113180000
550,"Huangyan EPA building, Taizhou",,28.656151,121.285064,161,74,9,22,12,8,10,4,0,67,2,20141113180000
551,"Yu Zhuang Qian, Lishui",,28.419638,119.883884,117,59,15,21,4,6,10,5,1027,61,1,20141113180000
552,"Monitoring station building, Lishui",,28.444379,119.923103,109,62,15,11,5,5,10,5,1027,61,1,20141113180000
553,"Liandu primary school, Lishui",,28.450912,119.939332,137,60,15,12,3,7,10,5,1027,61,1,20141113180000
554,Lishui,,28.464224,119.927201,109,62,15,11,5,5,10,5,1027,61,1,20141113180000
1248,Jingningxian,,27.977454,119.634837,155,71,6,12,5,9,,,,,,20141113180000
555,Taigu Primary School,,29.864178,121.60022,161,100,5,35,17,9,6,4,1027,87,1,20141113180000
556,Qianhu shuihan,,29.862459,121.5328,163,100,4,33,11,11,6,4,0,87,1,20141113180000
557,Sanjiang secondary schools,,29.891563,121.568427,172,100,5,41,14,11,6,4,1027,87,1,20141113180000
558,Longsai Hospital,,29.957301,121.726734,168,103,8,43,22,13,6,4,0,87,1,20141113180000
559,Beilun District EPB,,29.911633,121.850773,149,69,7,36,12,8,6,4,1027,87,1,20141113180000
560,Wanli University,,29.821314,121.574364,165,97,8,32,16,9,6,4,1027,87,1,20141113180000
561,Qianhu water plant,,29.774416,121.648136,231,123,12,36,19,8,6,4,1027,87,1,20141113180000
562,Municipal management station,,29.899182,121.626691,172,112,4,37,10,14,6,4,1027,87,1,20141113180000
1177,Daxie Literary Museum,,29.9027,121.986447,-,-,-,-,-,-,-,-,0,-,-,20141113180000
1178,Cixi EPB,,30.165807,121.248991,158,68,28,22,132,6,6,4,1027,87,1,20141113180000
1179,Cixi Experimently Primary School,,30.179808,121.268672,163,110,6,34,134,12,6,4,1027,87,1,20141113180000
1180,"Yongsan Park, Yuyao",,30.050842,121.162477,157,62,6,25,9,10,6,4,1027,87,1,20141113180000
1181,"Qilupu Water Company, Yuyao",,30.039112,121.133416,155,77,5,29,133,10,6,4,1027,87,1,20141113180000
1182,Fenghua EPB,,29.666557,121.42069,158,69,18,14,7,8,6,4,1027,87,1,20141113180000
1183,"Yuelong station, Ninghai",,29.296505,121.445872,163,81,8,24,10,8,6,4,1027,87,1,20141113180000
1184,"Wenfeng Primary School, Xiangshan",,29.470908,121.889544,142,68,17,20,14,6,6,4,1027,87,1,20141113180000
1185,"Chengnan Primary School, Ninghai",,29.293812,121.43666,162,78,11,21,9,8,6,4,1027,87,1,20141113180000
1186,"Xingang Primary School, Xiangshan",,29.203878,121.952514,89,58,27,9,12,6,6,4,1027,87,1,20141113180000
1356,Haishu City Monitoring Center,,29.86835,121.539341,167,109,6,34,11,11,6,4,1027,87,1,20141113180000
1357,Fenghua Xikou government,,29.693164,121.29331,147,58,12,25,5,6,6,4,1027,87,1,20141113180000
1294,Ningbo,,29.865766,121.548164,172,112,4,37,10,14,6,4,1027,87,1,20141113180000
1187,Fuyang,,30.046157,119.96468,142,85,12,20,10,9,-,-,0,-,-,20141113180000
1188,Yiwu,,29.304353,120.079794,162,95,3,32,72,11,-,-,0,-,-,20141113180000
1189,Zhuji,,29.711185,120.240748,158,73,2,28,13,18,7,2,1027,71,1,20141113180000
563,"Shanxi Road , Nanjing",,32.06795,118.779216,175,119,4,43,14,0,4,4,1026,100,0,20141113180000
564,"Ruijin Road , Nanjing",,32.029321,118.80817,167,95,1,39,13,0,4,4,1026,100,0,20141113180000
565,"Xuanwu Lake, Nanjing",,32.075423,118.800188,168,96,2,39,9,0,4,4,1026,100,0,20141113180000
566,"Olympic Center, Nanjing",,32.007171,118.742217,164,123,3,24,5,0,4,4,1026,100,0,20141113180000
567,"Xianlin University Town , Nanjing",,32.106958,118.919882,152,91,4,44,18,0,3,3,1026,100,0,20141113180000
568,Nanjing,,32.058179,118.802061,174,114,3,40,17,0,4,4,1026,100,0,20141113180000
569,"Shangfang hill , Suzhou",,31.24502,120.565211,161,115,5,47,12,0,9,3,0,66,1,20141113180000
570,"Wuzhong District , Suzhou",,31.268105,120.61717,167,80,7,53,19,0,9,3,0,66,1,20141113180000
571,"Suzhou New District , Suzhou",,31.297277,120.547262,166,133,4,49,25,0,9,3,0,66,1,20141113180000
572,"Suzhou Industrial Area, Suzhou",,31.307603,120.673257,159,81,3,55,34,0,9,3,0,66,1,20141113180000
573,"Xiangcheng district, Suzhou",,31.368674,120.645209,182,104,3,48,20,0,9,3,0,66,1,20141113180000
574,Suzhou,,31.296701,120.589493,182,133,7,55,34,0,10,2,0,58,1,20141113180000
575,"South suburb , Nantong",,31.957836,120.917218,163,75,10,37,16,0,6,-2,0,50,0,20141113180000
576,"Xinghu park, Nantong",,31.927873,120.944254,99,67,12,41,28,0,6,-2,0,50,0,20141113180000
577,"Zilang school, Nantong",,32.039638,120.814358,156,89,10,33,18,0,6,-2,0,50,0,20141113180000
578,Nantong,,31.978005,120.898555,163,89,17,41,49,0,6,-2,0,50,0,20141113180000
579,Lianyungang,,34.595509,119.226814,152,84,21,27,10,7,8,8,1016,96,0,20141113180000
580,"Hongmen police substation, Lianyungang",,34.588692,119.146693,157,93,10,30,11,0,6,-6,0,30,1,20141113180000
581,"Xugou Nuclear Expert Village , Lianyungang",,34.749957,119.373707,95,82,18,12,15,0,6,-6,0,30,1,20141113180000
582,"Hengrui pharmaceutical company, BDA, Lianyungang",,34.697574,119.353668,122,95,9,33,12,0,6,-6,0,30,1,20141113180000
583,"City Monitoring Station, Lianyungang",,34.586791,119.186929,161,91,3,33,21,0,6,-6,0,30,1,20141113180000
584,"Yellow river new village , Xuzhou",,34.271542,117.177241,124,81,11,23,19,0,5,-3,1026,46,1,20141113180000
585,"Tongshan Veterinary Hospital , Xuzhou",,34.307086,117.197766,149,85,7,30,14,0,5,-3,1026,46,1,20141113180000
586,"New Town , Xuzhou",,34.213992,117.261718,152,100,10,20,7,0,5,-3,1026,46,1,20141113180000
587,"Taoyuan road, Xuzhou",,34.289822,117.249721,157,87,9,18,16,0,5,-3,1026,46,1,20141113180000
588,"Agricultural Science Academy , Xuzhou",,34.27655,117.299079,149,98,8,26,12,0,5,-3,1026,46,1,20141113180000
589,"Tongshan EPA, Xuzhou",,34.179384,117.171798,153,99,4,28,14,0,5,-3,1026,46,1,20141113180000
590,Xuzhou,,34.20346,117.289825,159,100,11,38,19,0,5,-3,1026,46,1,20141113180000
591,Yangzhou,,32.39233,119.418446,159,69,10,19,10,5,11,9,0,90,6,20141113180000
592,"Hanjiang Monitoring Station, Yangzhou",,32.374218,119.394484,104,72,12,35,16,0,7,-7,0,32,2,20141113180000
593,"No. 4 Hospital, Yangzhou",,32.401394,119.44444,134,63,4,10,18,0,7,-7,0,32,2,20141113180000
594,"City Monitoring Station, Yangzhou",,32.406588,119.41591,137,66,3,24,22,0,7,-7,0,32,2,20141113180000
595,"University Town , Wuxi",,31.484752,120.273571,162,97,15,28,7,0,10,2,0,58,0,20141113180000
596,"Shibei High School , Wuxi",,31.619969,120.279584,191,136,6,44,27,0,10,2,0,58,0,20141113180000
597,"Yuhong Elementary School , Wuxi",,31.561155,120.249588,153,79,6,32,21,0,10,2,0,58,0,20141113180000
598,Wuxi,,31.488746,120.31575,191,136,15,44,44,0,-,-,0,-,-,20141113180000
599,Changzhou,,31.808037,119.979205,172,86,6,22,36,13,11,9,0,88,5,20141113180000
600,"Chengjian School, Changzhou",,31.776476,119.937681,149,71,5,37,44,0,8,-3,0,43,2,20141113180000
601,"Changzhou Engineering Institute , Changzhou",,31.806828,119.966724,156,74,7,37,38,0,8,-3,0,43,2,20141113180000
602,"Wujin Monitoring Station, Changzhou",,31.701788,119.939676,171,100,7,35,54,0,8,-3,0,43,2,20141113180000
603,"City Monitoring Station, Changzhou",,31.777201,119.979426,165,95,5,39,46,0,8,-3,0,43,2,20141113180000
604,Zhenjiang,,32.18597,119.431281,170,79,4,39,15,13,9,8,0,93,5,20141113180000
605,"New District Administrative office , Zhenjiang",,32.186174,119.685021,151,82,9,36,12,0,4,4,1026,100,0,20141113180000
606,"Vocational Education Center , Zhenjiang",,32.212973,119.496253,153,157,14,42,18,0,4,4,1026,100,0,20141113180000
607,"Dantu Monitoring Station , Zhenjiang",,32.130026,119.435432,152,90,6,35,26,0,4,4,1026,100,0,20141113180000
608,"City Monitoring Station, Zhenjiang",,32.202178,119.439766,134,85,8,30,19,0,4,4,1026,100,0,20141113180000
609,"Gaogang Adminstrative office , Taizhoushi",,32.300768,119.886757,179,104,10,12,17,0,7,-7,0,32,2,20141113180000
610,"Students Innovation Park , Taizhoushi",,32.461672,119.892761,167,84,15,13,22,0,7,-7,0,32,2,20141113180000
611,Taizhoushi,,32.453555,119.927852,179,104,15,24,22,0,7,-7,0,32,2,20141113180000
612,"Yancheng power station , Yancheng",,33.400859,120.123067,156,89,4,30,11,0,,,0,,,20141113180000
613,Yancheng,,33.345939,120.168504,144,52,30,5,3,7,11,10,1016,95,4,20141113180000
614,"Wenfeng Middle School , Yancheng",,33.370531,120.134041,144,78,6,35,16,0,,,0,,,20141113180000
615,"BDA Management Committe, Yancheng",,33.393191,120.22978,132,54,6,30,7,0,,,0,,,20141113180000
616,"City Monitoring Station, Yancheng",,33.390623,120.164423,161,90,5,27,12,0,,,0,,,20141113180000
617,Suqian,,33.960666,118.281004,160,87,24,7,5,7,11,10,0,91,6,20141113180000
618,"Suqian College , Suqian",,33.951472,118.298523,91,59,7,25,19,0,6,-2,0,49,3,20141113180000
619,"Suqian Middle School , Suqian",,33.95784,118.249505,85,64,9,24,8,0,6,-2,0,49,3,20141113180000
620,"Suyu District Environmental Protection Agency , Suqian",,33.94932,118.326569,154,72,16,12,14,0,6,-2,0,47,3,20141113180000
621,"City Monitoring Station, Suqian",,33.956982,118.277022,107,58,9,9,15,0,6,-2,0,49,3,20141113180000
622,Taizhou,,28.653436,121.425185,155,72,29,9,8,7,10,4,0,67,2,20141113180000
623,Donghu Liyuan,,30.572324,114.377844,162,77,6,44,2,11,9,4,0,71,2,20141113180000
624,Yuehu Lake,,30.554662,114.256937,177,137,3,92,8,14,9,4,0,71,2,20141113180000
625,Hankou Huaqiao ,,30.61724,114.287652,179,150,7,61,10,17,9,4,0,71,2,20141113180000
626,Wuchang Ziyang ,,30.530801,114.309438,169,157,10,53,11,14,9,4,0,71,2,20141113180000
627,Qingshan Ganghua,,30.622435,114.375599,219,164,6,65,20,27,9,4,0,71,2,20141113180000
628,Dunkou Xinou,,30.480091,114.162176,169,146,3,48,12,13,9,4,0,71,2,20141113180000
629,Donghu Gaoxin,,30.48095,114.40724,177,150,7,60,7,22,9,4,0,71,2,20141113180000
630,Wujianshan,,30.63114,114.135907,174,113,4,39,6,19,9,4,0,71,2,20141113180000
631,Yuanshun Road,,30.297142,113.858587,107,53,29,12,9,3,9,4,0,71,2,20141113180000
632,Wuhan,,30.590689,114.310838,161,114,7,33,11,14,9,4,0,71,2,20141113180000
1190,"Silingsan Factory, Yichang",,30.713288,111.306585,137,53,4,24,6,11,10,3,0,47,1,20141113180000
633,Yichang,,30.689528,111.292131,178,139,8,25,13,14,10,3,0,47,1,20141113180000
633,Yichang,,30.689528,111.292131,178,139,8,25,13,14,10,3,0,47,1,20141113180000
1191,"City Library , Jingzhou",,30.31494,112.260844,162,97,8,38,50,14,12,4,1026,49,1,20141113180000
1192,"City committee communist party school, Jingzhou",,30.35054,112.20743,167,114,7,34,27,18,12,4,1026,49,1,20141113180000
1193,"kerong EPA, Jingzhou",,30.302965,112.29443,167,99,7,44,125,9,12,4,1026,49,1,20141113180000
634,Jingzhou,,30.332608,112.245451,167,114,8,44,125,18,12,4,1026,49,1,20141113180000
634,Jingzhou,,30.332608,112.245451,167,114,8,44,125,18,12,4,1026,49,1,20141113180000
635,Huangshi,,30.19723,115.043908,158,83,9,32,12,19,8,,1028,100,2,20141113180000
635,Huangshi,,30.19723,115.043908,158,83,9,32,12,19,8,,1028,100,2,20141113180000
1194,"Chenjiaying, Huangshi",,30.232823,115.067923,163,93,5,26,7,11,8,,1028,100,2,20141113180000
1195,"Chenjiawan , Huangshi",,30.200422,115.082138,147,78,12,33,17,22,8,,1028,100,2,20141113180000
1196,"Xinxialu, Huangshi",,30.17332,114.954357,158,85,12,21,17,22,8,,1028,100,2,20141113180000
1197,"Tie montian, Huangshi",,30.203885,114.906439,162,80,9,37,1,11,8,,1028,100,2,20141113180000
1198,"BDA, Huangshi",,30.207491,115.031739,157,80,6,41,20,29,8,,1028,100,2,20141113180000
636,Shiyan,,32.627208,110.803311,78,54,16,12,8,5,1,,960,87,1,20141113180000
636,Shiyan,,32.627208,110.803311,78,54,16,12,8,5,1,,960,87,1,20141113180000
1199,"Wudang Mountain , Shiyan",,32.392921,111.047655,13,35,22,2,4,5,1,,0,87,1,20141113180000
1200,"Riverside Village , Shiyan",,32.647286,110.785335,13,56,13,17,13,6,1,,960,87,1,20141113180000
1201,"Liujiagou , Shiyan",,32.636732,110.731129,114,60,11,15,8,6,1,,960,87,1,20141113180000
637,Xiangyang,,32.007029,112.128496,153,77,18,15,23,6,5,,1025,83,3,20141113180000
637,Xiangyang,,32.007029,112.128496,153,77,18,15,23,6,5,,1025,83,3,20141113180000
638,Ezhou,,30.389244,114.899884,157,79,7,32,21,10,10,,1035,100,3,20141113180000
638,Ezhou,,30.389244,114.899884,157,79,7,32,21,10,10,,1035,100,3,20141113180000
1203,"City government, Ezhou",,30.391836,114.892822,158,73,6,26,19,11,10,,1035,100,3,20141113180000
1204,"Zhaojiaba, Ezhou",,30.368966,114.90365,142,68,7,34,12,8,10,,1035,100,3,20141113180000
1205,"Fankou BDA, Ezhou",,30.410759,114.818225,163,94,9,35,32,9,10,,1035,100,3,20141113180000
639,Jingmen,,31.033208,112.205093,151,68,14,14,10,7,5,,1019,91,1,20141113180000
639,Jingmen,,31.033208,112.205093,151,68,14,14,10,7,5,,1019,91,1,20141113180000
640,Xiaogan,,30.922089,113.922387,163,90,9,25,12,18,9,,1025,70,2,20141113180000
640,Xiaogan,,30.922089,113.922387,163,90,9,25,12,18,9,,1025,70,2,20141113180000
1206,"wenhua street, Shenyang , Xiaogan",,30.925856,113.92104,158,80,8,21,11,24,9,,1025,70,2,20141113180000
1207,"Dongcheng District , Huludao , Xiaogan",,30.917963,113.943904,169,101,10,28,13,12,9,,1025,70,2,20141113180000
641,Huanggang,,30.45124,114.877378,160,79,6,23,12,11,10,,1035,100,3,20141113180000
641,Huanggang,,30.45124,114.877378,160,79,6,23,12,11,10,,1035,100,3,20141113180000
1208,"Dazhou Island, Huanggang",,30.446205,114.900323,162,86,3,29,13,14,10,,1035,100,3,20141113180000
1209,"Workers Center , Huanggang",,30.469244,114.912504,157,71,10,17,11,8,10,,1035,100,3,20141113180000
642,Xianning,,29.838978,114.327898,122,67,9,11,12,17,4,,999,86,1,20141113180000
642,Xianning,,29.838978,114.327898,122,67,9,11,12,17,4,,999,86,1,20141113180000
1210,"Municipal Development and Reform Commission , Xianning",,29.818645,114.328461,144,88,15,5,2,20,5,,999,86,1,20141113180000
1211,"Xianan District Governement, Xianning",,29.51107,114.181864,89,58,4,6,3,16,7,,1008,85,1,20141113180000
1212,"Yangtze River Industrial Park , Xianning",,29.883098,114.32909,153,82,6,16,29,21,4,,999,86,1,20141113180000
1213,"Qianshan Park, Xianning",,29.815351,114.328689,112,61,14,9,5,10,4,,999,86,1,20141113180000
643,Suizhou,,31.688342,113.388675,122,67,11,5,15,22,3,,1021,81,1,20141113180000
643,Suizhou,,31.688342,113.388675,122,67,11,5,15,22,3,,1021,81,1,20141113180000
1338,"City committee communist party school, Suizhou",,31.725316,113.3648,119,74,10,5,1,14,3,,1021,81,1,20141113180000
1339,"Forestry Bureau, Suizhou",,31.690065,113.383157,134,60,17,4,34,19,3,,1021,81,1,20141113180000
645,Xiantao,,30.360228,113.460616,161,100,3,33,16,19,6,,1035,84,2,20141113180000
645,Xiantao,,30.360228,113.460616,161,100,3,33,16,19,6,,1035,84,2,20141113180000
1088,Shennongjia,,31.741307,110.685554,99,50,17,4,1,6,-0,,,91,2,20141113180000
1088,Shennongjia,,31.741307,110.685554,99,50,17,4,1,6,-0,,,91,2,20141113180000
1214,"Xiangcheng Yundong Street, Xiangfan",,32.017716,112.16102,154,76,15,14,23,5,5,,1025,83,3,20141113180000
1359,"Fancheng Xinhua Road , Xiangfan",,32.0544,112.145224,153,78,20,15,23,7,5,,1025,83,3,20141113180000
655,"City Environmental Monitoring Station, Baotou",,40.657201,109.886738,93,54,6,24,9,13,,,0,,,20141113190000
656,"Donghe EPB, Baotou",,40.586213,110.002224,80,91,2,28,13,18,,,0,,,20141113190000
657,"Baotou shopping mall, Baotou",,40.508334,109.819085,122,69,7,19,10,26,,,0,,,20141113190000
658,"Huilong logistics, Baotou",,40.633436,109.879821,124,64,5,27,9,16,,,0,,,20141113190000
659,Baotou,,40.658597,109.846051,139,96,7,35,19,26,,,0,,,20141113190000
660,"Huatai Automobile Mall, Eerduosi",,39.837048,109.972209,61,36,34,18,2,5,-2,-12,1030,34,0,20141113190000
661,"Olympus Garden, Eerduosi",,39.789171,109.987742,63,38,29,26,4,8,-2,-12,1030,34,0,20141113190000
662,Eerduosi,,39.609284,109.78704,63,38,34,26,17,10,-2,-12,1030,34,0,20141113190000
663,"Tianyi Road, Chifeng",,42.275552,118.88507,80,53,24,18,15,11,-5,-19,1028,17,3,20141113190000
664,"Songshan No.1 Middle School, Chifeng",,42.329307,118.793045,107,66,19,9,31,8,-5,-19,1028,17,3,20141113190000
665,"Hada Street, Chifeng",,42.280714,118.988235,119,59,12,17,49,12,-5,-19,1028,17,3,20141113190000
666,"Songshan Road, Chifeng",,42.171487,118.89501,80,59,38,10,34,9,-5,-19,1028,17,3,20141113190000
667,Chifeng,,42.259752,118.893027,119,66,38,18,49,12,-5,-19,1028,17,3,20141113190000
674,Fuzhou,,26.071406,119.301294,158,64,40,12,5,9,17,9,1023,59,7,20141113190000
675,"Xidong, Xiamen",,24.815345,118.161848,155,61,26,1,6,7,17,10,0,63,5,20141113190000
676,"Hongwen, Xiamen",,24.473969,118.156281,160,77,34,12,13,10,17,10,0,63,5,20141113190000
677,"Gulangyu, Xiamen",,24.443168,118.068571,156,63,34,4,6,8,17,10,0,63,5,20141113190000
678,"Huli, Xiamen",,24.51235,118.099146,163,69,42,8,5,7,17,10,0,63,5,20141113190000
679,Xiamen,,24.477187,118.094402,163,69,42,8,5,7,-,-,0,-,-,20141113190000
680,"Qingyuan Montain, Quanzhou",,24.939503,118.598337,149,56,26,4,6,8,17,10,0,63,5,20141113190000
681,"Tushan Street, Quanzhou",,24.90867,118.586397,154,64,43,8,6,7,17,10,0,63,5,20141113190000
682,"Wanan, Quanzhou",,24.304154,118.070903,134,54,28,9,4,8,17,10,0,63,5,20141113190000
683,Quanzhou,,24.87179,118.68001,154,64,43,13,9,9,17,10,0,63,5,20141113190000
687,"Jiancaoping, Taiyuan",,37.887889,112.528383,147,77,1,17,39,17,-4,-10,0,64,1,20141113190000
688,"Jianhe, Taiyuan",,37.910779,112.579258,144,92,2,7,53,20,-4,-10,0,64,1,20141113190000
689,"Shanglan, Taiyuan",,38.011589,112.440679,68,53,7,17,35,12,-4,-10,0,64,1,20141113190000
690,"Jinyuan, Taiyuan",,37.713164,112.475552,191,123,7,17,66,8,-4,-10,0,64,1,20141113190000
691,"Xiaodian, Taiyuan",,37.782137,112.483533,169,93,12,16,104,18,-4,-10,0,64,1,20141113190000
692,"Taoyuan, Taiyuan",,37.869752,112.543332,153,140,1,28,34,19,-4,-10,0,64,1,20141113190000
693,"Wucheng, Taiyuan",,37.819998,112.576252,171,120,1,16,70,15,-4,-10,0,64,1,20141113190000
694,"Nanzhai, Taiyuan",,37.985902,112.555312,160,82,3,14,40,7,-4,-10,0,64,1,20141113190000
695,"Jinsheng, Taiyuan",,37.781205,112.494494,151,73,3,13,63,14,-4,-10,0,64,1,20141113190000
696,Taiyuan,,37.871115,112.555178,153,140,1,28,34,19,-,-,0,-,-,20141113190000
697,"Monitoring station, Changzhi",,36.194062,113.10389,225,160,15,24,51,31,,,0,,,20141113190000
698,"Auditing bureau, Changzhi",,36.212787,113.095221,182,96,10,27,11,34,,,0,,,20141113190000
699,"Qinghua station, Changzhi",,36.154328,113.116385,177,108,7,27,34,29,,,0,,,20141113190000
700,"No.8 middle school, Changzhi",,36.185451,113.099481,223,142,9,22,62,39,,,0,,,20141113190000
701,Changzhi,,36.195553,113.12292,225,160,15,27,62,39,,,0,,,20141113190000
702,"Yungang Hotel, Datong",,40.076997,113.278079,46,37,19,12,37,15,-10,-14,1031,63,1,20141113190000
703,"college of education, Datong",,40.085608,113.27808,72,26,12,6,16,10,-10,-14,1031,63,1,20141113190000
704,Datong,,40.078016,113.307143,74,37,19,16,37,15,-10,-14,1031,63,1,20141113190000
705,"Technical Schools, Linfen",,36.07131,111.509046,151,50,8,19,51,38,0,-12,0,41,1,20141113190000
706,"Municipal party committee, Linfen",,36.087425,111.508771,152,54,10,16,23,29,0,-12,0,41,1,20141113190000
1073,"City Monitoring Station, Linfen",,36.097676,111.518739,162,88,8,19,45,19,0,-12,0,41,1,20141113190000
707,"South Airport, Linfen",,36.041614,111.497968,161,54,32,18,57,18,0,-12,0,41,1,20141113190000
708,Linfen,,36.087944,111.525098,162,54,33,29,57,19,0,-12,0,41,1,20141113190000
709,"City center, Yangquan",,37.848012,113.578636,119,82,2,12,64,13,-4,-10,1025,64,2,20141113190000
710,Yangquan,,37.857475,113.586921,183,101,11,113,70,17,-4,-10,1025,64,2,20141113190000
711,"Water Company, Jincheng",,35.504787,112.857245,157,71,6,12,73,19,2,-5,1026,45,1,20141113190000
712,"Baiyun shopping mall, Jincheng",,35.492858,112.841566,180,133,5,34,70,18,2,-5,1026,45,1,20141113190000
713,"City EPA, Jincheng",,35.488422,112.858528,162,99,7,34,69,20,2,-5,1026,45,1,20141113190000
714,"Institute of Technology, Jincheng",,35.484844,112.878073,160,92,5,18,67,19,2,-5,1026,45,1,20141113190000
715,"No.1 middle school, Jincheng",,35.478725,112.838636,177,134,5,21,75,18,7,-7,0,22,3,20141113190000
716,Jincheng,,35.490287,112.85794,180,133,7,34,73,20,2,-5,1026,45,1,20141113190000
718,"District Government, Shuozhou",,39.320857,112.430641,156,71,7,23,30,18,3,-17,1029,11,4,20141113190000
719,"City EPA, Shuozhou",,39.331495,112.407997,,46,,22,47,,-3,-13,1029,30,0,20141113190000
720,"No.2 middle school, Shuozhou",,39.377963,112.432877,137,68,10,29,53,12,-3,-13,1029,30,0,20141113190000
721,Shuozhou,,39.332756,112.439672,156,73,11,29,54,18,3,-17,1029,11,4,20141113190000
722,"Jinlun compound, Jinzhong",,37.697891,112.771017,144,64,6,7,26,27,-4,-10,1025,64,2,20141113190000
723,"Hydraulic Component Factory, Jinzhong",,37.688355,112.725844,153,82,6,31,34,24,-4,-10,1025,64,2,20141113190000
724,"Nandu compound, Jinzhong",,37.713148,112.732036,153,81,3,1,13,20,-4,-10,1025,64,2,20141113190000
725,"Yuci district government, Jinzhong",,37.698228,112.714167,157,70,3,1,28,34,-4,-10,1025,64,2,20141113190000
726,Jinzhong,,37.687705,112.759187,157,82,6,31,34,34,-4,-10,1025,64,2,20141113190000
727,"Yuncheng Middle School, Yuncheng",,35.012345,111.003215,112,74,13,22,51,16,3,-4,1025,44,1,20141113190000
728,"Yudou BDA, Yuncheng",,35.05065,111.029571,149,78,10,18,53,24,3,-4,1025,44,1,20141113190000
730,"Regional Technical School, Yuncheng",,35.028727,110.974076,153,65,5,9,30,18,3,-4,1025,44,1,20141113190000
731,"Airport new district, Yuncheng",,35.084515,111.05339,157,97,14,19,71,28,3,-4,1025,44,1,20141113190000
732,Yuncheng,,35.025675,111.013344,157,97,14,24,71,28,-,-,0,-,-,20141113190000
733,"Jiyin, Xinzhou",,38.413292,112.742432,137,127,10,25,23,28,-4,-9,1025,69,2,20141113190000
734,"BDA, Xinzhou",,38.450069,112.736723,153,56,3,6,25,15,-4,-9,1025,69,2,20141113190000
735,"Convention Center, Xinzhou",,38.492043,112.709772,149,63,7,20,13,16,-4,-9,1025,69,2,20141113190000
736,Xinzhou,,38.417244,112.740742,153,127,10,25,25,28,-4,-10,1025,64,1,20141113190000
737,"City EPA, Luliang",,37.522189,111.144365,-,-,-,-,-,-,-,-,0,-,-,20141113190000
738,"Soybean factory, Luliang",,37.51689,111.135101,149,67,3,10,59,38,8,7,0,96,3,20141113190000
739,"Water Company, Luliang",,37.53394,111.138834,167,119,6,11,51,36,8,7,0,96,3,20141113190000
740,Luliang,,25.027007,103.668566,167,119,6,11,59,38,8,7,0,96,3,20141113190000
741,"City government, Sanmenxia",,34.776251,111.198781,122,82,4,21,12,14,4,-5,0,39,1,20141113190000
743,"BDA, Sanmenxia",,34.800434,111.204332,129,92,7,25,10,13,4,-5,0,39,1,20141113190000
744,Sanmenxia,,34.771506,111.206129,137,92,9,25,13,14,3,-4,1025,44,1,20141113190000
745,"Food Factory, Changchun",,43.919094,125.329521,76,51,16,19,10,4,-10,-18,0,53,1,20141113190000
746,"Bus Factory, Changchun",,43.912337,125.293431,59,57,8,32,22,6,-10,-18,0,53,1,20141113190000
747,"Institute of Posts and Telecommunications, Changchun",,43.842368,125.285005,89,53,5,28,15,5,-10,-18,0,53,1,20141113190000
748,"Laodong Park, Changchun",,43.877293,125.371519,82,36,8,21,45,11,-10,-18,0,53,1,20141113190000
749,"Forest area, Changchun",,43.871825,125.331519,74,51,8,20,16,5,-10,-18,0,53,1,20141113190000
750,"Jinyuetan, Changchun",,43.79031,125.460561,78,35,13,7,4,14,-10,-18,0,53,1,20141113190000
751,"Shuaiwanzi, Changchun",,43.552321,125.639086,122,66,13,9,3,5,-10,-18,0,53,1,20141113190000
752,"Economic Development Zone Sanitation Department, Changchun",,43.869221,125.42365,147,73,6,26,13,6,-10,-18,0,53,1,20141113190000
753,"High-tech Zone Administrative Committee, Changchun",,43.819064,125.256375,-,-,-,-,-,-,-,-,0,-,-,20141113190000
754,"Daishan Park, Changchun",,43.852365,125.223399,149,98,4,25,18,11,-10,-18,0,53,1,20141113190000
755,Changchun,,43.819415,125.329977,89,53,5,28,15,5,-,-,0,-,-,20141113190000
756,"Hadawan, Jilin",,43.888081,126.545727,188,150,6,19,11,10,-8,-17,0,48,3,20141113190000
757,"Fengman, Jilin",,43.768169,126.678802,63,35,23,8,10,5,-8,-17,0,48,3,20141113190000
758,"Electric Power College, Jilin",,43.827403,126.502281,85,42,13,17,12,7,-8,-17,0,48,3,20141113190000
759,"Jiangnan Park, Jilin",,43.83531,126.556519,127,60,12,16,18,7,-8,-17,0,48,3,20141113190000
760,"Dongjuzi, Jilin",,43.838597,126.590068,114,64,12,14,8,5,-8,-17,0,48,3,20141113190000
763,Jilin,,43.840137,126.555262,188,150,23,19,18,10,-8,-17,0,48,3,20141113190000
764,"Lingbei, Haerbin",,45.756979,126.548008,76,40,20,8,8,3,-10,-16,1019,62,5,20141113190000
765,"Songbei Commercial University, Haerbin",,45.818624,126.566963,61,30,22,9,23,7,-10,-16,1019,62,5,20141113190000
766,"Acheng huining, Haerbin",,45.544286,126.985183,119,56,19,6,-,5,-10,-16,1019,62,5,20141113190000
767,"Nangang College Street, Haerbin",,45.724121,126.604906,72,51,27,6,9,7,-10,-16,1019,62,5,20141113190000
768,"Taiping Hongwei Park, Haerbin",,45.775332,126.695101,124,50,21,12,21,8,-10,-16,1019,62,5,20141113190000
769,"Daowai Chengde Square, Haerbin",,45.768637,126.640955,78,39,22,8,9,3,-10,-16,1019,62,5,20141113190000
770,"Xiangfang Hongqi Street, Haerbin",,45.733936,126.691083,85,53,18,19,52,6,-10,-16,1019,62,5,20141113190000
771,"Dongli Heping Road, Haerbin",,45.727765,126.651974,107,54,19,14,26,2,-10,-16,1019,62,5,20141113190000
772,"Daoli Jianguo Road, Haerbin",,45.749715,126.59891,76,32,26,11,11,4,-10,-16,1019,62,5,20141113190000
773,"Pingfang Light Factory, Haerbin",,45.611951,126.620898,107,54,8,9,5,9,-10,-16,1019,62,5,20141113190000
774,"Hulan Normal College, Haerbin",,45.983745,126.616553,61,27,11,11,5,73,-10,-16,1019,62,5,20141113190000
775,"Provincial Academy of Agricultural Sciences, Haerbin",,45.686141,126.626517,91,52,15,10,22,6,-10,-16,1019,62,5,20141113190000
776,Haerbin,,45.805757,126.541007,61,30,22,9,23,7,-,-,0,-,-,20141113190000
777,"Anju Compound, Qiqihaer",,47.365672,123.937016,13,13,27,1,2,10,-9,-17,1022,33,3,20141113190000
778,"Farming Vehicule Factory, Qiqihaer",,47.326793,123.961427,30,10,22,3,12,6,-9,-17,1022,33,3,20141113190000
779,"Fuqu EPA, Qiqihaer",,47.1853,123.62322,25,13,27,-,19,7,-9,-17,1022,33,3,20141113190000
780,"City Center Square, Qiqihaer",,47.343096,123.96192,0,6,20,1,6,6,-9,-17,1022,33,3,20141113190000
1217,"City Environmental Monitoring Station, Qiqihaer",,47.303639,123.957551,46,20,20,1,30,4,-9,-17,1022,33,3,20141113190000
781,Qiqihaer,,47.356387,123.924736,46,20,27,3,30,10,-9,-17,1022,33,3,20141113190000
782,"Saertu District, Daqing",,46.582368,125.152904,38,10,25,10,4,3,-10,-18,0,41,1,20141113190000
783,"Datong District, Daqing",,46.036786,124.842115,38,14,27,2,6,6,-10,-18,0,41,1,20141113190000
784,"Honggang District, Daqing",,46.418381,124.88973,42,12,21,5,5,4,-10,-18,0,41,1,20141113190000
785,"Longfeng District, Daqing",,46.535426,125.107043,38,12,25,8,15,6,-10,-18,0,41,1,20141113190000
786,"Ranghulu District, Daqing",,46.635123,124.85648,57,17,28,6,9,4,-10,-18,0,41,1,20141113190000
787,Daqing,,46.591414,125.110838,57,17,28,10,15,6,-10,-18,0,41,1,20141113190000
788,"Locomotive Factory, Mudanjiang",,44.610589,129.652672,76,30,31,3,6,1,-10,-20,1018,28,6,20141113190000
789,"No. 1 hospital, Mudanjiang",,44.567775,129.617043,76,29,29,3,1,3,-10,-20,1018,28,6,20141113190000
1220,"EPA building, Mudanjiang",,44.567777,129.620658,129,43,24,1,2,1,-10,-20,1018,28,6,20141113190000
1221,"Cultural Square, Mudanjiang",,44.586388,129.623164,68,28,17,9,7,1,-10,-20,1018,28,6,20141113190000
790,Mudanjiang,,44.553619,129.640246,129,33,31,12,9,3,-10,-20,1018,28,6,20141113190000
791,"Mingzhu Plaza, Hefei",,31.782847,117.201512,153,68,34,28,22,11,6,1,0,70,3,20141113190000
792,"Sanli Street, Hefei",,31.874637,117.312573,162,62,25,34,14,21,6,1,0,70,3,20141113190000
793,"Hupo Compound, Hefei",,31.868583,117.264491,161,87,26,14,14,10,6,1,0,70,3,20141113190000
794,"Dongpu Reservoir, Hefei",,31.90319,117.165584,137,71,29,14,10,4,6,1,0,70,3,20141113190000
795,"Changjiang middle road, Hefei",,31.855185,117.255484,155,93,5,17,10,12,6,1,0,70,3,20141113190000
796,"Luyang District, Hefei",,31.941771,117.271504,167,116,17,3,16,13,6,1,0,70,3,20141113190000
797,"Yaohai District, Hefei",,31.856595,117.341644,173,130,14,26,44,20,6,1,0,70,3,20141113190000
798,"Baohe District, Hefei",,31.793644,117.307554,158,119,4,7,9,6,6,1,0,70,3,20141113190000
799,"Lake district, Hefei",,31.736619,117.283501,149,71,17,33,7,6,6,1,0,70,3,20141113190000
800,"High-tech zone, Hefei",,31.849755,117.129624,152,74,12,11,24,7,6,1,0,70,3,20141113190000
801,Hefei,,31.819449,117.232753,155,93,5,17,10,12,-,-,0,-,-,20141113190000
802,"Hudong Road No.4 Elementary School, Maanshan",,31.684121,118.511017,144,70,23,29,14,11,3,3,1025,100,1,20141113190000
803,"Tianping Garment Factory, Maanshan",,31.64197,118.488043,157,95,38,34,16,17,3,3,1025,100,1,20141113190000
804,"City education base, Maanshan",,31.711216,118.648913,109,49,6,3,11,4,3,3,1025,100,1,20141113190000
805,"Cihu No.2 elementary school, Maanshan",,31.748546,118.515729,164,76,22,29,18,16,3,3,1025,100,1,20141113190000
806,"Maanshan steel factory power plant, Maanshan",,31.690864,118.48528,154,80,22,10,2,14,3,3,1025,100,1,20141113190000
807,Maanshan,,31.668461,118.511939,164,95,38,34,18,17,3,3,1025,100,1,20141113190000
808,"Science Innovation Center, Wuhu",,31.417056,118.375406,151,57,10,21,5,12,3,3,1025,100,1,20141113190000
809,"No.4 Water Plant, Wuhu",,31.315914,118.376231,132,53,29,22,11,14,3,3,1025,100,1,20141113190000
810,"Monitoring station, Wuhu",,31.348955,118.358154,122,54,9,13,13,11,3,3,1025,100,1,20141113190000
811,"Wuqierling Factory, Wuhu",,31.382068,118.407639,151,52,25,16,6,7,3,3,1025,100,1,20141113190000
812,Wuhu,,31.351007,118.438322,151,57,29,22,13,14,3,3,1025,100,1,20141113190000
813,"Jiangxi Foreign Affairs Office, Nanchang",,28.678027,115.903436,91,54,5,4,1,8,12,3,0,43,1,20141113190000
814,"Provincial forestry company, Nanchang",,28.69065,115.898546,89,61,8,4,16,6,12,3,0,43,1,20141113190000
815,"Institute of Forestry, Nanchang",,28.731518,115.82478,59,29,21,1,1,4,12,3,0,43,1,20141113190000
816,"Jingdong town government, Nanchang",,28.680659,115.972736,112,59,13,3,1,7,12,3,0,43,1,20141113190000
817,"Contruction Industry College, Nanchang",,28.684018,115.865891,93,58,14,22,16,7,12,4,0,50,1,20141113190000
818,"Xianghu, Nanchang",,28.637831,115.9033,117,64,8,32,20,10,12,4,0,50,1,20141113190000
819,"Martial Arts School, Nanchang",,28.794538,115.752876,124,62,14,7,6,3,12,4,0,50,1,20141113190000
820,"Petrifaction Company, Nanchang",,28.608634,115.912999,151,72,8,2,1,7,12,4,0,50,1,20141113190000
821,"Provincial Station, Nanchang",,28.677155,115.941896,127,59,11,12,8,6,12,3,0,43,1,20141113190000
822,Nanchang,,28.679883,115.863022,151,72,21,28,19,10,12,4,1025,50,1,20141113190000
939,Sanya,,18.251142,109.515993,61,39,26,5,1,7,23,19,0,78,1,20141113190000
823,"Lushan Mountain Observatory, Jiujiang",,29.5751,115.998926,50,28,43,28,103,3,6,-8,1026,23,1,20141113190000
824,"Shili, Jiujiang",,29.668119,115.992381,124,107,3,32,129,10,6,-8,1026,23,1,20141113190000
825,"Maoshantou, Jiujiang",,29.700819,115.967192,107,106,21,32,123,7,6,-8,1026,23,1,20141113190000
826,"Xiyuan, Jiujiang",,29.723929,115.998206,102,66,5,31,103,8,6,-8,1026,23,1,20141113190000
827,"Wuqierling Factory, Jiujiang",,29.640802,116.022713,80,58,26,24,144,2,6,-8,1026,23,1,20141113190000
828,"Water Scientific Research Institute, Jiujiang",,29.679179,116.068081,129,106,3,19,49,6,5,-5,1029,35,1,20141113190000
829,"Zonghe Industrial Park, Jiujiang",,29.592047,115.916335,129,76,6,30,106,7,6,-8,1026,23,1,20141113190000
830,"Petrochemical General Plant, Jiujiang",,29.738832,116.09463,87,45,19,18,10,7,5,-5,1029,35,1,20141113190000
831,Jiujiang,,29.70254,116.007025,129,107,43,32,49,10,5,-5,1029,35,1,20141113190000
1332,"Feiyu, Xinyu",,27.844697,115.000136,156,74,22,20,55,,17,,1028,45,3,20141113190000
1333,"Beigang, Xinyu",,27.932491,115.103767,157,69,20,18,46,,17,,1028,45,3,20141113190000
1334,"No.2 water factory, Xinyu",,27.839577,114.933915,160,89,8,25,25,,17,,1028,45,3,20141113190000
1335,"Bureau of Meteorology, Xinyu",,27.81048,114.936507,159,90,12,31,53,,17,,1028,45,3,20141113190000
1336,Xinyu,,27.814351,114.922194,160,90,22,31,55,,17,,1028,45,3,20141113190000
832,"Tobacco Factory, Zhengzhou",,34.753419,113.687131,158,123,3,42,42,8,8,-2,0,50,2,20141113190000
833,"Textile Machinery Factory, Zhengzhou",,34.773366,113.647067,171,164,7,29,56,18,8,-2,0,50,2,20141113190000
834,"Banking College, Zhengzhou",,34.800856,113.681126,164,144,2,25,61,13,8,-2,0,50,2,20141113190000
835,"Water Supply Company, Zhengzhou",,34.807188,113.571089,177,168,5,32,68,12,8,-2,0,50,2,20141113190000
836,"Economic Development Zone Management Committee, Zhengzhou",,34.717652,113.733182,187,379,2,28,18,10,8,-2,0,50,2,20141113190000
837,"No. 47 middle school, Zhengzhou",,34.772211,113.74009,182,167,5,33,16,14,8,-2,0,50,2,20141113190000
838,"City Monitoring Station, Zhengzhou",,34.748404,113.60514,184,155,26,40,61,27,8,-2,0,50,2,20141113190000
839,"Henan Medical University, Zhengzhou",,34.752637,113.641658,174,167,15,35,21,10,8,-2,0,50,2,20141113190000
840,"Gangli Reservoir, Zhengzhou",,34.952652,113.64248,142,77,5,22,12,12,8,-2,0,50,2,20141113190000
841,Zhengzhou,,34.745417,113.631415,174,167,15,35,21,10,-,-,0,-,-,20141113190000
842,"Henan University No.1 Hospital, Kaifeng",,34.799302,114.352706,184,113,3,28,13,11,6,-2,1024,57,1,20141113190000
843,"Maternity And Child Hospital, Kaifeng",,34.795803,114.386103,174,120,11,37,22,14,6,-2,1024,57,1,20141113190000
844,"Cancer Hospital, Kaifeng",,34.775428,114.350292,13,6,16,13,19,10,6,-2,1024,57,1,20141113190000
845,"Yellow River Conservancy Institute, Kaifeng",,34.826066,114.324772,162,82,6,32,23,9,6,-2,1024,57,1,20141113190000
846,"Shijixing Kindergarden, Kaifeng",,34.793606,114.302744,165,82,2,26,13,5,6,-2,1024,57,1,20141113190000
847,Kaifeng,,34.796346,114.313426,184,113,3,28,13,11,6,-2,1024,57,1,20141113190000
852,Jiaozuo,,35.215381,113.248188,139,76,23,28,28,17,8,-2,0,50,2,20141113190000
853,"Cotton Research Institute, Anyang",,36.081435,114.486451,169,80,10,23,7,6,3,-4,1026,44,2,20141113190000
854,"Hongmiao Street, Anyang",,36.086733,114.326,13,6,,,,,3,-4,1026,44,2,20141113190000
855,"Yinxing Compound, Anyang",,36.056519,114.36495,163,96,5,29,23,11,3,-4,1026,44,2,20141113190000
856,"Tiefo Temple, Anyang",,36.110041,114.309309,157,101,4,30,17,14,3,-4,1026,44,2,20141113190000
857,Anyang,,36.097767,114.398846,169,101,10,35,37,14,3,-4,1026,44,2,20141113190000
858,"City Monitoring Station, Luoyang",,34.669055,112.439633,167,75,4,13,26,15,12,,1028,25,3,20141113190000
859,"BDA Management Committee, Luoyang",,34.622084,112.390759,156,68,7,22,15,12,12,,1028,25,3,20141113190000
860,"New municipal office, Luoyang",,34.623745,112.432973,162,103,7,17,27,14,12,,1028,25,3,20141113190000
861,"City committee communist party school, Luoyang",,34.650169,112.400212,161,81,4,16,51,12,6,,1024,59,3,20141113190000
862,"Henan Forestry College, Luoyang",,34.685566,112.509429,157,82,6,15,17,19,6,,1024,59,3,20141113190000
863,"CITIC No.2 Elementary School, Luoyang",,34.668212,112.36907,169,93,5,24,35,18,12,,1028,25,3,20141113190000
864,"Yuxi Hotel, Luoyang",,34.685949,112.472611,173,100,3,17,19,15,12,,1028,25,3,20141113190000
865,Luoyang,,34.617424,112.46054,173,103,7,24,51,19,12,,1028,25,3,20141113190000
866,"City Planning Design Institute, Pingdingshan",,33.7352,113.297916,160,72,8,28,15,9,6,-2,1024,57,1,20141113190000
867,"Xinhua Hotel, Pingdingshan",,33.737754,113.328814,160,80,15,28,9,7,6,-2,1024,57,1,20141113190000
868,"Engineering College, Pingdingshan",,33.772474,113.188235,151,67,17,22,15,7,6,-2,1024,57,1,20141113190000
869,"High Voltage Switchgear Factory, Pingdingshan",,33.719941,113.312665,149,90,10,33,17,10,5,-2,1023,61,1,20141113190000
