locationid,stationname,chinesename,latitude,longitude,pm25,pm10,o3,no2,so2,co,temperature,dewpoint,pressure,humidity,wind,est_time
1,Dongcheng Dongsi,,39.9304,116.423239,25,32,28,10,4,3,-1,-16,1033,32,8,20141210170000
2,"Temple of Heaven, Dongcheng",,39.887403,116.41324,39,14,26,10,3,2,-1,-16,1033,32,6,20141210170000
3,West Park officials,,39.930333,116.345162,34,11,19,13,5,3,-1,-16,1033,32,8,20141210170000
4,West Wanshou Nishinomiya,,39.879354,116.358183,26,14,28,8,5,4,-1,-16,1033,32,8,20141210170000
5,Chaoyang Olympic Sports Center,,39.983406,116.403253,42,14,26,9,5,4,-1,-16,1033,32,8,20141210170000
6,Chaoyang Agricultural Exhibition Hall,,39.938331,116.46715,53,13,29,14,5,2,-1,-16,1033,32,6,20141210170000
7,Haidian Wanliu,,39.988245,116.293062,38,16,18,11,7,3,-1,-16,1033,32,6,20141210170000
8,The Haidian northern New Area,,40.091313,116.180194,44,28,19,5,7,3,-1,-16,1033,32,6,20141210170000
9,Haidian Beijing Botanical Garden,,40.003252,116.213097,38,14,31,1,8,3,-1,-16,1033,32,6,20141210170000
10,Fengtai garden,,39.86423,116.285037,45,30,16,23,8,4,-1,-16,1033,32,6,20141210170000
11,Fengtai Yungang,,39.82535,116.152237,65,28,25,9,4,3,-1,-16,1033,32,6,20141210170000
12,Shijingshan city,,39.915286,116.190144,30,12,27,5,6,3,-1,-16,1033,32,8,20141210170000
13,"Fangshan, Liangxiang",,39.743357,116.14225,13,27,2,3,112,1,-1,-16,1033,32,6,20141210170000
14,"Huangcunzhen, Daxing",,39.719389,116.410219,40,10,21,9,9,3,-1,-16,1033,32,6,20141210170000
15,BDA,,39.796197,116.51197,38,35,35,10,4,4,-1,-16,1033,32,6,20141210170000
16,Tongzhou New Town,,39.887113,116.6689,47,18,19,12,5,4,-1,-16,1033,32,6,20141210170000
17,Shunyi New Town ,,40.128111,116.660908,34,24,22,5,2,2,-1,-16,1033,32,8,20141210170000
18,Changping Town,,40.218245,116.236084,63,19,27,12,2,4,-1,-16,1033,32,6,20141210170000
19,"Mentougou, Longquan Town",,39.938397,116.112323,34,18,25,5,6,3,-1,-16,1033,32,6,20141210170000
20,Pinggu town,,40.144433,117.106563,43,16,28,5,2,3,-1,-16,1033,32,6,20141210170000
21,Huairou town,,40.329104,116.63387,38,7,31,1,2,3,-1,-16,1033,32,8,20141210170000
22,The town of Miyun,,40.371186,116.838053,58,23,26,8,4,5,-1,-16,1033,32,6,20141210170000
23,Yanqing town,,40.454217,115.978106,58,19,33,2,4,3,-1,-16,1033,32,6,20141210170000
24,Changping Dingling,,40.293269,116.226108,30,10,29,2,2,2,-1,-16,1033,32,6,20141210170000
25,Badaling Northwest,,40.36623,115.994146,58,31,25,12,9,3,-1,-16,1033,32,6,20141210170000
26,Miyun Reservoir,,40.500157,116.91701,34,11,31,1,3,2,-1,-16,1033,32,6,20141210170000
27,"Donggaocun Zhen, Pinggu",,40.10142,117.126556,74,45,23,11,3,3,-1,-16,1033,32,6,20141210170000
28,"Yongledianzhen, Tongzhou",,39.713192,116.78905,68,30,11,31,7,5,-1,-16,1033,32,6,20141210170000
29,"Yufazhen, Daxing",,39.521203,116.306026,55,13,15,9,7,8,-1,-16,1033,32,6,20141210170000
30,"Liulihezhen, Fangshan",,39.581169,116.006089,66,40,18,10,7,10,-1,-16,1033,32,6,20141210170000
31,"Qianmen E St, Dongcheng",,39.900402,116.401242,51,17,25,10,2,1,-1,-16,1033,32,6,20141210170000
32,Yongdingmen Inner St,,39.877401,116.400238,59,19,33,20,3,3,-1,-16,1033,32,6,20141210170000
33,Xizhimen N St,,39.955352,116.355187,51,18,22,18,6,5,-1,-16,1033,32,6,20141210170000
34,South Ring Road,,39.857377,116.37421,43,16,15,19,9,5,-1,-16,1033,32,6,20141210170000
35,East Fourth Ring Road,,39.940273,116.489075,63,33,20,20,4,2,-1,-16,1033,32,6,20141210170000
36,Beijing,,39.955906,116.474246,63,32,24,10,4,3,-1,-16,1033,32,6,20141210170000
37,Putuo,,31.232979,121.415378,163,67,12,25,10,10,7,5,1027,87,5,20141210170000
38,Yangpu Sipiao,,31.263795,121.540311,165,69,15,25,10,12,7,5,1027,87,5,20141210170000
39,Shanghai Normal College Primary Division,,31.199031,121.487719,168,72,17,28,8,16,7,5,1027,87,5,20141210170000
40,Dianshan Lake,,31.091338,120.982293,160,63,12,21,9,14,7,5,1027,87,5,20141210170000
41,Hongkou Liangcheng,,31.298906,121.47155,169,73,12,23,9,14,7,5,1027,87,5,20141210170000
42,Jingan,,31.224251,121.429637,169,73,14,26,13,9,7,5,1027,87,5,20141210170000
43,Shanghai Normal University,,31.163531,121.416643,167,71,5,26,9,10,7,5,1027,87,5,20141210170000
44,Chuansha,,31.188626,121.707342,166,69,20,23,9,13,7,5,1027,87,5,20141210170000
45,Zhangjiang,,31.204896,121.581215,163,67,10,25,11,13,7,5,1027,87,5,20141210170000
46,Lingshan Road,,31.226286,121.537317,168,71,17,25,11,13,7,5,1027,87,5,20141210170000
1080,City average,,31.228451,121.478227,167,70,3,25,10,12,7,5,1027,87,5,20141210170000
47,Shanghai,,31.202842,121.453493,166,74,4,28,8,11,7,5,1027,87,5,20141210170000
48,Guangzhou,,23.138517,113.263701,168,78,17,14,17,11,16,8,1021,59,7,20141210170000
49,"Huadu town, Guangzhou",,23.389121,113.220062,162,66,47,13,12,14,15,8,1022,63,7,20141210170000
50,"Luogang Zhenlong, Guangzhou",,23.308027,113.567032,163,59,47,10,17,10,15,8,1022,63,7,20141210170000
51,"LuHu, Guangzhou",,23.151743,113.281842,163,72,61,20,13,12,15,8,1022,63,7,20141210170000
52,"Tianhu, Guangzhou",,23.647433,113.629715,172,71,114,12,24,9,15,8,1022,63,7,20141210170000
53,"Zhudong, Guangzhou",,23.418406,113.078552,162,70,48,13,12,14,15,8,1022,63,7,20141210170000
54,"Modiesha station, Guangzhou",,23.103814,113.338238,163,90,26,27,14,2,15,8,1022,63,7,20141210170000
55,Zhuhai,,22.2677,113.581765,164,77,45,25,16,13,20,14,1019,68,5,20141210170000
1075,"Huicai technical school, Foshan",,23.039667,113.105492,155,65,61,24,19,10,15,8,1022,63,7,20141210170000
56,"Sanshuiyun donghai, Foshan",,23.185788,112.865368,129,62,42,11,9,9,15,8,1022,63,7,20141210170000
57,"Nanhai Bureau of Meteorology, Foshan",,23.046836,113.145764,153,57,56,19,13,10,15,8,1022,63,7,20141210170000
58,"Sanshui Monitoring Station, Foshan",,23.163551,112.890843,129,46,34,8,10,10,15,8,1022,63,7,20141210170000
1087,Foshan,,23.018995,113.126899,153,57,56,19,13,10,16,8,1021,59,7,20141210170000
59,"Ronggui street committee, Shunde",,22.762729,113.258356,165,74,42,28,12,11,15,8,1022,63,7,20141210170000
60,Shunde,,22.80246,113.298701,159,76,48,27,18,10,-,-,0,-,-,20141210170000
61,"Donghu, Jiangmen",,22.590411,113.087351,167,80,122,25,5,6,20,14,1019,68,5,20141210170000
62,"Taoyuan Atmosphere Premier Station, Jiangmen",,22.72489,112.93404,162,82,31,12,15,11,20,14,1019,68,5,20141210170000
63,Jiangmen,,22.576047,113.087351,167,80,122,25,5,6,20,14,1019,68,5,20141210170000
64,"Kengkouzi station, Zhaoqing",,23.158865,112.570287,164,66,48,7,8,10,15,8,1022,63,7,20141210170000
65,"Mugangzi station, Zhaoqing",,23.067961,112.431934,159,71,65,8,10,10,15,8,1022,63,7,20141210170000
67,Zhaoqing,,23.044571,112.470346,160,67,46,4,9,8,15,8,1022,63,7,20141210170000
68,"Jinguo Bay, Huizhou",,22.937223,114.385567,156,65,47,11,14,7,20,12,1020,60,3,20141210170000
1091,"Xiabu, Huizhou",,23.077493,114.410275,158,64,41,11,14,11,20,12,1020,60,3,20141210170000
69,"Xijiao, Huizhou",,23.338178,114.112867,151,57,36,8,12,11,20,12,1020,60,3,20141210170000
70,"Jiangbei, Huizhou",,23.111706,114.415274,157,73,54,5,16,6,20,12,1020,60,3,20141210170000
71,"Huiyang chuanhu, Huizhou",,22.814485,114.329292,153,62,45,11,9,9,20,12,1020,60,3,20141210170000
72,"Daya bay management committee, Huizhou",,22.739283,114.53631,151,57,47,12,10,8,20,12,1020,60,3,20141210170000
73,Huizhou,,23.109349,114.421164,157,73,54,5,16,6,20,12,1020,60,3,20141210170000
74,"Guancheng No.2 water plant, Dongguan",,23.057294,113.753254,160,81,51,19,20,10,20,12,1020,60,3,20141210170000
75,"Dongcheng Shijing, Dongguan",,23.010039,113.799529,163,66,84,22,23,11,20,12,1020,60,3,20141210170000
76,"Nancheng Xiping, Dongguan",,22.963051,113.743494,160,132,94,25,25,8,20,12,1020,60,3,20141210170000
77,"Nancheng Yuanling, Dongguan",,23.025058,113.751308,164,77,78,23,27,11,20,12,1020,60,3,20141210170000
78,Dongguan,,23.017813,113.756958,164,77,78,23,27,11,20,12,1020,60,3,20141210170000
79,"Zimaling, Zhongshan",,22.505112,113.407183,164,82,48,28,19,10,20,14,1019,68,5,20141210170000
80,"Yangtze River tourist area, Zhongshan",,22.48589,113.439054,165,86,88,22,21,13,20,14,1019,68,5,20141210170000
81,"Huabai Park, Zhongshan",,22.51839,113.374362,163,80,39,39,15,16,20,14,1019,68,5,20141210170000
82,Zhongshan,,22.513997,113.398277,164,82,48,28,19,10,20,14,1019,68,5,20141210170000
83,"No.8 middle school, Shaoguan",,24.767777,113.583537,109,51,31,11,10,10,10,4,1026,54,4,20141210170000
83,"No.8 middle school, Shaoguan",,24.767777,113.583537,109,51,31,11,10,10,10,4,1026,54,4,20141210170000
84,"Forest area, Shaoguan",,24.796107,113.612131,134,51,34,10,9,10,10,4,1026,54,4,20141210170000
84,"Forest area, Shaoguan",,24.796106,113.612131,134,51,34,10,9,10,10,4,1026,54,4,20141210170000
86,"Shaoguan University, Shaoguan",,24.790864,113.646599,139,65,38,14,11,10,10,4,1026,54,4,20141210170000
86,"Shaoguan University, Shaoguan",,24.790864,113.646598,139,65,38,14,11,10,10,4,1026,54,4,20141210170000
88,"Qujiang Monitoring Station, Shaoguan",,24.683042,113.60157,127,49,39,16,15,8,10,4,1026,54,4,20141210170000
88,"Qujiang Monitoring Station, Shaoguan",,24.683042,113.60157,127,49,39,16,15,8,10,4,1026,54,4,20141210170000
89,Shaoguan,,24.807342,113.602712,134,51,34,10,9,10,10,4,1026,54,4,20141210170000
90,"Chaonanzi Station, Shantou",,23.251213,116.406762,180,85,33,26,10,15,18,17,1020,94,1,20141210170000
90,"Chaonanzi Station, Shantou",,23.251174,116.406606,180,85,33,26,10,15,18,17,1020,94,1,20141210170000
91,Shantou,,23.350642,116.686306,154,53,40,25,7,13,18,17,1020,94,1,20141210170000
92,"City Environmental Monitoring Station, Zhanjiang",,21.220431,110.397317,156,87,184,11,11,18,17,13,1020,71,3,20141210170000
93,"EPB Dormitory, Zhanjiang",,21.197376,110.406487,162,77,174,14,13,9,17,13,1020,71,3,20141210170000
94,"Xiashan Swimming Park, Zhanjiang",,21.200431,110.415655,168,87,146,7,18,17,17,13,1020,71,3,20141210170000
95,"Zhanjiang Theatre, Zhanjiang",,21.268177,110.366445,168,79,174,8,11,13,17,13,1020,71,3,20141210170000
96,"Mazhang EPA, Zhanjiang",,21.265486,110.335993,160,75,43,10,12,18,17,13,1020,71,3,20141210170000
97,"Potou District EPB, Zhanjiang",,21.247604,110.454508,161,83,194,,8,18,17,13,1020,71,3,20141210170000
98,Zhanjiang,,21.26832,110.363883,168,79,174,8,11,13,17,13,1020,71,3,20141210170000
99,"Maogang sub-office EPB, Maoming",,21.466435,111.033462,184,107,165,7,6,8,18,14,0,77,4,20141210170000
100,"Petrochemical No. 7 elementaty school, Maoming",,21.648905,110.937861,167,73,157,9,16,13,18,14,0,77,4,20141210170000
101,"Jiankang road, Maoming",,21.662211,110.909482,168,77,93,11,35,13,18,14,0,77,4,20141210170000
102,"Gaoling, Maoming",,21.690558,110.871146,164,73,84,12,18,13,18,14,0,77,4,20141210170000
1094,Maoming,,21.660223,110.929968,168,77,93,11,35,13,18,14,0,77,4,20141210170000
103,"Jiaying University, Meizhou",,24.325415,116.12816,154,58,32,8,9,10,18,17,1020,94,1,20141210170000
104,"Mexian new town, Meizhou",,24.269283,116.084546,156,62,34,7,9,12,18,17,1020,94,1,20141210170000
105,"Environmental Monitoring Center, Meizhou",,24.262778,116.129621,155,63,32,8,9,10,18,17,1020,94,1,20141210170000
1095,Meizhou,,24.285988,116.127065,155,63,32,8,9,10,18,17,1020,94,1,20141210170000
106,"City EPA, Shanwei",,22.772349,115.370227,102,51,39,6,3,10,19,18,1019,90,1,20141210170000
107,"City government, Shanwei",,22.787161,115.375536,153,56,39,16,7,12,19,18,1019,90,1,20141210170000
108,"Xincheng Middle School, Shanwei",,22.789851,115.367124,139,42,28,12,4,9,19,18,1019,90,1,20141210170000
1099,Shanwei,,22.783576,115.38022,139,42,28,12,4,9,19,18,1019,90,1,20141210170000
109,"No.3 elementary school, Heyuan",,23.755946,114.699091,127,62,45,10,14,10,17,7,1022,39,3,20141210170000
109,"No.3 elementary school, Heyuan",,23.75435,114.703514,127,62,45,10,14,10,17,7,1022,39,3,20141210170000
111,"City water company, Heyuan",,23.754246,114.682459,129,64,43,10,15,9,17,7,1022,39,3,20141210170000
111,"City water company, Heyuan",,23.688709,114.954652,129,64,43,10,15,9,17,7,1022,39,3,20141210170000
113,"Heyuan high school, Heyuan",,23.720037,114.699563,152,56,47,11,15,12,17,7,1022,39,3,20141210170000
113,"Heyuan high school, Heyuan",,23.720666,114.693879,152,56,47,11,15,12,17,7,1022,39,3,20141210170000
115,Heyuan,,23.740888,114.705147,152,56,47,11,15,12,17,7,1022,39,3,20141210170000
116,"Yuanyang Lake, Yangjiang",,21.855869,111.983676,164,72,118,17,13,11,19,12,1020,55,4,20141210170000
1100,Yangjiang,,21.855227,111.987308,164,72,118,17,13,11,19,12,1020,55,4,20141210170000
118,"Town governement, Qingyuan",,23.708005,113.026215,87,55,40,9,8,11,15,8,1022,63,7,20141210170000
119,"Fupin district, Qingyuan",,23.624781,113.067713,59,25,39,10,13,11,15,8,1022,63,7,20141210170000
121,"Environment protection office, Qingyuan",,23.685931,113.053239,85,11,37,8,8,9,15,8,1022,63,7,20141210170000
121,"Environment protection office, Qingyuan",,23.691109,113.047948,85,11,37,8,8,9,15,8,1022,63,7,20141210170000
123,"Fengcheng Subdistrict, Qingyuan",,23.695447,113.068189,87,55,40,9,8,11,15,8,1022,63,7,20141210170000
124,Qingyuan,,23.679304,113.061513,85,11,37,8,8,9,16,8,1021,59,7,20141210170000
125,"Xiyuan Road, Chaozhou",,23.668654,116.638272,171,102,34,18,8,14,18,17,1020,94,1,20141210170000
126,"Archives Bureau, Chaozhou",,23.667881,116.649104,151,64,39,24,12,11,18,17,1020,94,1,20141210170000
127,"Municipal Corporation, Chaozhou",,23.65035,116.621859,171,62,36,23,11,13,18,17,1020,94,1,20141210170000
1101,Chaozhou,,23.654204,116.626969,171,62,36,23,11,13,18,17,1020,94,1,20141210170000
128,"Donghu Park, Jieyang",,23.532877,116.374427,153,65,47,23,15,16,18,17,1020,94,1,20141210170000
129,"Yuhu Middle School, Jieyang",,23.52682,116.414123,161,86,42,23,20,18,18,17,1020,94,1,20141210170000
130,"Experimental Primary School, Jieyang",,23.571473,116.364137,163,78,42,31,22,18,18,17,1020,94,1,20141210170000
1102,Jieyang,,23.547596,116.37754,153,65,47,23,15,16,18,17,1020,94,1,20141210170000
131,"City Environmental Monitoring Station, Yunfu",,22.936779,112.042248,170,82,43,6,15,9,15,8,1022,63,7,20141210170000
132,"The new city government headquarters, Yunfu",,22.914275,112.044475,173,74,46,8,12,9,15,8,1022,63,7,20141210170000
133,"Muyang police sub-station, Yunfu",,22.951267,112.05923,95,64,43,13,23,5,15,8,1022,63,7,20141210170000
1103,Yunfu,,22.912436,112.049811,173,74,46,8,12,9,16,8,1021,59,7,20141210170000
134,Yantian,,22.587949,114.266899,129,40,31,7,10,6,20,12,1020,60,3,20141210170000
135,Kwai Chung,,22.572837,113.867166,165,101,50,35,14,14,20,12,1020,60,3,20141210170000
135,Kwai Chung,,22.354168,114.134558,165,101,50,35,14,14,20,12,1020,60,3,20141210170000
137,Nanyou,,22.513802,113.928051,162,129,80,30,13,10,20,12,1020,60,3,20141210170000
138,Meisha,,22.59611,114.318345,152,53,47,9,8,10,20,12,1020,60,3,20141210170000
139,Xi xiang,,22.717524,114.252304,154,57,56,12,7,16,20,12,1020,60,3,20141210170000
140,Liyuan,,22.54732,114.101205,168,112,40,63,12,17,20,12,1020,60,3,20141210170000
1072,Kwai Chung,,22.627947,114.428875,154,54,49,9,6,9,20,12,1020,60,3,20141210170000
1072,Kwai Chung,,22.354168,114.134558,154,54,49,9,6,9,20,12,1020,60,3,20141210170000
141,OCT,,22.539549,113.992458,168,74,26,49,5,17,20,12,1020,60,3,20141210170000
142,Honghu,,22.559647,114.121976,168,63,47,62,6,12,20,12,1020,60,3,20141210170000
143,Mission Hills,,22.694131,114.050496,157,62,97,15,14,11,20,12,1020,60,3,20141210170000
144,Shenzhen,,22.540382,114.062982,168,129,80,63,13,17,-,-,0,-,-,20141210170000
145,Chengdu,,30.622581,104.069564,104,68,19,39,5,9,7,-1,1030,57,1,20141210170000
146,"Jinquan lianghe, Chengdu",,30.710359,103.974209,114,84,20,29,7,9,6,3,1031,81,0,20141210170000
147,"Shilidian, Chengdu",,30.684718,104.17845,157,114,15,28,6,10,6,3,1031,81,0,20141210170000
148,"Sanwayao, Chengdu",,30.568159,104.081524,104,73,16,33,11,10,6,3,1031,81,0,20141210170000
149,"Shahepu, Chengdu",,30.633685,104.120536,157,114,9,24,4,9,6,3,1031,81,0,20141210170000
150,"Liang Lane, Chengdu",,30.682601,104.076522,152,84,15,33,13,9,6,3,1031,81,0,20141210170000
151,"Caotang Temple, Chengdu",,30.651891,104.0284,109,68,19,39,5,9,6,3,1031,81,0,20141210170000
152,"Lingyansi, Chengdu",,31.025729,103.615022,46,24,30,1,2,2,6,3,1031,81,0,20141210170000
153,"Fuleshan, Mianyang",,31.472493,104.7806,122,56,25,17,5,7,8,1,1031,50,2,20141210170000
154,"High-tech Zone Water Company, Mianyang",,31.463309,104.674293,107,55,17,27,13,6,8,1,1031,50,2,20141210170000
155,"No.3 water company, Mianyang",,31.505002,104.731054,107,63,27,20,6,6,8,1,1031,50,2,20141210170000
156,Mianyang,,31.465174,104.681731,122,63,27,27,13,7,8,1,1031,50,2,20141210170000
157,"Dongshan Park, Deyang",,31.118648,104.424587,68,44,18,22,5,7,6,3,1031,81,0,20141210170000
158,"Xixiaoqu, Deyang",,31.131159,104.390972,139,65,25,21,9,7,6,3,1031,81,0,20141210170000
159,"City Procuratorate, Deyang",,31.114554,104.407986,107,55,23,21,4,11,6,3,1031,81,0,20141210170000
160,"Refractory Factory, Deyang",,31.108606,104.356506,119,55,22,22,1,5,6,3,1031,81,0,20141210170000
161,Deyang,,31.124715,104.400703,139,65,25,22,9,7,6,3,1031,81,0,20141210170000
162,"Nongnongping, Panzhihua",,26.566698,101.695438,119,99,33,32,18,13,11,3,0,48,2,20141210170000
163,"Hemenkou, Panzhihua",,26.589072,101.578312,152,67,34,12,16,11,11,3,0,48,2,20141210170000
164,"Bingcaogang, Panzhihua",,26.58143,101.718473,129,61,30,32,6,15,11,3,0,48,2,20141210170000
165,"Renhe, Panzhihua",,26.498166,101.746887,25,19,30,3,2,10,11,3,0,48,2,20141210170000
166,"Jinjina, Panzhihua",,26.553226,101.84862,112,103,33,24,62,10,11,3,0,48,2,20141210170000
167,Panzhihua,,26.578779,101.720211,152,103,34,24,62,11,11,3,0,48,2,20141210170000
168,"Shima Middle School, Yibin",,28.815979,104.599199,74,41,18,7,9,9,8,3,1033,63,1,20141210170000
169,"Municipal party committee, Yibin",,28.762654,104.624834,72,36,18,16,17,8,8,3,1033,63,1,20141210170000
170,"No. 4 middle school, Yibin",,28.783257,104.608407,89,52,15,12,7,6,8,3,1033,63,1,20141210170000
171,"City government, Yibin",,28.760477,104.644079,74,50,25,9,8,5,8,3,1033,63,1,20141210170000
172,"Huangjinzui, Yibin",,28.712319,104.578389,82,60,19,16,12,5,8,3,1033,63,1,20141210170000
173,"Shaping Middle School, Yibin",,28.795569,104.681393,87,50,23,24,12,7,8,3,1033,63,1,20141210170000
174,Yibin,,28.748384,104.645766,89,60,19,16,12,9,8,3,1033,63,1,20141210170000
175,"Datang Hill, Zigong",,29.359969,104.757388,-,-,-,-,-,-,-,-,0,-,-,20141210170000
176,"Yanma Road, Zigong",,29.355752,104.724036,166,81,47,12,4,6,8,0,0,54,2,20141210170000
177,"Tanmulin Street, Zigong",,29.353555,104.777397,155,62,24,14,9,3,8,0,0,54,2,20141210170000
178,"Chunhua Road, Zigong",,29.33825,104.771895,156,78,20,19,8,9,8,0,0,54,2,20141210170000
179,Zigong,,29.33617,104.781138,166,81,47,12,4,6,8,0,0,54,2,20141210170000
180,"Jiushi Hill, Luzhou",,28.955347,105.434207,91,49,26,3,4,1,8,2,0,64,2,20141210170000
181,"Xiaoshishang Port, Luzhou",,28.899583,105.447192,107,56,18,7,16,6,8,2,0,64,2,20141210170000
182,"Lantianxian Bridge, Luzhou",,28.852766,105.4358,109,51,23,19,11,5,8,2,0,64,2,20141210170000
183,"City Environment Monitoring Station, Luzhou",,28.895898,105.435802,109,56,15,16,7,4,8,2,0,64,2,20141210170000
184,Luzhou,,28.868782,105.445938,109,51,26,19,11,5,8,2,0,64,2,20141210170000
185,"City Committee, Nanchong",,30.799993,106.082906,155,83,87,21,8,2,8,1,1032,50,1,20141210170000
186,"Refinery Factory, Nanchong",,30.819412,106.10712,159,79,15,22,6,2,8,1,1032,50,1,20141210170000
187,"Gaoping District Monitoring Station, Nanchong",,30.783291,106.110417,124,69,10,27,5,9,8,1,1032,50,1,20141210170000
188,"Jialing District EPB, Nanchong",,30.761255,106.06818,152,72,17,37,9,5,8,1,1032,50,1,20141210170000
189,"City Environmental Monitoring Station, Nanchong",,30.836519,106.11272,166,75,21,10,38,7,8,1,1032,50,1,20141210170000
190,Nanchong,,30.835511,106.114717,166,83,87,37,38,9,8,1,1032,50,1,20141210170000
1249,"City Monitoring Station, Neijiang",,29.592673,105.036234,152,68,8,12,5,9,8,0,0,54,2,20141210170000
1250,"Dongxing District Government , Neijiang",,29.592148,105.074966,132,60,15,12,5,3,8,0,0,54,2,20141210170000
1251,"No 2 middle school, Neijiang",,29.579135,105.068548,119,69,17,8,5,3,8,0,0,54,2,20141210170000
1252,Neijiang,,29.577653,105.06166,152,75,17,12,6,9,8,0,0,54,2,20141210170000
1253,"City Monitoring Station, Suining",,30.517431,105.564623,122,75,18,25,18,6,8,0,0,51,2,20141210170000
1254,"Administrative center , Suining",,30.530907,105.593309,151,40,19,30,5,14,8,0,0,51,2,20141210170000
1255,Suining,,30.530053,105.596307,153,119,19,30,26,14,8,0,0,51,2,20141210170000
1256,"City Monitoring Station, Leshan",,29.560651,103.759211,124,75,10,21,11,7,5,-3,0,51,3,20141210170000
1257,"Leshan Giant Buddha Scenic Area , Leshan",,29.543938,103.772706,112,62,15,23,8,6,5,-3,0,51,3,20141210170000
1258,Leshan,,29.54935,103.767777,127,75,15,23,14,8,5,-3,0,51,3,20141210170000
1259,"Heilongtan , Meishan",,30.047726,103.900649,152,3,15,9,1,2,6,3,1031,81,0,20141210170000
1260,"Bureau of Meteorology, Meishan",,30.084591,103.843715,124,62,11,10,9,6,6,3,1031,81,0,20141210170000
1261,"Xuguang Community , Meishan",,30.066277,103.8516,124,65,10,12,8,4,6,3,1031,81,0,20141210170000
1262,"City Monitoring Station, Meishan",,30.059205,103.836229,132,60,10,11,4,3,6,3,1031,81,0,20141210170000
1263,Meishan,,30.072618,103.85064,152,65,15,12,9,6,6,3,1031,81,0,20141210170000
1264,"Ziyang middle school, Ziyang",,30.147763,104.638024,104,71,18,17,37,11,8,0,0,54,2,20141210170000
1265,Ziyang,,30.126054,104.63004,144,94,21,17,37,11,8,0,0,54,2,20141210170000
1377,"Dazhou Technical College, Dazhou",,31.277414,107.531672,144,67,7,21,6,6,7,,1030,71,3,20141210170000
1378,"City Environmental Monitoring Station, Dazhou",,31.212692,107.529474,155,71,3,24,3,10,7,,1030,71,3,20141210170000
1379,"Civic Center, Dazhou",,31.203669,107.465774,129,70,12,25,5,6,7,,1030,71,3,20141210170000
191,Shenyang US Consulate,,41.785668,123.432865,167,83,,28,62,,-11,-16,1027,67,1,20141210170000
192,"Huishan, Shenyang",,41.835421,123.647773,171,81,28,13,7,6,-9,-15,1027,62,2,20141210170000
193,"Hunnan, Shenyang",,41.758263,123.540809,162,70,25,24,55,7,-9,-15,1027,62,2,20141210170000
194,"Zhangshi, Shenyang",,41.771679,123.289859,160,76,10,23,56,8,-11,-16,1027,67,1,20141210170000
195,"Artillery College, Shenyang",,41.835749,123.547799,127,87,22,19,33,7,-9,-15,1027,62,2,20141210170000
196,"Beiling, Shenyang",,41.849633,123.434146,173,90,13,17,40,6,-9,-15,1027,62,2,20141210170000
197,"Wenyi Road, Shenyang",,41.767444,123.416144,174,83,21,28,62,9,-9,-15,1027,62,2,20141210170000
198,"Xiaoheyan, Shenyang",,41.779828,123.484015,161,72,16,22,53,7,-11,-16,1027,67,1,20141210170000
199,"Taiyuan Street, Shenyang",,41.799646,123.406146,159,70,13,32,26,7,-11,-16,1027,67,1,20141210170000
200,"Ermao, Shenyang",,41.783011,123.366679,183,100,23,18,40,9,-9,-15,1027,62,2,20141210170000
201,"Liaoning University, Shenyang",,41.830704,123.361071,177,76,22,10,7,8,-9,-15,1027,62,2,20141210170000
202,Shenyang,,41.808126,123.437611,159,70,13,28,26,7,-11,-16,1027,67,1,20141210170000
1104,"wenhua street, Shenyang , Shenyang",,41.774139,123.441839,174,83,14,28,54,9,-9,-15,1027,62,2,20141210170000
1105,"Tanglin Road , Shenyang , Shenyang",,41.823665,123.562317,119,79,18,18,21,8,-11,-16,1027,67,1,20141210170000
203,"Ganjingzi, Dalian",,38.9747,121.616893,87,51,9,5,5,6,-1,-11,1026,47,4,20141210170000
204,"Zhoushuizi, Dalian",,38.951928,121.569981,72,65,18,4,12,12,-1,-11,1026,47,4,20141210170000
205,"Xinghai No 3 station, Dalian",,38.885779,121.568864,97,62,12,7,4,11,-1,-11,1026,47,4,20141210170000
206,"Qingniwa Bridge, Dalian",,38.91274,121.638018,87,56,22,5,7,8,-1,-11,1026,47,4,20141210170000
207,"Fujiazhuang, Dalian",,38.864647,121.629947,95,53,5,14,12,7,-1,-11,1026,47,4,20141210170000
208,"Qixianling, Dalian",,38.856978,121.523169,122,61,24,11,5,17,-1,-11,1026,47,4,20141210170000
209,"Lushun, Dalian",,38.808946,121.264063,91,57,14,2,4,7,-1,-11,1026,47,4,20141210170000
210,"Jinzhou, Dalian",,39.132192,121.753259,87,50,16,4,3,7,-1,-11,1026,47,4,20141210170000
211,"BDA, Dalian",,39.05213,121.782022,93,53,14,2,12,12,-1,-11,1026,47,4,20141210170000
212,"D&D Port, Dalian",,39.064087,121.981874,78,55,15,5,7,9,-1,-11,1026,47,4,20141210170000
213,Dalian,,38.91478,121.619625,87,56,22,5,7,8,0,-11,1026,44,5,20141210170000
214,"Bearing Factory, Dandong",,40.068929,124.345703,89,45,15,7,21,22,-3,-7,1023,63,4,20141210170000
215,"Financial school, Dandong",,40.158723,124.432593,93,46,13,7,20,9,-3,-7,1023,63,4,20141210170000
216,"Yuanbaoshan water, Dandong",,40.149431,124.391698,102,36,14,8,21,11,-3,-7,1023,63,4,20141210170000
217,"Experimental Primary School, Dandong",,39.887343,124.158056,109,52,12,9,17,15,-3,-7,1023,63,4,20141210170000
218,Dandong,,40.002046,124.360479,102,46,8,8,21,11,-3,-7,1023,63,4,20141210170000
1106,"minzhu bridge, Dandong , Dandong",,40.112974,124.373604,127,56,6,9,16,16,-3,-7,1023,63,4,20141210170000
1107,"yuanbaoshan, Dandong , Dandong",,40.146298,124.399081,102,36,8,8,21,11,-3,-7,1023,63,4,20141210170000
1108,"linjiang houjie, Dandong , Dandong",,40.152757,124.431745,93,46,6,7,20,9,-3,-7,1023,63,4,20141210170000
219,"BDA, Panjin",,41.157144,122.06645,155,55,13,6,10,14,-6,-19,0,36,5,20141210170000
220,"Xinglongtai, Panjin",,41.140948,122.111343,147,51,13,7,12,11,-6,-19,0,36,5,20141210170000
221,"Dingxiang, Panjin",,41.16139,121.928781,114,34,27,6,6,5,-6,-19,0,36,5,20141210170000
222,Panjin,,41.122089,122.076206,155,55,13,6,10,14,-6,-19,0,36,5,20141210170000
223,"No.3 water company, Yingkou",,40.682052,122.385352,65,40,26,6,9,11,-6,-13,1028,45,6,20141210170000
224,"Yingkou University, Yingkou",,40.683689,122.388285,53,45,25,4,11,11,-6,-13,1028,45,6,20141210170000
225,"Botanical garden, Yingkou",,40.711674,122.281568,70,28,24,5,9,10,-6,-13,1028,45,6,20141210170000
226,Yingkou,,40.668578,122.24059,70,42,21,6,9,11,-6,-13,1028,45,6,20141210170000
1109,"jinghu west street, Yingkou , Yingkou",,40.653831,122.221943,65,40,20,6,9,11,-6,-13,1028,45,6,20141210170000
1110,"Daqing Road , Yingkou , Yingkou",,40.709181,122.28243,70,28,17,5,9,10,-6,-13,1028,45,6,20141210170000
227,"Xishanpo, Huludao",,40.724078,120.921974,61,3,19,4,7,19,,,0,,,20141210170000
228,"Huagong hospital, Huludao",,40.755662,120.848435,34,9,21,3,2,4,,,0,,,20141210170000
229,"New district park, Huludao",,40.723415,120.853801,46,13,18,7,8,17,,,0,,,20141210170000
230,"Lianshan district governement, Huludao",,40.775488,120.872292,25,8,21,3,2,15,,,0,,,20141210170000
231,Huludao,,40.712501,120.842107,61,8,19,4,7,19,,,0,,,20141210170000
1111,"Dongcheng District , Huludao , Huludao",,40.775362,120.871706,25,8,19,3,2,15,,,0,,,20141210170000
1112,"huagong street, Huludao , Huludao",,40.758901,120.842935,34,9,18,3,2,4,,,0,,,20141210170000
232,Anshan,,41.110466,123.000147,167,82,25,14,26,34,-11,-16,1027,67,1,20141210170000
233,"Qianshan Park, Anshan",,41.033486,123.143897,144,58,29,11,12,8,-11,-16,1027,67,1,20141210170000
234,"Tiexi, Anshan",,41.121636,122.97506,151,64,16,23,30,30,-9,-15,1027,62,2,20141210170000
235,"Taiping Station, Anshan",,41.153322,123.052433,167,82,16,8,25,22,-11,-16,1027,67,1,20141210170000
236,"Central Station, Anshan",,41.106731,123.002736,158,70,21,9,25,34,-11,-16,1027,67,1,20141210170000
237,"Shengou Temple, Anshan",,41.137157,123.031901,163,77,25,14,26,11,-11,-16,1027,67,1,20141210170000
1113,"Qianshan , Anshan , Anshan",,41.014521,123.122538,144,58,15,11,12,8,-11,-16,1027,67,1,20141210170000
1114,"Tiexi Sandao jie, Anshan",,41.103264,122.978613,134,59,4,18,26,31,-11,-16,1027,67,1,20141210170000
1115,"Taiyang, Anshan",,41.094946,123.019037,158,70,13,9,25,34,-11,-16,1027,67,1,20141210170000
238,Fushun,,41.883028,123.962984,172,86,22,17,14,22,-11,-16,1027,67,1,20141210170000
239,"Shenfu new town, Fushun",,41.804638,123.631684,158,66,17,10,6,11,-11,-16,1027,67,1,20141210170000
240,"Reservoir, Fushun",,41.8464,123.802857,161,72,28,15,8,11,-11,-16,1027,67,1,20141210170000
241,"Train Station, Fushun",,41.89726,124.017604,169,76,22,17,14,10,-11,-16,1027,67,1,20141210170000
242,"Dongzhou, Fushun",,41.855578,124.044738,163,75,26,12,12,13,-11,-16,1027,67,1,20141210170000
243,"Xinhua, Fushun",,41.888598,123.932932,172,86,19,16,9,22,-11,-16,1027,67,1,20141210170000
244,"Wanghua, Fushun",,41.888825,123.093723,114,83,18,19,38,11,-11,-16,1027,67,1,20141210170000
1367,"Dongzhou district, Fushun , Fushun",,41.864885,124.044353,163,75,21,12,12,13,-11,-16,1027,67,1,20141210170000
1368,"Wanghua district, Fushun , Fushun",,41.849112,123.815882,114,83,14,19,38,11,-11,-16,1027,67,1,20141210170000
245,Benxi,,41.296267,123.772371,165,83,32,33,47,37,-11,-16,1027,67,1,20141210170000
246,"Weining, Benxi",,41.349663,123.826071,164,65,45,15,5,16,-11,-16,1027,67,1,20141210170000
247,"Occupational disease hospital, Benxi",,41.305432,123.74645,144,67,30,10,27,16,-11,-16,1027,67,1,20141210170000
248,"Dongming, Benxi",,41.292369,123.765058,156,51,15,33,47,37,-11,-16,1027,67,1,20141210170000
249,"Caitun, Benxi",,41.301591,123.746039,153,62,12,10,15,27,-11,-16,1027,67,1,20141210170000
250,"Xihu, Benxi",,41.331332,123.773537,165,83,21,12,11,27,-11,-16,1027,67,1,20141210170000
251,"Dayu, Benxi",,41.308091,123.818442,160,62,31,15,27,8,-11,-16,1027,67,1,20141210170000
1116,"Xinlitun , Benxi , Benxi",,41.264104,123.811523,144,67,17,10,27,16,-11,-16,1027,67,1,20141210170000
252,Jinzhou,,41.097169,121.132647,25,30,25,14,51,13,-4,-18,1028,19,4,20141210170000
253,"Beihu Park, Jinzhou",,41.141447,121.137339,21,15,19,4,21,12,-4,-18,1028,19,4,20141210170000
254,"Monitoring station, Jinzhou",,41.113441,121.140911,9,8,25,4,8,4,-4,-18,1028,19,4,20141210170000
1369,"Baigu Water Plant, Jinzhou",,41.123847,121.206296,13,23,29,4,7,10,-4,-18,1028,19,4,20141210170000
255,"Nanshan, Jinzhou",,41.570689,122.046753,17,8,25,14,51,13,-4,-18,1028,19,4,20141210170000
1118,"BDA, Jinzhou",,40.853915,121.061756,25,30,21,12,32,8,-4,-18,1028,19,4,20141210170000
1119,"tianan street, Jinzhou , Jinzhou",,41.124468,121.126119,9,8,20,4,8,4,-4,-18,1028,19,4,20141210170000
1120,"baigu street, Jinzhou, Jinzhou",,41.12214,121.21027,13,23,25,4,7,10,-4,-18,1028,19,4,20141210170000
1121,Chaoyang,,41.576022,120.456053,38,39,21,12,34,26,-,-,0,-,-,20141210170000
1122,"Agricultural Area, Chaoyang",,43.93968,125.247371,-,-,-,-,-,-,-,-,0,-,-,20141210170000
1123,Tieling,,42.225197,123.732174,161,69,22,17,11,10,-,-,0,-,-,20141210170000
260,"Waterpark, Tieling",,42.297031,123.880748,172,82,18,11,16,8,-8,-13,1026,68,4,20141210170000
1124,"Huigong Street West , Tieling , Tieling",,42.311115,123.845614,161,65,18,12,8,10,-11,-16,1027,67,1,20141210170000
1125,Liaoyang,,41.269312,123.24268,174,75,9,13,8,23,-,-,0,-,-,20141210170000
1126,"Riverside Road , Liaoyang , Liaoyang",,41.176884,123.419859,151,59,11,11,12,22,-11,-16,1027,67,1,20141210170000
1127,Fuxin,,42.02373,121.675733,78,64,23,6,22,16,-,-,0,-,-,20141210170000
266,"Agricultural Area, Fuxin",,42.071291,121.696445,68,28,15,2,9,14,-8,-17,0,48,6,20141210170000
267,"Industrial Area, Fuxin",,42.041052,121.715554,78,51,13,6,7,14,-8,-17,0,48,6,20141210170000
1128,"Yulong Metro , Fuxin , Fuxin",,42.035091,121.666531,46,64,19,6,10,16,-8,-17,0,48,6,20141210170000
1129,"Dongyuan , Fuxin , Fuxin",,42.029119,121.681553,50,37,20,5,22,9,-8,-17,0,48,6,20141210170000
268,"City Monitoring Station, Jinan",,36.662614,117.054645,190,210,17,25,21,9,0,-8,1032,42,1,20141210170000
269,"Shandong Institute of Economics, Jinan",,36.63819,117.074975,170,195,7,40,39,9,0,-8,1032,42,1,20141210170000
270,"Quancheng Plaza, Jinan",,36.661711,117.027043,159,176,10,31,45,10,0,-8,1032,42,1,20141210170000
271,"Kegansuo, Jinan",,36.611582,116.99384,171,249,13,60,8,13,0,-8,1032,42,1,20141210170000
272,"Agriculture Science Institute, Jinan",,36.663115,116.95063,178,262,39,28,26,10,0,-8,1032,42,1,20141210170000
273,"Lanxiang technical school, Jinan",,36.700421,116.95342,181,189,5,36,47,12,0,-8,1032,42,1,20141210170000
274,"Chemical factory, Jinan",,36.687463,116.994406,177,186,6,37,36,8,0,-8,1032,42,1,20141210170000
275,"Provincial Seed Warehouse, Jinan",,36.685706,117.066348,178,194,80,32,46,11,0,-8,1032,42,1,20141210170000
276,"Shandong Architecture University, Jinan",,36.681732,117.191868,172,164,6,34,38,16,0,-8,1032,42,1,20141210170000
277,"Baosheng cable company, Jinan",,36.724638,117.130855,183,312,4,30,44,22,0,-8,1032,42,1,20141210170000
278,"Paomaling, Jinan",,36.47869,117.219027,164,152,20,17,35,11,0,-8,1032,42,1,20141210170000
279,"Changqing District Communist Party School, Jinan",,36.548797,116.770859,175,255,12,36,50,12,0,-8,1032,42,1,20141210170000
280,"BDA, Jinan",,36.685835,117.130851,169,180,132,26,23,9,0,-8,1032,42,1,20141210170000
281,Jinan,,36.651426,117.126625,190,210,17,25,21,9,0,-8,1032,42,1,20141210170000
282,"Shinan district No. 1, Qingdao",,36.065534,120.40839,187,181,9,63,22,13,1,-6,1029,60,4,20141210170000
283,"Shibei district No. 1, Qingdao",,36.069919,120.341264,185,1,5,28,27,16,1,-6,1029,60,4,20141210170000
284,"Shibei district No. 2, Qingdao",,36.104146,120.36637,178,140,3,37,26,18,1,-6,1029,60,4,20141210170000
285,"Huangdao District No. 1, Qingdao",,35.958935,120.191041,178,160,10,18,23,10,1,-6,1029,60,4,20141210170000
286,"Huangdao District No. 2, Qingdao",,35.970487,120.160339,185,137,8,29,18,13,1,-6,1029,60,4,20141210170000
287,"Laoshan District No. 1, Qingdao",,36.085881,120.451839,201,126,4,55,33,23,1,-6,1029,60,4,20141210170000
288,"Laoshan District No. 2, Qingdao",,36.091075,120.490388,192,164,4,37,32,19,1,-6,1029,60,4,20141210170000
289,"Licang District No. 1, Qingdao",,36.184872,120.38533,191,155,3,38,10,20,1,-6,1029,60,4,20141210170000
290,"Licang District No. 2, Qingdao",,36.154369,120.432287,-,149,1,103,20,1,1,-6,1029,60,4,20141210170000
291,"Chengyang District No. 1, Qingdao",,36.308502,120.40008,188,137,6,33,32,13,1,-6,1029,60,4,20141210170000
292,"Chengyang District No. 2, Qingdao",,36.308429,120.465806,195,124,9,18,23,16,1,-6,1029,60,4,20141210170000
293,Qingdao,,36.067358,120.387773,187,181,9,63,22,13,1,-6,1029,60,4,20141210170000
294,"Zichuan Meteo. Stations, Zibo",,36.637916,117.960222,-,-,-,-,-,-,-,-,0,-,-,20141210170000
295,"Dongfeng Chemical factory, Zibo",,36.838576,118.050785,196,124,8,26,28,23,-1,-13,0,38,5,20141210170000
296,"Boshan shuangshan, Zibo",,36.497278,117.853581,303,309,3,41,69,35,-1,-13,0,38,5,20141210170000
297,"Linzi Putian Park, Zibo",,36.820171,118.315022,325,393,3,44,53,32,-1,-13,0,38,5,20141210170000
298,"Qilu Petrochemical, Zibo",,36.765907,118.254967,281,222,2,47,51,31,-1,-13,0,38,5,20141210170000
299,"Zhoucun sanjin Group, Zibo",,36.8044,117.85694,320,249,8,26,29,39,-1,-13,0,38,5,20141210170000
300,"Vocational College, Zibo",,36.825208,117.926305,269,158,5,65,70,39,-1,-13,0,38,5,20141210170000
301,"BDA, Zibo",,36.905214,118.021824,160,119,6,22,23,33,-1,-13,0,38,5,20141210170000
302,Zibo,,36.813618,118.060948,359,379,8,41,70,37,-1,-13,0,38,5,20141210170000
303,"Shizhong District Government, Zaozhuang",,34.850397,117.569545,181,184,11,12,30,8,4,-4,1032,46,1,20141210170000
304,"Sewage treatment plant, Zaozhuang",,34.818951,117.595345,199,186,6,27,44,12,4,-4,1032,46,1,20141210170000
305,"Xuecheng EPA, Zaozhuang",,34.790214,117.272455,185,181,9,25,24,7,4,-4,1032,46,1,20141210170000
306,"Yicheng District government, Zaozhuang",,34.772806,117.57647,198,219,24,23,55,7,4,-4,1032,46,1,20141210170000
307,"Taierzhuang EPA, Zaozhuang",,34.579462,117.741067,197,175,12,25,50,8,4,-4,1032,46,1,20141210170000
308,"Shanting EPA, Zaozhuang",,35.070373,117.457691,180,190,20,22,12,5,4,-4,1032,46,1,20141210170000
309,"City EPA, Zaozhuang",,34.809466,117.320608,173,228,25,13,55,14,4,-4,1032,46,1,20141210170000
369,Rizhao,,35.416089,119.532316,188,136,13,12,18,8,3,-4,1030,47,2,20141210180000
310,"High-tech zone, Zaozhuang",,34.821779,117.363495,179,189,11,17,59,10,4,-4,1032,46,1,20141210170000
311,Zaozhuang,,34.809693,117.329634,181,184,11,12,30,8,4,-4,1032,46,1,20141210170000
312,"City EPA, Dongying",,37.432052,118.672871,34,73,13,15,21,9,1,-8,0,49,9,20141210170000
313,"Vocational College, Dongying",,37.438653,118.630567,61,69,9,12,16,12,1,-8,0,49,9,20141210170000
314,"Xianhe Oil Production Plant, Dongying",,37.442419,118.510222,114,127,11,12,13,13,1,-8,0,49,9,20141210170000
315,"Gengjin village, Dongying",,37.445072,118.55839,82,82,17,12,13,10,1,-8,0,49,9,20141210170000
316,"City environmental company, Dongying",,37.466599,118.508012,74,65,16,7,7,9,1,-8,0,49,9,20141210170000
317,"Hekou  district, Dongying",,37.883786,118.522171,65,62,15,6,7,10,1,-8,0,49,9,20141210170000
318,"BDA, Dongying",,37.435162,118.701827,70,66,11,10,14,16,1,-8,0,49,9,20141210170000
319,Dongying,,37.435429,118.680434,34,73,13,15,21,9,1,-8,0,49,9,20141210170000
320,"Bearing Factory, Yantai",,37.544126,121.376956,74,82,16,6,8,9,,,0,,,20141210170000
321,"Xijiao Chemical Station, Yantai",,37.547148,121.323695,109,103,32,7,29,7,,,0,,,20141210170000
322,"Fushan Monitoring Stations, Yantai",,37.472245,121.260116,89,71,9,12,22,14,,,0,,,20141210170000
323,"Mouping EPA, Yantai",,37.376681,121.586509,82,100,12,14,15,14,,,0,,,20141210170000
324,"Laishan EPA, Yantai",,37.478422,121.44829,102,69,12,10,8,10,,,0,,,20141210170000
325,"Laishan Shengquan Industrial Park, Yantai",,37.4271,121.408386,91,89,4,10,10,10,,,0,,,20141210170000
326,"China Agricultural University, Yantai",,37.423568,121.511838,107,86,11,7,8,12,,,0,,,20141210170000
327,"BDA EPA, Yantai",,37.560827,121.257954,117,87,11,4,3,10,,,0,,,20141210170000
329,"Dajijia, Yantai",,37.673849,121.071465,68,67,12,9,6,10,,,0,,,20141210170000
330,Yantai,,37.464793,121.453142,74,82,16,6,8,9,,,0,,,20141210170000
331,"BDA, Weifang",,36.720022,119.054064,187,160,3,39,49,18,,,0,,,20141210170000
332,"Business School, Weifang",,36.682442,119.105909,200,170,4,34,49,16,,,0,,,20141210170000
333,"Hanting District, Weifang",,36.773484,119.199705,186,182,5,28,32,14,,,0,,,20141210170000
334,"Gongda Company, Weifang",,36.657635,119.167266,182,167,8,10,18,11,,,0,,,20141210170000
335,"City EPA, Weifang",,36.701272,119.16838,186,159,9,33,38,13,,,0,,,20141210170000
336,"City Arbitration Committee, Weifang",,36.702422,119.145927,187,142,12,30,42,16,,,0,,,20141210170000
337,"Xinhui Group, Weifang",,36.641581,119.11679,237,203,4,37,55,19,,,0,,,20141210170000
338,"Jincheng Middle School, Weifang",,36.773611,119.115539,189,151,10,28,38,16,,,0,,,20141210170000
339,Weifang,,36.707217,119.167638,193,163,27,31,25,12,,,0,,,20141210170000
340,"City Monitoring Station, Jining",,35.408443,116.623917,178,226,7,31,67,14,3,-6,1030,41,1,20141210170000
1090,"Shengdi Hollidays Resort, Jining",,35.424746,116.699093,174,250,4,35,64,14,3,-6,1030,41,1,20141210170000
341,"Sewage treatment plant, Jining",,35.364286,116.609177,172,184,6,26,56,13,3,-6,1030,41,1,20141210170000
342,"Electrochemical Factory, Jining",,35.390473,116.552956,142,345,6,30,28,11,3,-6,1030,41,1,20141210170000
343,"Rencheng BDA, Jining",,35.390484,116.662995,170,161,2,31,2,15,3,-6,1030,41,1,20141210170000
344,"Agricultural School, Jining",,35.44235,116.601682,193,378,3,27,77,18,3,-6,1030,41,1,20141210170000
345,"BDA Huojucheng, Jining",,35.436377,116.642953,171,191,6,31,47,13,3,-6,1030,41,1,20141210170000
346,Jining,,35.414473,116.59239,178,226,7,39,75,14,3,-6,1030,41,1,20141210170000
347,"Taishan monitoring station, Taian",,36.194362,117.159648,157,156,39,29,29,10,-9,-17,0,36,11,20141210170000
348,"Shandong Electric Power School, Taian",,36.176071,117.12413,158,174,151,33,11,9,-9,-17,0,36,11,20141210170000
349,"Population Education school, Taian",,36.194417,117.104131,139,167,19,25,10,6,-9,-17,0,36,11,20141210170000
350,"Houfeng company, Taian",,36.204863,117.19015,155,152,9,25,16,23,-9,-17,0,36,11,20141210170000
351,"Nongda new campus, Taian",,36.170179,117.165191,186,196,4,32,50,16,-9,-17,0,36,11,20141210170000
352,"Transportation technical school, Taian",,36.202126,117.047068,142,137,5,30,13,12,-9,-17,0,36,11,20141210170000
353,"ICT Technology, Taian",,36.116621,117.107458,119,131,3,31,10,7,-9,-17,0,36,11,20141210170000
354,Taian,,36.200502,117.093682,157,156,39,29,29,10,-9,-17,0,36,11,20141210170000
355,"City Environmental Monitoring Station, Weihai",,37.513939,122.067058,151,107,14,11,9,11,3,-2,0,65,11,20141210170000
356,"Woodworking Factory, Weihai",,37.325455,122.160777,132,90,11,11,12,11,3,-2,0,65,11,20141210170000
357,"Lantian Hotel, Weihai",,37.514641,122.146276,151,93,19,10,6,9,3,-2,0,65,11,20141210170000
358,"Zhang village government, Weihai",,37.485561,122.049436,139,82,17,8,10,8,3,-2,0,65,11,20141210170000
359,"Gao District Bank, Weihai",,37.534919,122.056294,155,111,15,10,6,10,3,-2,0,63,11,20141210170000
360,"Huxia technical school, Weihai",,37.427951,122.130811,153,97,24,5,4,7,3,-2,0,65,11,20141210170000
361,Weihai,,37.5141,122.125477,151,107,24,11,9,11,3,-2,0,65,11,20141210170000
560,Wanli University,,29.821314,121.574364,129,53,4,23,136,10,8,5,1027,81,5,20141210170000
362,"City governement square, Rizhao",,35.4075,119.526008,188,136,13,12,18,8,3,-4,1030,47,2,20141210170000
364,"City Monitoring Station, Rizhao",,35.388683,119.496405,184,137,5,29,23,13,3,-4,1030,47,2,20141210170000
365,"Professor Garden, Rizhao",,35.462161,119.574193,189,159,7,30,30,15,3,-4,1030,47,2,20141210170000
366,"Vocational and Technical College, Rizhao",,35.441939,119.538187,193,142,8,22,26,12,3,-4,1030,47,2,20141210180000
367,"Lanshan EPA branch, Rizhao",,35.293405,119.345716,200,147,5,29,27,11,3,-4,1030,47,2,20141210180000
368,"Jinma Industrial Park, Rizhao",,35.373339,119.514108,191,174,3,31,26,11,3,-4,1030,47,2,20141210180000
370,"Vegetable oil factory, Laiwu",,36.205028,117.700917,307,216,8,41,62,15,0,-4,1031,65,2,20141210180000
371,"Nursing home, Laiwu",,36.266067,117.652769,293,177,4,31,43,32,0,-4,1031,65,2,20141210180000
372,"Xinyi middle school, Laiwu",,36.245086,117.739025,191,158,8,19,27,21,0,-4,1031,65,2,20141210180000
373,"Risheng International School, Laiwu",,36.208125,117.730959,274,203,2,47,52,26,0,-4,1031,65,2,20141210180000
374,"Gangcheng EPA, Laiwu",,36.066836,117.871823,267,314,3,28,72,29,0,-4,1031,65,2,20141210180000
375,"City EPA, Laiwu",,36.228913,117.694797,205,212,2,32,50,26,0,-4,1031,65,2,20141210180000
376,Laiwu,,36.213688,117.682612,307,216,8,41,62,15,-,-,0,-,-,20141210180000
377,"Lunan Pharmaceutical Factory, Linyi",,35.061671,118.299527,275,215,23,40,35,11,0,-8,0,51,4,20141210180000
378,"Yihe compound, Linyi",,35.056752,118.34739,226,179,25,36,44,11,0,-8,0,51,4,20141210180000
379,"Linyi University, Linyi",,35.114777,118.293414,250,186,6,39,40,22,0,-8,0,51,4,20141210180000
380,City EPA,Nanfang,35.104871,118.353518,211,181,3,39,53,16,0,-8,0,51,4,20141210180000
381,"Xinguang woolen factory, Linyi",,34.981004,118.282,247,182,11,34,40,14,0,-8,0,51,4,20141210180000
382,"Hongfu Baijiu Factory, Linyi",,34.998788,118.257275,273,373,3,37,48,21,0,-8,0,51,4,20141210180000
384,"Hedong insurance company, Linyi",,35.089354,118.40812,240,164,19,30,54,12,0,-8,0,51,4,20141210180000
385,"Jianghua vehicule center, Linyi",,35.010082,118.435749,226,162,1,36,49,18,0,-8,0,51,4,20141210180000
386,Linyi,,35.10428,118.362202,275,215,23,40,35,11,0,-8,0,51,4,20141210180000
387,"Heima group, Dezhou",,37.466063,116.314134,186,169,19,35,24,13,0,-10,1030,32,1,20141210180000
388,"Monitoring station, Dezhou",,37.433107,116.377312,190,194,10,35,43,14,0,-10,1030,32,1,20141210180000
389,"Supervision Station, Dezhou",,37.449689,116.324709,183,153,18,28,39,9,0,-10,1030,32,1,20141210180000
390,"Huayu technical school, Dezhou",,37.462809,116.357559,183,158,9,31,32,9,0,-10,1030,32,1,20141210180000
391,"Shuangyi group, Dezhou",,37.478848,116.316362,191,168,4,30,33,19,0,-10,1030,32,1,20141210180000
392,Dezhou,,37.434959,116.363366,186,169,19,35,24,13,0,-10,1030,32,1,20141210180000
393,"Dongchang District Government, Liaocheng",,36.444473,115.971733,172,133,15,20,24,13,0,-10,1031,37,0,20141210180000
394,"Light Machinery Factory No. 2, Liaocheng",,36.456788,116.002383,178,152,19,19,23,14,0,-10,1031,37,0,20141210180000
395,"City committee communist party school, Liaocheng",,36.479537,115.989288,174,145,15,22,23,17,0,-10,1031,37,0,20141210180000
396,"Customs, Liaocheng",,36.431933,115.956974,185,203,9,23,27,20,0,-10,1031,37,0,20141210180000
397,"Hongshun Garden, Liaocheng",,36.471124,115.960319,172,150,3,24,21,14,0,-10,1031,37,0,20141210180000
398,"BDA, Liaocheng",,36.459407,116.043621,697,156,9,21,22,14,0,-10,1031,37,0,20141210180000
399,Liaocheng,,36.456792,115.991051,172,133,15,20,24,13,0,-10,1031,37,0,20141210180000
400,"City EPA, Binzhou",,37.38024,118.026895,102,87,13,13,9,30,-2,-4,1030,80,1,20141210180000
401,"Beizhong new school, Binzhou",,37.38374,117.988996,95,74,8,21,12,11,-2,-4,1030,80,1,20141210180000
402,"No.2 water factory, Binzhou",,37.36155,118.002648,87,87,35,18,19,15,-2,-4,1030,80,1,20141210180000
403,"Keling Chemical factory, Binzhou",,37.396138,117.943609,119,62,27,51,39,29,-2,-4,1030,80,1,20141210180000
404,"Yinhe logistics company, Binzhou",,37.356122,117.943326,104,91,6,32,21,18,-2,-4,1030,80,1,20141210180000
405,"Bilin compond, Binzhou",,37.36815,117.978964,95,88,12,17,15,22,-2,-4,1030,80,1,20141210180000
406,Binzhou,,37.382639,117.976606,102,87,13,13,9,30,-2,-4,1030,80,1,20141210180000
407,"Bureau of Meteorology, Heze",,35.248625,115.428775,190,209,42,25,26,13,1,-15,0,28,4,20141210180000
408,"Sewage treatment plant, Heze",,35.222517,115.531511,179,265,15,31,42,15,1,-15,0,28,4,20141210180000
409,"Municipal CPPCC, Heze",,35.237125,115.480591,185,195,26,29,33,12,1,-15,0,28,4,20141210180000
410,"Huarun Pharmaceutical Company, Heze",,35.261463,115.524873,194,226,10,20,18,18,1,-15,0,28,4,20141210180000
411,"Heze University, Heze",,35.269706,115.460934,181,196,28,29,19,11,1,-15,0,28,4,20141210180000
412,Heze,,35.233354,115.486503,190,209,42,25,26,13,1,-15,0,28,4,20141210180000
413,"Shiji Park, Shijiazhuang",,38.03155,114.547873,97,75,25,18,27,6,1,-17,1033,25,6,20141210180000
414,"Xinan College, Shijiazhuang",,38.012764,114.473163,171,80,23,19,41,6,1,-17,1033,25,6,20141210180000
415,"Chemical College, Shijiazhuang",,38.055503,114.569816,107,84,29,20,23,4,1,-17,1033,25,6,20141210180000
416,"Worker hospital, Shijiazhuang",,38.051784,114.461209,151,84,31,33,30,4,1,-17,1033,25,6,20141210180000
417,"Northwest Water Company, Shijiazhuang",,38.140638,114.508038,152,85,27,13,9,3,1,-17,1033,25,6,20141210180000
418,"High-tech zone, Shijiazhuang",,38.040482,114.610775,112,113,19,36,55,7,1,-17,1033,25,6,20141210180000
419,"Fenglong Montain, Shijiazhuang",,37.910829,114.360264,87,69,35,6,23,2,1,-17,1033,25,6,20141210180000
1130,"Zhengding Unicom, Shijiazhuang",,38.159458,114.59879,129,109,14,25,31,5,1,-17,1033,25,6,20141210180000
1131,"Luancheng Communications, Shijiazhuang",,37.906534,114.638785,144,67,9,16,52,9,1,-17,1033,25,6,20141210180000
1132,"Gaocheng Experimental School, Shijiazhuang",,38.039518,114.867812,142,97,6,21,1,8,1,-17,1033,25,6,20141210180000
1133,"Wuji EPA, Shijiazhuang",,38.17862,114.997012,119,72,16,10,17,8,1,-17,1033,25,6,20141210180000
1134,"Shenze Power Supply Bureau, Shijiazhuang",,38.197674,115.219126,132,81,2,12,14,9,1,-17,1033,25,6,20141210180000
1135,"Zhaoxian EPA, Shijiazhuang",,37.77171,114.775957,82,55,10,21,16,8,1,-17,1033,25,6,20141210180000
1136,"Gaoyi County City Hall, Shijiazhuang",,37.623535,114.612729,158,103,1,28,44,16,1,-17,1033,25,6,20141210180000
1137,"Zanhuang County City Hall, Shijiazhuang",,37.672898,114.398269,95,54,14,5,20,8,1,-17,1033,25,6,20141210180000
1138,"Jingxing Bureau of Meteorology, Shijiazhuang",,38.038788,114.158406,114,85,16,20,35,5,1,-17,1033,25,6,20141210180000
1139,"Pingshan Ye River, Shijiazhuang",,38.266657,114.210275,99,74,16,5,12,5,1,-17,1033,25,6,20141210180000
420,Shijiazhuang,,38.042926,114.520834,104,89,26,25,47,4,1,-17,1033,25,6,20141210180000
421,"No. 12 middle school, Tangshan",,39.659306,118.190271,,,,,,,-,-,0,-,-,20141210180000
422,"Ceramics Company, Tangshan",,39.669255,118.225185,93,56,22,20,11,11,-2,-15,1032,37,8,20141210180000
423,"Commodities Bureau, Tangshan",,39.642301,118.191265,87,49,16,11,16,9,-2,-15,1032,37,8,20141210180000
424,"Leidazhanzi Station, Tangshan",,39.644375,118.150383,89,48,20,15,10,7,-2,-15,1032,37,8,20141210180000
425,"Supply and marketing cooperatives, Tangshan",,39.632334,118.17232,57,47,16,17,10,8,-2,-15,1032,37,8,20141210180000
1140,"Guye District City Hall, Tangshan",,39.741379,118.460246,74,64,14,14,28,14,-2,-15,1032,37,8,20141210180000
1141,"Kaiping Stations, Tangshan",,39.675246,118.275149,82,41,11,22,16,16,-2,-15,1032,37,8,20141210180000
1142,"Fengnan District City Hall, Tangshan",,39.5834,118.097454,95,66,16,6,15,5,-2,-15,1032,37,8,20141210180000
1143,"Fengrun City Hall, Tangshan",,39.840355,118.175338,68,49,24,7,5,8,-2,-15,1032,37,8,20141210180000
1144,"Qianxi EPA, Tangshan",,40.153339,118.317265,34,25,27,6,34,6,-2,-15,1032,37,8,20141210180000
1145,"Caofeidian Xinli  Primary School, Tangshan",,39.291232,118.462182,91,63,14,26,18,3,-2,-15,1032,37,8,20141210180000
1146,"Zunhua EPA, Tangshan",,40.206249,117.997315,59,30,29,3,8,3,-2,-15,1032,37,8,20141210180000
1147,"Qianan No.1 middle school, Tangshan",,40.004248,118.717055,42,40,26,7,3,12,-2,-15,1032,37,8,20141210180000
1266,"Luannan County , Tangshan",,39.511132,118.686928,93,51,11,16,17,15,-2,-15,1032,37,8,20141210180000
1267,"Yutian County , Tangshan",,39.908249,117.751417,70,28,25,6,2,3,-2,-15,1032,37,8,20141210180000
426,Tangshan,,39.632175,118.186472,87,49,16,11,16,9,-,-,0,-,-,20141210180000
427,"City Monitoring Station, Qinhuangdao",,39.958109,119.607773,76,41,14,17,12,14,,,0,,,20141210180000
428,"Beidaihe, Qinhuangdao",,39.829209,119.53194,13,12,8,6,10,17,,,0,,,20141210180000
429,"Shanhai Pass, Qinhuangdao",,40.019298,119.767898,78,54,22,9,6,7,,,0,,,20141210180000
430,"Contruction Plazz, Qinhuangdao",,39.943187,119.542912,57,39,18,7,7,6,,,0,,,20141210180000
431,"City government, Qinhuangdao",,39.93711,119.612769,76,41,14,13,12,7,,,0,,,20141210180000
1148,"Qinglong EPA, Qinhuangdao",,40.419223,118.958002,55,27,24,1,9,4,,,0,,,20141210180000
1149,"Changli EPA, Qinhuangdao",,39.714369,119.173237,173,125,8,45,26,37,,,0,,,20141210180000
1268,"Lulong County Bureau of Meteorology , Qinhuangdao",,39.901091,118.904857,72,43,20,7,25,7,,,0,,,20141210180000
432,Qinhuangdao,,39.936485,119.606263,76,41,14,13,12,7,,,0,,,20141210180000
433,"CongTai Park, Handan",,36.620197,114.501891,153,117,4,17,44,25,,,0,,,20141210180000
434,"City EPA, Handan",,36.618145,114.518822,194,152,29,53,30,19,,,0,,,20141210180000
435,"East Sewage Factory, Handan",,36.616064,114.548714,215,198,17,9,52,18,,,0,,,20141210180000
436,"Mine Hospital, Handan",,36.578149,114.509854,200,191,17,20,38,14,,,0,,,20141210180000
1150,"Fengfeng mine Inland Revenue Department, Handan",,36.423085,114.245994,267,197,4,25,64,15,,,0,,,20141210180000
1151,"Shexian EPA, Handan",,36.589084,113.692341,80,54,18,8,18,8,,,0,,,20141210180000
1152,"Ci County Vocational Education Center, Handan",,36.380247,114.390119,316,337,6,36,57,21,,,0,,,20141210180000
1153,"Yongnian government guesthouse, Handan",,36.783297,114.502905,222,209,3,34,54,29,,,0,,,20141210180000
1154,"Wuan BDA, Handan",,36.686223,114.269009,195,186,2,36,66,25,,,0,,,20141210180000
1085,Handan,,36.625683,114.544812,215,198,17,9,52,18,,,0,,,20141210180000
437,"Road and Bridge Corporation, Xingtai",,37.096415,114.538799,190,160,23,30,44,9,2,-12,1033,22,1,20141210180000
438,"Dahuo fontain, Xingtai",,37.097563,114.488001,194,185,28,19,19,6,2,-12,1033,22,1,20141210180000
439,"Xingtai Normal College, Xingtai",,37.053404,114.531819,198,179,15,28,54,18,2,-12,1033,22,1,20141210180000
440,"Environment protection office, Xingtai",,37.06253,114.490985,169,170,27,24,52,6,2,-12,1033,22,1,20141210180000
1155,"Cultural centers within the mound, Xingtai",,37.293569,114.524873,163,132,5,23,43,22,2,-12,1033,22,1,20141210180000
801,Hefei,,31.819449,117.232753,181,88,3,7,22,14,4,3,1031,93,2,20141210180000
383,Xingtai,,37.071066,114.510749,169,170,27,24,52,6,2,-12,1033,22,1,20141210180000
441,"City Monitoring Station, Baoding",,38.871737,115.527103,95,46,21,35,50,0,0,-16,1031,18,2,20141210180000
442,"Surface water Company, Baoding",,38.842891,115.467326,168,58,18,21,25,11,0,-16,1031,18,2,20141210180000
443,"Huadian II, Baoding",,38.896748,115.528102,165,68,24,25,51,10,0,-16,1031,18,2,20141210180000
444,"Reception Center, Baoding",,38.911905,115.477301,122,56,22,22,16,68,0,-16,1031,18,2,20141210180000
445,"Film Factory, Baoding",,38.876949,115.448383,109,65,25,9,6,13,0,-16,1031,18,2,20141210180000
446,"Natatorium, Baoding",,38.863815,115.499212,185,69,29,21,56,12,0,-16,1031,18,2,20141210180000
1156,"Qingyuan City Hall, Baoding",,38.771758,115.502189,215,131,9,28,51,15,0,-16,1031,18,2,20141210180000
1157,"Xushui EPA, Baoding",,39.025781,115.668023,446,471,7,34,33,23,0,-16,1031,18,2,20141210180000
1158,"Zhuozhou Monitoring Stations, Baoding",,39.493241,116.040187,74,25,9,6,39,18,0,-16,1031,18,2,20141210180000
1159,"Gaobeidian EPA, Baoding",,39.3329,115.885891,154,75,6,18,12,23,0,-16,1031,18,2,20141210180000
447,Baoding,,38.874791,115.471124,109,65,25,9,6,13,0,-16,1031,18,2,20141210180000
448,"Century Compound, Zhangjiakou",,40.770279,114.909106,76,13,29,2,2,3,-8,-18,1038,32,3,20141210180000
449,"North Pumping Station, Zhangjiakou",,40.874362,114.910119,93,67,29,12,15,10,-8,-18,1038,32,3,20141210180000
450,"Hardware Warehouse, Zhangjiakou",,40.81232,114.887119,30,25,29,12,19,17,-8,-18,1038,32,3,20141210180000
451,"Tanji Chang, Zhangjiakou",,40.796301,114.89811,25,18,29,3,10,1,-8,-18,1038,32,3,20141210180000
1160,"Xiahuayuan EPA, Zhangjiakou",,40.509345,115.302442,76,38,23,2,2,0,-8,-18,1038,32,3,20141210180000
1161,"Huaian EPA, Zhangjiakou",,40.68157,114.398646,42,27,23,6,1,7,-8,-18,1038,32,3,20141210180000
1162,"Huailai Fuqian Primary School, Zhangjiakou",,40.422204,115.530285,38,32,16,6,5,2,-8,-18,1038,32,3,20141210180000
1269,"Zhangbei EPA , Zhangjiakou",,41.166775,114.732369,78,28,24,3,6,2,-8,-18,1038,32,3,20141210180000
1270,"Kangbao County Environmental Protection Agency , Zhangjiakou",,41.837866,114.591246,55,20,27,2,15,0,-8,-18,1038,32,3,20141210180000
1271,"Guyuan County welfare , Zhangjiakou",,41.669984,115.687401,82,31,21,5,5,5,-8,-18,1038,32,3,20141210180000
1272,"Shangyi County Environmental Protection Bureau , Zhangjiakou",,41.086638,113.984688,78,35,26,3,7,5,-8,-18,1038,32,3,20141210180000
1273,"Yuxian Secondary School , Zhangjiakou",,39.84699,114.601986,85,41,24,10,23,5,-8,-18,1038,32,3,20141210180000
1274,"Yang County Vocational Education Center , Zhangjiakou",,40.106343,114.134732,72,30,31,1,7,18,-8,-18,1038,32,3,20141210180000
1275,"Wan county Environmental Protection Agency , Zhangjiakou",,40.770459,114.75033,65,30,26,2,8,13,-8,-18,1038,32,3,20141210180000
1276,"Zhuolu County Environmental Protection Agency , Zhangjiakou",,40.374273,115.221393,55,28,27,4,5,1,-8,-18,1038,32,3,20141210180000
452,Zhangjiakou,,40.825744,114.893659,102,34,29,15,12,3,-8,-18,1038,32,3,20141210180000
453,"Railway, Chengde",,40.917557,117.972331,21,20,29,2,3,2,-8,-18,1033,29,1,20141210180000
454,"Cultural Center, Chengde",,40.974625,117.824437,53,16,31,5,3,2,-8,-18,1033,29,1,20141210180000
455,"Bank of China, Chengde",,40.985582,117.958304,89,29,27,12,5,3,-8,-18,1033,29,1,20141210180000
456,"BDA, Chengde",,40.937567,117.969325,9,18,21,5,3,2,-8,-18,1033,29,1,20141210180000
457,"Ligong, Chengde",,41.012579,117.94428,82,36,19,3,2,2,-8,-18,1033,29,1,20141210180000
1163,"Chengde County EPA, Chengde",,40.776643,118.17646,30,22,25,1,5,3,-8,-18,1033,29,1,20141210180000
1164,"Xinglong County City Hall, Chengde",,40.424301,117.513488,55,19,32,3,2,2,-8,-18,1033,29,1,20141210180000
1165,"Luanping EPA, Chengde",,40.950792,117.350715,99,41,23,29,6,6,-8,-18,1033,29,1,20141210180000
1166,"Fengning County City Hall, Chengde",,41.216739,116.658037,53,38,27,1,17,4,-8,-18,1033,29,1,20141210180000
1277,"Longhua EPA , Chengde",,41.311956,117.739605,78,28,29,6,9,5,-8,-18,1033,29,1,20141210180000
458,Chengde,,40.955652,117.968737,9,18,21,5,3,2,-8,-18,1033,29,1,20141210180000
459,"Municipal EPB, Cangzhou",,38.323507,116.876746,122,60,17,19,28,14,-2,-15,1032,37,8,20141210180000
460,"Cangxian Urban Construction Bureau, Cangzhou",,38.299495,116.890734,122,58,17,19,28,15,-2,-15,1032,37,8,20141210180000
461,"TV Broadcast Station, Cangzhou",,38.325525,116.863761,70,61,12,22,11,19,-2,-15,1032,37,8,20141210180000
1167,"Qing County City Hall, Cangzhou",,38.589643,116.815876,85,35,8,7,26,15,-2,-15,1032,37,8,20141210180000
1168,"Poyoushi City Hall, Cangzhou",,38.089516,116.590575,199,81,2,20,10,27,-2,-15,1032,37,8,20141210180000
1169,"Huanghua Finance Bureau Training Center, Cangzhou",,38.377793,117.343356,65,41,9,6,7,8,-2,-15,1032,37,8,20141210180000
462,Cangzhou,,38.305035,116.844625,70,61,12,22,11,19,-2,-15,1032,37,8,20141210180000
463,"Environmental Monitoring Supervision Center, Langfang",,39.558157,116.720995,61,40,22,22,7,5,-2,-15,1032,37,8,20141210180000
464,"TCM Medical Material Company, Langfang",,39.519096,116.689914,59,51,15,12,14,3,-2,-15,1032,37,8,20141210180000
465,"BDA, Langfang",,39.576175,116.779041,65,44,19,9,10,3,-2,-15,1032,37,8,20141210180000
466,"North China Institute of Aerospace, Langfang",,39.53517,116.743027,57,40,15,18,6,5,-2,-15,1032,37,8,20141210180000
1170,"Guan Party School, Langfang",,39.446185,116.311026,76,34,21,15,7,10,-2,-15,1032,37,8,20141210180000
1171,"Xianghe EPA, Langfang",,39.76725,117.015252,82,34,26,9,7,12,-2,-15,1032,37,8,20141210180000
1172,"Wenan County EPA, Langfang",,38.880927,116.47001,89,54,22,8,19,16,-2,-15,1032,37,8,20141210180000
1173,"Three Rivers Department of Transportation, Langfang",,39.989419,117.091528,76,54,21,14,14,4,-2,-15,1032,37,8,20141210180000
1278,"Yongqing EPA , Langfang",,39.329071,116.510917,76,51,17,11,5,9,-2,-15,1032,37,8,20141210180000
1279,"Dacheng EPA, Langfang",,38.712628,116.665751,109,64,12,15,18,20,-2,-15,1032,37,8,20141210180000
467,Langfang,,39.539148,116.689668,59,51,15,12,14,3,-2,-15,1032,37,8,20141210180000
468,"Hengshui City EPB, Hengshui",,37.739679,115.695929,142,101,28,27,26,9,-1,-20,0,21,4,20141210180000
469,"Environmental Monitoring Station, Hengshui",,37.738593,115.648837,157,124,22,31,35,10,-1,-20,0,21,4,20141210180000
470,"Electrical Machine North Factory, Hengshui",,37.758686,115.70094,144,110,28,10,35,3,-1,-20,0,21,4,20141210180000
1174,"Anping EPA, Hengshui",,38.238559,115.537988,99,69,20,6,14,5,-1,-20,0,21,4,20141210180000
1175,"Jizhou EPA, Hengshui",,37.548552,115.58679,177,130,12,25,36,14,-1,-20,0,21,4,20141210180000
1280,"Zaoqiang EPA, Hengshui",,37.520698,115.714936,163,112,22,26,23,19,-1,-20,0,21,4,20141210180000
1281,"Wuyi EPA, Hengshui",,37.801554,115.898697,176,132,7,22,3,7,-1,-20,0,21,4,20141210180000
1282,"Wuqiang EPA , Hengshui",,38.03557,115.959767,187,130,6,26,-,17,-1,-20,0,21,4,20141210180000
1283,"Raoyang EPA , Hengshui",,38.230652,115.741041,175,123,10,20,26,9,-1,-20,0,21,4,20141210180000
1284,"Gucheng County , Hengshui",,37.347569,115.966707,161,108,12,16,21,12,-1,-20,0,21,4,20141210180000
471,Hengshui,,37.739562,115.676066,144,110,28,10,35,3,-1,-20,0,21,4,20141210180000
1176,"Xinji City Hall, Xinji",,37.949711,115.230084,157,85,9,15,20,7,-1,-20,0,21,4,20141210180000
472,"Fukang road, Tianjin",,39.098136,117.157621,61,43,20,18,20,9,-2,-14,1032,40,7,20141210180000
473,"Nankou road, Tianjin",,39.174022,117.199688,63,46,19,30,8,6,-2,-14,1032,40,7,20141210180000
474,"Qinjian street, Tianjin",,39.166588,117.15104,97,31,16,25,14,7,-2,-14,1032,40,7,20141210180000
475,"Nanjing Road, Tianjin",,39.120958,117.195112,70,40,21,18,10,4,-2,-14,1032,40,7,20141210180000
476,"Dazhigu No.8 road, Tianjin",,39.111811,117.25147,61,33,17,25,8,8,-2,-14,1032,40,7,20141210180000
477,"Qianjin street, Tianjin",,39.09371,117.207981,70,37,32,16,8,5,-2,-14,1032,40,7,20141210180000
478,"Huaihe street, Tianjin",,39.227167,117.191293,76,30,19,13,5,3,-2,-14,1032,40,7,20141210180000
479,"Xiangshan street, Tianjin",,39.134752,117.275125,78,30,25,15,10,9,-2,-14,1032,40,7,20141210180000
480,"Yuejin Road, Tianjin",,39.088177,117.320884,74,49,15,24,14,4,-2,-14,1032,40,7,20141210180000
481,"Zhujiang street, Tianjin",,39.064463,117.231268,-,-,-,-,-,-,-,-,0,-,-,20141210180000
482,"No.4 street, Tianjin",,39.035228,117.713424,55,29,22,5,14,12,-2,-14,1032,40,7,20141210180000
483,"Yongming road, Tianjin",,38.840392,117.463805,74,26,17,14,16,7,-2,-14,1032,40,7,20141210180000
484,"Xinhua street, Tianjin",,39.138671,117.010083,61,29,14,16,10,4,-2,-14,1032,40,7,20141210180000
485,"Jingu Road, Tianjin",,38.985659,117.381254,72,39,15,17,30,16,-2,-14,1032,40,7,20141210180000
486,"Tanggu Yingkou street, Tianjin",,39.021768,117.656454,46,24,19,8,14,15,-2,-14,1032,40,7,20141210180000
487,"Hexi Yijing road, Tianjin",,39.248392,117.798043,68,22,21,6,14,9,-2,-14,1032,40,7,20141210180000
488,"Jianshe Road, Tianjin",,39.720075,117.310588,70,35,17,10,8,12,-2,-14,1032,40,7,20141210180000
489,"Quanzhou South road, Tianjin",,39.373857,117.050329,65,41,16,16,9,4,-2,-14,1032,40,7,20141210180000
490,"Donghuan road, Tianjin",,40.043144,117.451062,65,35,18,6,16,15,-2,-14,1032,40,7,20141210180000
491,"Tuanpowa, Tianjin",,38.920418,117.16299,76,25,18,14,10,18,-2,-14,1032,40,7,20141210180000
493,"Beiwei No.2 road, Tianjin",,38.943857,116.920624,59,20,14,12,6,11,-2,-14,1032,40,7,20141210180000
494,"Haitai fazhan No.2 road, Tianjin",,39.079608,117.096583,70,51,8,11,14,13,-2,-14,1032,40,7,20141210180000
495,"Hangtian road, Tianjin",,39.152244,117.381309,63,35,23,7,6,16,-2,-14,1032,40,7,20141210180000
496,"Hanbei road, Tianjin",,39.159768,117.770477,63,36,19,6,14,14,-2,-14,1032,40,7,20141210180000
497,"Baobai highway, Tianjin",,39.51757,117.349635,68,20,22,15,14,17,-2,-14,1032,40,7,20141210180000
498,Tianjin,,39.085164,117.207281,70,37,32,16,8,5,-2,-14,1032,40,7,20141210180000
499,"Wolong bridge, Hangzhou",,30.24371,120.132762,89,24,16,15,8,9,6,2,1030,76,4,20141210180000
500,"Hemu primary school, Hangzhou",,30.309669,120.124507,122,30,28,17,9,9,6,2,1030,76,4,20141210180000
501,"Zhejiang Agricultural University, Hangzhou",,30.265601,120.197583,104,30,13,17,7,11,6,2,1030,76,4,20141210180000
502,"Xiasha, Hangzhou",,30.303516,120.352618,134,22,12,17,5,12,6,2,1030,76,4,20141210180000
503,"Yunqi, Hangzhou",,30.178555,120.093142,70,24,19,14,5,9,6,2,1030,76,4,20141210180000
504,"Xixi, Hangzhou",,30.272425,120.068144,74,19,17,29,5,13,6,2,1030,76,4,20141210180000
505,"Chengxiang town, Hangzhou",,30.179493,120.274184,102,27,12,19,6,14,6,2,1030,76,4,20141210180000
506,"Qiandao lake, Hangzhou",,29.638139,119.031092,42,14,27,7,2,6,6,2,1030,76,4,20141210180000
507,"Linping town, Hangzhou",,30.415948,120.305059,122,42,16,16,11,9,6,2,1030,76,4,20141210180000
508,"Fuyang monitoring station, Hangzhou",,30.048419,119.963469,63,27,26,18,5,10,6,2,1029,76,5,20141210180000
509,"No.2 Middle School, Hangzhou",,30.044303,119.956356,59,52,16,12,4,9,6,2,1030,76,4,20141210180000
510,"City Hall, Hangzhou",,30.234185,119.723503,63,26,81,11,6,8,6,2,1029,76,5,20141210180000
511,"No. 4 middle school, Hangzhou",,30.229428,119.699591,68,28,2,24,6,9,6,2,1030,76,4,20141210180000
512,Hangzhou,,30.271756,120.159765,102,21,15,20,4,11,6,2,1030,76,4,20141210180000
513,"City Station, Wenzhou",,28.009715,120.679129,154,66,22,22,7,5,9,8,0,88,3,20141210180000
514,"Ouhai, Wenzhou",,28.001846,120.641982,159,56,17,14,6,7,9,8,0,89,3,20141210180000
515,"Longwan, Wenzhou",,27.968122,120.768393,137,65,18,19,7,9,9,8,0,88,3,20141210180000
516,"Nanpu, Wenzhou",,27.981763,120.683685,151,63,18,14,16,10,9,8,0,88,3,20141210180000
517,Wenzhou,,27.990985,120.703425,144,57,18,14,14,10,9,8,0,89,3,20141210180000
518,"Monitoring station, Jiaxing",,30.75437,120.767373,151,57,18,26,12,10,6,5,1027,93,6,20141210180000
519,"Jiaxing University, Jiaxing",,30.745099,120.735004,156,56,18,27,5,12,6,4,1028,87,6,20141210180000
520,"Qinghe Primary School, Jiaxing",,30.775685,120.747969,159,53,15,25,9,10,6,4,1028,87,6,20141210180000
521,Jiaxing,,30.751627,120.762862,151,57,18,26,12,10,6,5,1027,93,6,20141210180000
522,"Chengbei water plant, Huzhou",,30.891155,120.096593,160,54,7,21,4,11,6,4,1028,87,6,20141210180000
523,"Jishan new village, Huzhou",,30.859939,120.120168,166,51,72,24,4,12,6,4,1028,87,6,20141210180000
524,"Town west water plant, Huzhou",,30.862371,120.084577,163,63,8,22,4,11,6,4,1028,87,6,20141210180000
525,Huzhou,,30.892304,120.091694,160,54,7,21,4,11,6,4,1028,87,6,20141210180000
526,"Donghu middle school, Shaoxing",,29.990447,120.647547,102,48,10,24,10,7,6,2,1030,76,4,20141210180000
527,"City EPA station, Shaoxing",,30.001695,120.584318,114,56,13,21,9,7,6,2,1030,76,4,20141210180000
528,"Chengdong BDA committee, Shaoxing",,29.986643,120.613578,99,40,13,19,9,9,6,2,1030,76,4,20141210180000
529,"Paojiang station, Shaoxing",,30.07574,120.62154,99,45,19,20,14,10,6,2,1030,76,4,20141210180000
530,"Shaoxing technical school, Shaoxing",,29.930983,120.577131,87,78,3,22,9,10,6,2,1030,76,4,20141210180000
531,"Library, Shaoxing",,29.706266,120.253183,114,34,3,13,1,22,6,2,1029,76,5,20141210180000
532,"Transporation management station, Shaoxing",,29.726405,120.221602,122,40,9,23,5,23,6,2,1030,76,4,20141210180000
533,"Dongpu Town Governement, Shaoxing",,30.049601,120.539893,-,-,-,-,-,-,-,-,0,-,-,20141210180000
534,Shaoxing,,29.993122,120.590182,114,56,13,21,9,7,-,-,0,-,-,20141210180000
535,"City Monitoring Station, Jinhua",,29.100031,119.690373,72,27,9,22,9,13,7,6,0,89,2,20141210180000
536,"No.15 middle school, Jinhua",,29.074022,119.652121,70,30,12,22,7,12,7,6,0,89,2,20141210180000
537,"No.4 middle school, Jinhua",,29.110109,119.653654,-,-,-,-,-,-,-,-,0,-,-,20141210180000
538,"Beiyuan, Jinhua",,29.332898,120.083351,109,54,7,18,4,5,7,6,0,89,2,20141210180000
539,"Jiangdong, Jinhua",,29.302486,120.095291,147,54,8,16,10,10,7,6,0,90,2,20141210180000
540,Jinhua,,29.076083,119.65215,70,30,12,22,7,12,7,6,0,89,2,20141210180000
541,"EPA building, Quzhou",,28.937291,118.876081,76,40,16,13,8,13,9,8,1027,96,3,20141210180000
542,"Experimental school, Quzhou",,28.961502,118.880916,87,39,28,19,7,8,8,8,1028,98,4,20141210180000
543,"Quzhou University, Quzhou",,28.971452,118.860052,82,40,19,11,4,17,9,8,1027,96,3,20141210180000
544,Quzhou,,28.966994,118.864252,82,40,19,11,4,17,9,8,1027,96,3,20141210180000
545,"Putuo east port, Zhoushan",,29.951412,122.317679,93,42,32,10,4,10,7,5,1028,87,5,20141210180000
546,"Dinghai tanfeng, Zhoushan",,30.018014,122.126566,89,41,25,12,4,7,7,5,1028,87,5,20141210180000
547,Zhoushan,,29.983049,122.210763,95,44,27,14,3,9,7,5,1028,87,5,20141210180000
548,"Taizhou EPA building, Taizhou",,28.651216,121.42331,171,84,19,14,5,5,8,6,0,89,3,20141210180000
549,"Luqiao Tian Yang Wang, Taizhou",,28.574364,121.381194,164,73,12,17,5,8,8,6,0,89,3,20141210180000
550,"Huangyan EPA building, Taizhou",,28.656151,121.285064,156,76,15,19,7,8,8,6,0,89,3,20141210180000
551,"Yu Zhuang Qian, Lishui",,28.419638,119.883884,178,62,22,36,22,8,11,8,1026,75,0,20141210180000
552,"Monitoring station building, Lishui",,28.444379,119.923103,158,62,15,20,7,9,11,8,1026,75,0,20141210180000
553,"Liandu primary school, Lishui",,28.450912,119.939332,164,77,21,24,6,8,11,8,1026,75,0,20141210180000
554,Lishui,,28.464224,119.927201,158,62,15,20,7,9,11,8,1026,75,0,20141210180000
1248,Jingningxian,,27.977454,119.634837,162,77,6,15,7,8,,,,,,20141210180000
555,Taigu Primary School,,29.864178,121.60022,109,42,3,17,7,10,7,5,1028,87,5,20141210180000
556,Qianhu shuihan,,29.862459,121.5328,139,61,3,17,8,14,7,5,1028,87,5,20141210180000
557,Sanjiang secondary schools,,29.891563,121.568427,109,50,3,27,8,15,7,5,1028,87,5,20141210180000
558,Longsai Hospital,,29.957301,121.726734,132,49,2,24,13,15,7,5,1028,87,5,20141210180000
559,Beilun District EPB,,29.911633,121.850773,147,57,2,22,8,11,7,5,1028,87,5,20141210180000
561,Qianhu water plant,,29.774416,121.648136,99,53,4,19,8,11,7,5,1028,87,5,20141210180000
562,Municipal management station,,29.899182,121.626691,119,63,3,14,8,16,7,5,1028,87,5,20141210180000
1177,Daxie Literary Museum,,29.9027,121.986447,99,37,5,17,8,10,7,5,1028,87,5,20141210180000
1178,Cixi EPB,,30.165807,121.248991,149,51,4,23,8,10,7,5,1028,87,5,20141210180000
1179,Cixi Experimently Primary School,,30.179808,121.268672,152,51,4,19,8,12,7,5,1028,87,5,20141210180000
1180,"Yongsan Park, Yuyao",,30.050842,121.162477,151,49,3,27,6,17,7,5,1028,87,5,20141210180000
1181,"Qilupu Water Company, Yuyao",,30.039112,121.133416,127,47,5,19,9,10,7,5,1028,87,5,20141210180000
1182,Fenghua EPB,,29.666557,121.42069,104,43,6,27,7,8,7,5,1028,87,5,20141210180000
1183,"Yuelong station, Ninghai",,29.296505,121.445872,107,48,3,25,8,7,7,5,1028,87,5,20141210180000
1184,"Wenfeng Primary School, Xiangshan",,29.470908,121.889544,147,55,3,24,6,10,7,5,1028,87,5,20141210180000
1185,"Chengnan Primary School, Ninghai",,29.293812,121.43666,122,53,3,26,9,10,7,5,1028,87,5,20141210180000
1186,"Xingang Primary School, Xiangshan",,29.203878,121.952514,139,56,11,22,7,8,7,5,1028,87,5,20141210180000
1356,Haishu City Monitoring Center,,29.86835,121.539341,139,61,3,22,8,14,7,5,1028,87,5,20141210180000
1357,Fenghua Xikou government,,29.693164,121.29331,72,26,9,22,6,8,7,5,1028,87,5,20141210180000
1294,Ningbo,,29.865766,121.548164,119,63,3,14,8,16,7,5,1028,87,5,20141210180000
1187,Fuyang,,30.046157,119.96468,63,26,25,15,6,10,-,-,0,-,-,20141210180000
1188,Yiwu,,29.304353,120.079794,132,54,8,18,10,10,-,-,0,-,-,20141210180000
1189,Zhuji,,29.711185,120.240748,122,40,9,23,5,23,6,2,1030,76,4,20141210180000
563,"Shanxi Road , Nanjing",,32.06795,118.779216,182,123,12,14,16,0,5,3,1030,87,2,20141210180000
564,"Ruijin Road , Nanjing",,32.029321,118.80817,170,102,5,23,14,0,5,3,1030,87,2,20141210180000
565,"Xuanwu Lake, Nanjing",,32.075423,118.800188,168,107,11,19,16,0,5,3,1030,87,2,20141210180000
566,"Olympic Center, Nanjing",,32.007171,118.742217,171,115,9,9,8,0,5,3,1030,87,2,20141210180000
567,"Xianlin University Town , Nanjing",,32.106958,118.919882,177,125,9,25,21,0,5,3,1030,87,2,20141210180000
568,Nanjing,,32.058179,118.802061,171,124,11,18,17,0,5,3,1030,87,2,20141210180000
569,"Shangfang hill , Suzhou",,31.24502,120.565211,155,35,10,14,5,0,7,6,1027,93,5,20141210180000
570,"Wuzhong District , Suzhou",,31.268105,120.61717,162,35,10,24,7,0,6,5,1028,93,6,20141210180000
571,"Suzhou New District , Suzhou",,31.297277,120.547262,164,52,6,24,14,0,6,5,1028,93,6,20141210180000
572,"Suzhou Industrial Area, Suzhou",,31.307603,120.673257,157,54,8,24,8,0,6,5,1028,93,6,20141210180000
573,"Xiangcheng district, Suzhou",,31.368674,120.645209,151,51,7,26,12,0,6,5,1028,93,6,20141210180000
574,Suzhou,,31.296701,120.589493,164,55,10,26,14,0,6,5,1028,93,7,20141210180000
575,"South suburb , Nantong",,31.957836,120.917218,181,74,18,17,9,0,6,3,0,81,5,20141210180000
576,"Xinghu park, Nantong",,31.927873,120.944254,172,85,27,21,9,0,6,3,0,81,5,20141210180000
577,"Zilang school, Nantong",,32.039638,120.814358,177,84,27,21,11,0,6,3,0,81,5,20141210180000
578,Nantong,,31.978005,120.898555,182,86,27,21,15,0,6,3,0,81,5,20141210180000
579,Lianyungang,,34.595509,119.226814,152,84,21,27,10,7,8,8,1016,96,0,20141210180000
580,"Hongmen police substation, Lianyungang",,34.588692,119.146693,188,111,14,18,18,0,2,-1,1030,70,2,20141210180000
581,"Xugou Nuclear Expert Village , Lianyungang",,34.749957,119.373707,187,155,28,17,22,0,2,-1,1030,70,2,20141210180000
582,"Hengrui pharmaceutical company, BDA, Lianyungang",,34.697574,119.353668,184,119,29,31,16,0,2,-1,1030,70,2,20141210180000
583,"City Monitoring Station, Lianyungang",,34.586791,119.186929,183,114,18,28,22,0,2,-1,1030,70,2,20141210180000
584,"Yellow river new village , Xuzhou",,34.271542,117.177241,168,147,10,28,43,0,4,-4,1032,46,1,20141210180000
585,"Tongshan Veterinary Hospital , Xuzhou",,34.307086,117.197766,164,140,12,29,35,0,4,-4,1032,46,1,20141210180000
586,"New Town , Xuzhou",,34.213992,117.261718,164,145,12,31,31,0,4,-4,1032,46,1,20141210180000
587,"Taoyuan road, Xuzhou",,34.289822,117.249721,170,160,12,14,50,0,4,-4,1032,46,1,20141210180000
588,"Agricultural Science Academy , Xuzhou",,34.27655,117.299079,165,148,6,33,49,0,4,-4,1032,46,1,20141210180000
589,"Tongshan EPA, Xuzhou",,34.179384,117.171798,160,139,14,22,35,0,4,-4,1032,46,1,20141210180000
590,Xuzhou,,34.20346,117.289825,170,160,14,33,50,0,4,-4,1032,46,1,20141210180000
591,Yangzhou,,32.39233,119.418446,159,69,10,19,10,5,11,9,0,90,6,20141210180000
592,"Hanjiang Monitoring Station, Yangzhou",,32.374218,119.394484,169,78,16,5,5,0,4,0,0,73,4,20141210180000
593,"No. 4 Hospital, Yangzhou",,32.401394,119.44444,173,85,19,12,9,0,4,0,0,73,4,20141210180000
594,"City Monitoring Station, Yangzhou",,32.406588,119.41591,82,80,16,10,20,0,4,0,0,73,4,20141210180000
595,"University Town , Wuxi",,31.484752,120.273571,166,73,13,12,5,0,6,4,1028,87,6,20141210180000
596,"Shibei High School , Wuxi",,31.619969,120.279584,174,77,9,19,15,0,6,4,1028,87,6,20141210180000
597,"Yuhong Elementary School , Wuxi",,31.561155,120.249588,168,76,9,17,14,0,6,4,1028,87,6,20141210180000
598,Wuxi,,31.488746,120.31575,192,104,13,19,15,0,6,4,1028,87,6,20141210180000
599,Changzhou,,31.808037,119.979205,172,86,6,22,36,13,11,9,0,88,5,20141210180000
600,"Chengjian School, Changzhou",,31.776476,119.937681,137,49,8,15,4,0,6,2,0,77,5,20141210180000
601,"Changzhou Engineering Institute , Changzhou",,31.806828,119.966724,165,66,11,14,9,0,6,2,0,77,5,20141210180000
602,"Wujin Monitoring Station, Changzhou",,31.701788,119.939676,161,61,18,12,5,0,6,2,0,77,5,20141210180000
603,"City Monitoring Station, Changzhou",,31.777201,119.979426,170,68,7,17,7,0,6,2,0,77,5,20141210180000
604,Zhenjiang,,32.18597,119.431281,170,79,4,39,15,13,9,8,0,93,5,20141210180000
605,"New District Administrative office , Zhenjiang",,32.186174,119.685021,174,83,13,15,6,0,5,3,1030,87,2,20141210180000
606,"Vocational Education Center , Zhenjiang",,32.212973,119.496253,165,80,22,17,9,0,5,3,1030,87,2,20141210180000
607,"Dantu Monitoring Station , Zhenjiang",,32.130026,119.435432,168,85,13,8,8,0,5,3,1030,87,2,20141210180000
608,"City Monitoring Station, Zhenjiang",,32.202178,119.439766,168,80,19,13,9,0,5,3,1030,87,2,20141210180000
609,"Gaogang Adminstrative office , Taizhoushi",,32.300768,119.886757,172,86,15,9,14,0,4,0,0,73,4,20141210180000
610,"Students Innovation Park , Taizhoushi",,32.461672,119.892761,180,94,19,10,21,0,4,0,0,73,4,20141210180000
611,Taizhoushi,,32.453555,119.927852,206,102,19,18,21,0,4,0,0,73,4,20141210190000
612,"Yancheng power station , Yancheng",,33.400859,120.123067,200,111,21,21,17,0,,,0,,,20141210190000
613,Yancheng,,33.345939,120.168504,144,52,30,5,3,7,11,10,1016,95,4,20141210190000
614,"Wenfeng Middle School , Yancheng",,33.370531,120.134041,193,110,17,26,22,0,,,0,,,20141210190000
615,"BDA Management Committe, Yancheng",,33.393191,120.22978,167,89,19,22,19,0,,,0,,,20141210190000
616,"City Monitoring Station, Yancheng",,33.390623,120.164423,201,108,20,17,26,0,,,0,,,20141210190000
617,Suqian,,33.960666,118.281004,160,87,24,7,5,7,11,10,0,91,6,20141210190000
618,"Suqian College , Suqian",,33.951472,118.298523,168,116,19,25,31,0,1,-5,0,60,4,20141210190000
619,"Suqian Middle School , Suqian",,33.95784,118.249505,174,156,14,34,23,0,1,-5,0,60,4,20141210190000
620,"Suyu District Environmental Protection Agency , Suqian",,33.94932,118.326569,190,109,21,20,32,0,1,-5,0,60,4,20141210190000
621,"City Monitoring Station, Suqian",,33.956982,118.277022,172,104,11,19,25,0,1,-5,0,60,4,20141210190000
622,Taizhou,,28.653436,121.425185,171,84,19,14,5,5,8,6,0,89,3,20141210190000
623,Donghu Liyuan,,30.572324,114.377844,167,65,1,23,6,10,5,4,1032,93,1,20141210190000
624,Yuehu Lake,,30.554662,114.256937,174,66,1,24,7,7,5,4,1032,93,1,20141210190000
625,Hankou Huaqiao ,,30.61724,114.287652,169,63,3,24,14,11,5,4,1032,93,1,20141210190000
626,Wuchang Ziyang ,,30.530801,114.309438,168,67,3,27,13,8,5,4,1032,93,1,20141210190000
627,Qingshan Ganghua,,30.622435,114.375599,173,64,2,22,11,10,5,4,1032,93,1,20141210190000
628,Dunkou Xinou,,30.480091,114.162176,171,61,3,18,8,10,5,4,1032,93,1,20141210190000
629,Donghu Gaoxin,,30.48095,114.40724,164,63,5,22,7,9,5,4,1032,93,1,20141210190000
630,Wujianshan,,30.63114,114.135907,174,65,3,18,9,15,5,4,1032,93,1,20141210190000
631,Yuanshun Road,,30.297142,113.858587,154,55,14,6,5,6,5,4,1032,93,1,20141210190000
632,Wuhan,,30.590689,114.310838,166,70,4,22,13,10,5,4,1032,93,1,20141210190000
1190,"Silingsan Factory, Yichang",,30.713288,111.306585,179,82,4,21,13,10,5,4,1032,93,1,20141210190000
1190,"Silingsan Factory, Yichang",,30.713288,111.306585,179,82,4,21,13,10,5,4,1032,93,1,20141210190000
633,Yichang,,30.689528,111.292131,202,136,11,21,18,13,5,4,1032,93,1,20141210190000
1191,"City Library , Jingzhou",,30.31494,112.260844,166,72,17,18,15,10,6,4,1031,83,1,20141210190000
1191,"City Library , Jingzhou",,30.31494,112.260844,166,72,17,18,15,10,6,4,1031,83,1,20141210190000
1192,"City committee communist party school, Jingzhou",,30.349004,112.212531,165,89,19,15,17,20,6,4,1031,83,1,20141210190000
1192,"City committee communist party school, Jingzhou",,30.35054,112.20743,165,89,19,15,17,20,6,4,1031,83,1,20141210190000
1193,"kerong EPA, Jingzhou",,30.302965,112.29443,168,81,21,21,20,12,6,4,1031,83,1,20141210190000
1193,"kerong EPA, Jingzhou",,30.302965,112.29443,168,81,21,21,20,12,6,4,1031,83,1,20141210190000
634,Jingzhou,,30.332608,112.245451,168,81,21,21,20,18,6,4,1031,83,3,20141210190000
634,Jingzhou,,30.332608,112.245451,168,81,21,21,20,18,6,4,1031,83,3,20141210190000
635,Huangshi,,30.19723,115.043908,165,90,4,21,15,13,5,,1034,100,1,20141210190000
635,Huangshi,,30.19723,115.043908,165,90,4,21,15,13,5,,1034,100,1,20141210190000
1194,"Chenjiaying, Huangshi",,30.232823,115.067923,165,91,4,21,18,11,5,,1034,100,1,20141210190000
1195,"Chenjiawan , Huangshi",,30.200422,115.082138,168,101,4,23,18,15,5,,1034,100,1,20141210190000
1196,"Xinxialu, Huangshi",,30.17332,114.954357,164,93,11,20,27,17,5,,1034,100,1,20141210190000
1197,"Tie montian, Huangshi",,30.203885,114.906439,164,77,3,17,1,11,5,,1034,100,1,20141210190000
1198,"BDA, Huangshi",,30.207491,115.031739,167,88,5,21,11,11,5,,1034,100,1,20141210190000
636,Shiyan,,32.627208,110.803311,127,71,11,14,14,5,-4,,963,84,1,20141210190000
636,Shiyan,,32.627208,110.803311,127,71,11,14,14,5,-4,,963,84,1,20141210190000
1199,"Wudang Mountain , Shiyan",,32.392921,111.047655,78,53,21,3,6,4,-4,,963,84,1,20141210190000
1200,"Riverside Village , Shiyan",,32.647286,110.785335,124,68,10,21,17,7,-4,,963,84,1,20141210190000
1201,"Liujiagou , Shiyan",,32.636732,110.731129,124,71,10,12,14,2,-4,,963,84,1,20141210190000
637,Xiangyang,,32.007029,112.128496,89,79,12,13,11,7,0,,1036,82,3,20141210190000
637,Xiangyang,,32.007029,112.128496,89,79,12,13,11,7,0,,1036,82,3,20141210190000
638,Ezhou,,30.389244,114.899884,169,93,4,24,10,14,5,,1042,100,7,20141210190000
638,Ezhou,,30.389244,114.899884,169,93,4,24,10,14,5,,1042,100,7,20141210190000
1203,"City government, Ezhou",,30.391836,114.892822,162,80,3,26,13,16,5,,1042,100,7,20141210190000
1204,"Zhaojiaba, Ezhou",,30.368966,114.90365,173,100,5,24,11,16,5,,1042,100,7,20141210190000
1205,"Fankou BDA, Ezhou",,30.410759,114.818225,173,98,5,22,6,10,5,,1041,100,6,20141210190000
639,Jingmen,,31.033208,112.205093,187,110,2,22,18,15,3,,1027,58,3,20141210190000
639,Jingmen,,31.033208,112.205093,187,110,2,22,18,15,3,,1027,58,3,20141210190000
1372,"Zhuyuan primary school, Jingmen",,31.046123,112.207214,165,93,1,19,6,15,3,,1027,58,3,20141210190000
1373,"City government, Jingmen",,31.035297,112.198897,189,116,3,25,12,10,3,,1027,58,3,20141210190000
640,Xiaogan,,30.922089,113.922387,161,91,5,12,7,9,5,,1032,93,1,20141210190000
640,Xiaogan,,30.922089,113.922387,161,91,5,12,7,9,5,,1032,93,1,20141210190000
1206,"wenhua street, Shenyang , Xiaogan",,30.925856,113.92104,163,83,3,11,8,9,5,,1032,93,1,20141210190000
1207,"Dongcheng District , Huludao , Xiaogan",,30.917963,113.943904,160,100,7,13,6,9,5,,1032,93,1,20141210190000
641,Huanggang,,30.45124,114.877378,164,87,5,22,7,23,5,,1042,100,7,20141210190000
641,Huanggang,,30.45124,114.877378,164,87,5,22,7,23,5,,1042,100,7,20141210190000
1208,"Dazhou Island, Huanggang",,30.446205,114.900323,166,94,5,22,1,23,5,,1042,100,7,20141210190000
1209,"Workers Center , Huanggang",,30.469244,114.912504,163,80,6,21,12,22,5,,1042,100,7,20141210190000
642,Xianning,,29.838978,114.327898,151,73,5,13,9,12,-0,,1003,84,2,20141210190000
642,Xianning,,29.838978,114.327898,151,73,5,13,9,12,-0,,1003,84,2,20141210190000
1210,"Municipal Development and Reform Commission , Xianning",,29.818645,114.328461,142,74,3,14,4,10,-0,,1003,84,2,20141210190000
1211,"Xianan District Governement, Xianning",,29.51107,114.181864,154,72,4,17,17,13,3,,1012,79,1,20141210190000
1212,"Yangtze River Industrial Park , Xianning",,29.883098,114.32909,149,77,5,13,11,16,-0,,1003,84,2,20141210190000
1213,"Qianshan Park, Xianning",,29.815351,114.328689,149,69,9,9,7,10,-0,,1003,84,2,20141210190000
643,Suizhou,,31.688342,113.388675,99,74,16,9,11,17,1,,1028,50,4,20141210190000
643,Suizhou,,31.688342,113.388675,99,74,16,9,11,17,1,,1028,50,4,20141210190000
1338,"City committee communist party school, Suizhou",,31.725316,113.3648,109,77,17,9,14,17,1,,1028,50,4,20141210190000
1339,"Forestry Bureau, Suizhou",,31.690065,113.383157,95,74,19,6,13,26,1,,1028,50,4,20141210190000
644,Enshi,,30.292138,109.484562,154,61,3,12,8,10,1,,,97,1,20141210190000
644,Enshi,,30.269587,109.493042,154,61,3,12,8,10,1,,,97,1,20141210190000
1374,"State Power Company, Enshi",,30.296275,109.508711,155,65,3,9,9,9,0,,,92,1,20141210190000
645,Xiantao,,30.360228,113.460616,147,49,4,20,21,10,3,,1043,71,4,20141210190000
645,Xiantao,,30.360228,113.460616,147,49,4,20,21,10,3,,1043,71,4,20141210190000
646,Qianjiang,,30.399387,112.905661,163,78,4,19,-,10,3,,1042,67,2,20141210190000
646,Qianjiang,,30.399387,112.905661,163,78,4,19,-,10,3,,1042,67,2,20141210190000
1088,Shennongjia,,31.741307,110.685554,87,52,29,5,3,3,-8,,,73,1,20141210190000
1088,Shennongjia,,31.741307,110.685554,87,52,29,5,3,3,-8,,,73,1,20141210190000
1214,"Xiangcheng Yundong Street, Xiangfan",,32.017716,112.16102,93,78,12,13,10,5,-0,,1035,55,3,20141210190000
1359,"Fancheng Xinhua Road , Xiangfan",,32.0544,112.145224,85,79,13,13,12,9,-0,,1035,55,3,20141210190000
655,"City Environmental Monitoring Station, Baotou",,40.657201,109.886738,157,89,23,28,16,14,,,0,,,20141210190000
656,"Donghe EPB, Baotou",,40.586213,110.002224,97,83,20,24,16,15,,,0,,,20141210190000
657,"Baotou shopping mall, Baotou",,40.508334,109.819085,158,79,23,26,42,18,,,0,,,20141210190000
658,"Huilong logistics, Baotou",,40.633436,109.879821,161,94,27,31,25,18,,,0,,,20141210190000
659,Baotou,,40.658597,109.846051,161,96,29,31,42,18,,,0,,,20141210190000
660,"Huatai Automobile Mall, Eerduosi",,39.837048,109.972209,59,40,32,12,3,4,-11,-24,1040,20,1,20141210190000
661,"Olympus Garden, Eerduosi",,39.789171,109.987742,42,36,21,15,5,5,-11,-24,1040,20,1,20141210190000
662,Eerduosi,,39.609284,109.78704,76,40,32,15,8,8,-11,-24,1040,20,1,20141210190000
663,"Tianyi Road, Chifeng",,42.275552,118.88507,21,10,21,2,8,10,-11,-21,1032,27,6,20141210190000
664,"Songshan No.1 Middle School, Chifeng",,42.329307,118.793045,59,31,14,16,41,7,-11,-21,1032,27,6,20141210190000
665,"Hada Street, Chifeng",,42.280714,118.988235,46,30,19,9,68,10,-11,-21,1032,27,6,20141210190000
666,"Songshan Road, Chifeng",,42.171487,118.89501,46,13,19,1,8,2,-11,-21,1032,27,6,20141210190000
667,Chifeng,,42.259752,118.893027,59,31,21,16,68,10,-11,-21,1032,27,6,20141210190000
674,Fuzhou,,26.071406,119.301294,102,63,23,21,1,10,16,13,1021,82,5,20141210190000
675,"Xidong, Xiamen",,24.815345,118.161848,74,24,21,8,2,3,18,15,1019,83,3,20141210190000
676,"Hongwen, Xiamen",,24.473969,118.156281,104,81,26,31,13,6,18,15,1019,83,3,20141210190000
677,"Gulangyu, Xiamen",,24.443168,118.068571,132,59,26,28,15,7,18,15,1019,83,3,20141210190000
678,"Huli, Xiamen",,24.51235,118.099146,151,75,21,37,20,6,18,15,1019,83,3,20141210190000
679,Xiamen,,24.477187,118.094402,151,75,21,37,20,6,18,15,1019,83,3,20141210190000
680,"Qingyuan Montain, Quanzhou",,24.939503,118.598337,68,28,24,9,3,6,18,15,1019,83,3,20141210190000
681,"Tushan Street, Quanzhou",,24.90867,118.586397,82,40,27,14,3,7,18,15,1019,83,3,20141210190000
682,"Wanan, Quanzhou",,24.304154,118.070903,82,43,22,21,5,7,18,15,1019,83,3,20141210190000
683,Quanzhou,,24.87179,118.68001,91,51,27,22,5,7,18,15,1019,83,3,20141210190000
687,"Jiancaoping, Taiyuan",,37.887889,112.528383,59,58,25,4,4,9,-8,-20,1031,38,1,20141210190000
688,"Jianhe, Taiyuan",,37.910779,112.579258,76,65,16,7,12,26,-8,-20,1031,38,1,20141210190000
689,"Shanglan, Taiyuan",,38.011589,112.440679,42,58,14,6,8,8,-8,-20,1031,38,1,20141210190000
690,"Jinyuan, Taiyuan",,37.713164,112.475552,91,67,26,12,26,5,-8,-20,1031,38,1,20141210190000
691,"Xiaodian, Taiyuan",,37.782137,112.483533,82,61,7,12,15,13,-8,-20,1031,38,1,20141210190000
692,"Taoyuan, Taiyuan",,37.869752,112.543332,57,53,16,6,7,21,-8,-20,1031,38,1,20141210190000
693,"Wucheng, Taiyuan",,37.819998,112.576252,144,82,12,8,50,9,-8,-20,1031,38,1,20141210190000
694,"Nanzhai, Taiyuan",,37.985902,112.555312,158,124,19,13,42,9,-8,-20,1031,38,1,20141210190000
695,"Jinsheng, Taiyuan",,37.781205,112.494494,80,71,23,9,24,14,-8,-20,1031,38,1,20141210190000
696,Taiyuan,,37.871115,112.555178,57,53,16,6,7,21,-8,-20,1031,38,1,20141210190000
697,"Monitoring station, Changzhi",,36.194062,113.10389,114,59,23,12,5,14,,,0,,,20141210190000
698,"Auditing bureau, Changzhi",,36.212787,113.095221,119,50,35,35,5,14,,,0,,,20141210190000
699,"Qinghua station, Changzhi",,36.154328,113.116385,80,50,16,20,6,13,,,0,,,20141210190000
700,"No.8 middle school, Changzhi",,36.185451,113.099481,93,50,38,19,6,9,,,0,,,20141210190000
701,Changzhi,,36.195553,113.12292,119,66,38,35,31,18,,,0,,,20141210190000
702,"Yungang Hotel, Datong",,40.076997,113.278079,63,54,35,9,26,20,-10,-20,1038,27,3,20141210190000
703,"college of education, Datong",,40.085608,113.27808,134,66,21,6,36,14,-10,-20,1038,27,3,20141210190000
704,Datong,,40.078016,113.307143,134,77,35,14,36,21,-10,-20,1038,27,3,20141210190000
705,"Technical Schools, Linfen",,36.07131,111.509046,91,52,16,8,42,21,-7,-25,0,23,3,20141210190000
706,"Municipal party committee, Linfen",,36.087425,111.508771,70,33,36,8,34,14,-7,-25,0,23,3,20141210190000
1073,"City Monitoring Station, Linfen",,36.097676,111.518739,114,34,17,18,47,15,-7,-25,0,23,3,20141210190000
707,"South Airport, Linfen",,36.041614,111.497968,61,22,21,13,37,8,-7,-25,0,23,3,20141210190000
708,Linfen,,36.087944,111.525098,114,52,36,18,51,22,-7,-25,0,23,3,20141210190000
709,"City center, Yangquan",,37.848012,113.578636,89,151,19,5,7,5,-8,-20,1031,38,1,20141210190000
710,Yangquan,,37.857475,113.586921,89,77,28,40,57,11,-8,-20,1031,38,1,20141210190000
711,"Water Company, Jincheng",,35.504787,112.857245,85,56,9,9,0,9,1,-20,1034,9,3,20141210190000
712,"Baiyun shopping mall, Jincheng",,35.492858,112.841566,63,42,12,3,8,12,1,-20,1034,9,3,20141210190000
713,"City EPA, Jincheng",,35.488422,112.858528,63,50,10,7,0,5,-1,-19,1036,12,2,20141210190000
714,"Institute of Technology, Jincheng",,35.484844,112.878073,74,52,22,6,22,2,1,-20,1034,9,3,20141210190000
715,"No.1 middle school, Jincheng",,35.478725,112.838636,61,41,13,6,10,2,1,-20,1034,9,3,20141210190000
716,Jincheng,,35.490287,112.85794,85,56,22,6,22,12,1,-20,1034,9,3,20141210190000
718,"District Government, Shuozhou",,39.320857,112.430641,154,-,4,6,50,9,-6,-23,1037,13,2,20141210190000
719,"City EPA, Shuozhou",,39.331495,112.407997,,79,,23,59,,-6,-23,1037,13,2,20141210190000
720,"No.2 middle school, Shuozhou",,39.377963,112.432877,93,53,17,23,51,5,-6,-23,1037,13,2,20141210190000
721,Shuozhou,,39.332756,112.439672,154,83,17,23,55,12,-6,-23,1037,13,2,20141210190000
722,"Jinlun compound, Jinzhong",,37.697891,112.771017,-,69,7,-,-,12,-8,-20,1031,38,1,20141210190000
723,"Hydraulic Component Factory, Jinzhong",,37.688355,112.725844,-,71,13,25,-,15,-8,-20,1031,38,1,20141210190000
724,"Nandu compound, Jinzhong",,37.713148,112.732036,82,73,6,7,23,14,-8,-20,1031,38,1,20141210190000
725,"Yuci district government, Jinzhong",,37.698228,112.714167,-,50,7,-,-,16,-8,-20,1031,38,1,20141210190000
726,Jinzhong,,37.687705,112.759187,82,73,13,25,23,15,-8,-20,1031,38,1,20141210190000
727,"Yuncheng Middle School, Yuncheng",,35.012345,111.003215,139,89,14,8,14,16,0,-8,1037,42,2,20141210190000
728,"Yudou BDA, Yuncheng",,35.05065,111.029571,152,93,19,12,35,18,0,-8,1037,42,2,20141210190000
729,"Yuncheng college, Yuncheng",,35.038753,111.051992,154,,11,,,15,0,-8,1037,42,2,20141210190000
730,"Regional Technical School, Yuncheng",,35.028727,110.974076,173,91,8,24,7,19,0,-8,1037,42,2,20141210190000
731,"Airport new district, Yuncheng",,35.084515,111.05339,127,69,24,7,19,22,0,-8,1037,42,2,20141210190000
732,Yuncheng,,35.025675,111.013344,173,91,24,24,19,22,0,-8,1037,42,2,20141210190000
733,"Jiyin, Xinzhou",,38.413292,112.742432,170,100,16,28,57,15,-8,-20,1031,38,1,20141210190000
734,"BDA, Xinzhou",,38.450069,112.736723,102,70,7,13,7,11,-8,-20,1031,38,1,20141210190000
735,"Convention Center, Xinzhou",,38.492043,112.709772,168,94,12,14,26,51,-8,-20,1031,38,1,20141210190000
736,Xinzhou,,38.417244,112.740742,170,100,16,28,57,51,-8,-20,1031,38,1,20141210190000
737,"City EPA, Luliang",,37.522189,111.144365,152,60,13,9,25,26,-6,-18,1040,25,2,20141210190000
738,"Soybean factory, Luliang",,37.51689,111.135101,-,81,10,10,-,30,-6,-18,1040,25,2,20141210190000
739,"Water Company, Luliang",,37.53394,111.138834,154,112,11,18,57,24,-6,-18,1040,25,2,20141210190000
740,Luliang,,37.519091,111.150681,154,112,11,18,57,30,-6,-18,1040,25,2,20141210190000
741,"City government, Sanmenxia",,34.776251,111.198781,61,62,22,25,31,30,0,-8,1037,42,2,20141210190000
743,"BDA, Sanmenxia",,34.800434,111.204332,68,61,24,22,13,7,0,-8,1037,42,2,20141210190000
744,Sanmenxia,,34.771506,111.206129,70,62,24,27,32,30,0,-8,1037,42,2,20141210190000
745,"Food Factory, Changchun",,43.919094,125.329521,59,62,22,6,11,7,-16,-19,1024,78,3,20141210190000
746,"Bus Factory, Changchun",,43.912337,125.293431,55,42,21,6,4,8,-16,-19,1024,78,3,20141210190000
747,"Institute of Posts and Telecommunications, Changchun",,43.842368,125.285005,59,38,21,11,7,12,-16,-19,1024,78,3,20141210190000
748,"Laodong Park, Changchun",,43.877293,125.371519,63,37,11,11,52,5,-16,-19,1024,78,3,20141210190000
749,"Forest area, Changchun",,43.871825,125.331519,68,36,16,9,18,6,-16,-19,1024,78,3,20141210190000
750,"Jinyuetan, Changchun",,43.79031,125.460561,59,29,29,10,26,7,-16,-19,1024,78,3,20141210190000
751,"Shuaiwanzi, Changchun",,43.552321,125.639086,122,52,25,5,7,9,-16,-19,1024,78,3,20141210190000
752,"Economic Development Zone Sanitation Department, Changchun",,43.869221,125.42365,46,96,17,7,21,7,-16,-19,1024,78,3,20141210190000
753,"High-tech Zone Administrative Committee, Changchun",,43.819064,125.256375,72,37,24,10,11,7,-16,-19,1024,78,3,20141210190000
754,"Daishan Park, Changchun",,43.852365,125.223399,57,27,20,7,5,7,-16,-19,1024,78,3,20141210190000
755,Changchun,,43.819415,125.329977,59,38,21,11,7,12,-16,-19,1024,78,3,20141210190000
756,"Hadawan, Jilin",,43.888081,126.545727,168,104,17,10,29,26,-14,-15,0,94,5,20141210190000
757,"Fengman, Jilin",,43.768169,126.678802,151,60,33,8,12,8,-14,-15,0,94,5,20141210190000
758,"Electric Power College, Jilin",,43.827403,126.502281,104,55,27,7,8,8,-14,-15,0,94,5,20141210190000
759,"Jiangnan Park, Jilin",,43.83531,126.556519,107,50,26,9,14,7,-14,-15,0,94,5,20141210190000
760,"Dongjuzi, Jilin",,43.838597,126.590068,112,54,30,10,11,9,-14,-15,0,94,5,20141210190000
763,Jilin,,43.840137,126.555262,168,104,30,12,29,26,-14,-15,0,94,5,20141210190000
764,"Lingbei, Haerbin",,45.756979,126.548008,68,33,16,7,13,4,-18,-21,1022,78,4,20141210190000
765,"Songbei Commercial University, Haerbin",,45.818624,126.566963,42,27,19,8,16,6,-18,-21,1022,78,4,20141210190000
766,"Acheng huining, Haerbin",,45.544286,126.985183,76,110,46,9,6,5,-18,-21,1022,78,4,20141210190000
767,"Nangang College Street, Haerbin",,45.724121,126.604906,-,-,-,-,-,-,-,-,0,-,-,20141210190000
768,"Taiping Hongwei Park, Haerbin",,45.775332,126.695101,59,80,11,19,48,4,-18,-21,1022,78,4,20141210190000
769,"Daowai Chengde Square, Haerbin",,45.768637,126.640955,87,54,14,23,21,4,-18,-21,1022,78,4,20141210190000
770,"Xiangfang Hongqi Street, Haerbin",,45.733936,126.691083,70,123,12,15,46,7,-18,-21,1022,78,4,20141210190000
771,"Dongli Heping Road, Haerbin",,45.727765,126.651974,87,69,13,17,49,1,-18,-21,1022,78,4,20141210190000
772,"Daoli Jianguo Road, Haerbin",,45.749715,126.59891,63,50,18,17,49,4,-18,-21,1022,78,4,20141210190000
773,"Pingfang Light Factory, Haerbin",,45.611951,126.620898,68,42,16,6,11,8,-18,-21,1022,78,4,20141210190000
774,"Hulan Normal College, Haerbin",,45.983745,126.616553,25,20,17,1,3,2,-18,-21,1022,78,4,20141210190000
775,"Provincial Academy of Agricultural Sciences, Haerbin",,45.686141,126.626517,74,47,10,14,45,4,-18,-21,1022,78,4,20141210190000
776,Haerbin,,45.805757,126.541007,42,27,19,8,16,6,-18,-21,1022,78,4,20141210190000
777,"Anju Compound, Qiqihaer",,47.365672,123.937016,17,14,28,3,4,6,-20,-24,1028,57,1,20141210190000
778,"Farming Vehicule Factory, Qiqihaer",,47.326793,123.961427,55,17,22,5,36,4,-20,-24,1028,57,1,20141210190000
779,"Fuqu EPA, Qiqihaer",,47.1853,123.62322,38,15,27,15,3,6,-20,-24,1028,57,1,20141210190000
780,"City Center Square, Qiqihaer",,47.343096,123.96192,46,17,22,8,37,6,-20,-24,1028,57,1,20141210190000
1217,"City Environmental Monitoring Station, Qiqihaer",,47.303639,123.957551,38,26,16,5,42,5,-20,-24,1028,57,1,20141210190000
781,Qiqihaer,,47.356387,123.924736,55,26,28,15,42,6,-20,-24,1028,57,1,20141210190000
782,"Saertu District, Daqing",,46.582368,125.152904,70,9,26,8,13,2,-16,-19,1022,67,6,20141210190000
783,"Datong District, Daqing",,46.036786,124.842115,57,5,19,1,6,6,-16,-19,1022,67,6,20141210190000
784,"Honggang District, Daqing",,46.418381,124.88973,80,27,26,8,8,3,-16,-19,1022,67,6,20141210190000
785,"Longfeng District, Daqing",,46.535426,125.107043,87,30,23,7,10,4,-16,-19,1022,67,6,20141210190000
786,"Ranghulu District, Daqing",,46.635123,124.85648,30,16,26,6,8,2,-16,-19,1022,67,6,20141210190000
787,Daqing,,46.591414,125.110838,87,30,26,7,10,6,-16,-19,1022,67,6,20141210190000
788,"Locomotive Factory, Mudanjiang",,44.610589,129.652672,215,125,10,6,27,29,-10,-15,1018,51,7,20141210190000
789,"No. 1 hospital, Mudanjiang",,44.567775,129.617043,180,93,4,11,34,24,-10,-15,1018,51,7,20141210190000
1220,"EPA building, Mudanjiang",,44.567777,129.620658,187,85,5,6,21,19,-10,-15,1018,51,7,20141210190000
1221,"Cultural Square, Mudanjiang",,44.586388,129.623164,174,76,2,17,25,22,-10,-15,1018,51,7,20141210190000
790,Mudanjiang,,44.553619,129.640246,215,125,14,17,34,29,-10,-15,1018,51,7,20141210190000
791,"Mingzhu Plaza, Hefei",,31.782847,117.201512,194,97,5,15,21,14,4,2,1031,87,2,20141210190000
792,"Sanli Street, Hefei",,31.874637,117.312573,194,96,8,19,14,12,4,2,1031,87,2,20141210190000
793,"Hupo Compound, Hefei",,31.868583,117.264491,187,98,9,11,19,11,4,2,1031,87,2,20141210190000
794,"Dongpu Reservoir, Hefei",,31.90319,117.165584,182,89,14,9,8,3,4,2,1031,87,2,20141210190000
795,"Changjiang middle road, Hefei",,31.855185,117.255484,192,104,3,8,27,9,4,2,1031,87,2,20141210190000
796,"Luyang District, Hefei",,31.941771,117.271504,190,113,6,1,17,11,4,2,1031,87,2,20141210190000
797,"Yaohai District, Hefei",,31.856595,117.341644,191,102,29,16,18,14,4,2,1031,87,2,20141210190000
798,"Baohe District, Hefei",,31.793644,117.307554,185,55,10,7,13,6,4,2,1031,87,2,20141210190000
799,"Lake district, Hefei",,31.736619,117.283501,175,105,29,16,1,11,4,2,1031,87,2,20141210190000
800,"High-tech zone, Hefei",,31.849755,117.129624,182,85,11,7,8,7,4,2,1031,87,2,20141210190000
802,"Hudong Road No.4 Elementary School, Maanshan",,31.684121,118.511017,127,75,8,22,25,17,5,3,1030,87,2,20141210190000
803,"Tianping Garment Factory, Maanshan",,31.64197,118.488043,142,89,14,26,37,12,5,3,1030,87,2,20141210190000
804,"City education base, Maanshan",,31.711216,118.648913,144,55,9,5,20,9,5,3,1030,87,2,20141210190000
805,"Cihu No.2 elementary school, Maanshan",,31.748546,118.515729,167,87,11,22,36,15,5,3,1030,87,2,20141210190000
806,"Maanshan steel factory power plant, Maanshan",,31.690864,118.48528,163,54,29,15,57,11,5,3,1030,87,2,20141210190000
807,Maanshan,,31.668461,118.511939,167,89,14,26,37,15,5,3,1030,87,2,20141210190000
808,"Science Innovation Center, Wuhu",,31.417056,118.375406,181,66,14,11,4,13,5,3,1030,87,2,20141210190000
809,"No.4 Water Plant, Wuhu",,31.315914,118.376231,159,66,13,20,16,16,5,3,1030,87,2,20141210190000
810,"Monitoring station, Wuhu",,31.348955,118.358154,178,73,6,9,8,12,5,3,1030,87,2,20141210190000
811,"Wuqierling Factory, Wuhu",,31.382068,118.407639,186,85,181,4,29,7,5,3,1030,87,2,20141210190000
812,Wuhu,,31.351007,118.438322,181,79,139,20,29,16,5,3,1030,87,2,20141210190000
1331,Chuzhou,,32.299549,118.322508,162,74,39,12,10,12,5,,1015,93,3,20141210190000
813,"Jiangxi Foreign Affairs Office, Nanchang",,28.678027,115.903436,124,47,9,3,1,6,6,2,1031,64,2,20141210190000
814,"Provincial forestry company, Nanchang",,28.69065,115.898546,124,30,12,1,1,8,6,3,1031,76,2,20141210190000
815,"Institute of Forestry, Nanchang",,28.731518,115.82478,102,28,13,1,3,8,6,3,1031,76,2,20141210190000
816,"Jingdong town government, Nanchang",,28.680659,115.972736,117,20,13,1,1,6,6,3,1031,76,2,20141210190000
817,"Contruction Industry College, Nanchang",,28.684018,115.865891,124,62,12,9,10,9,6,2,1031,64,2,20141210190000
818,"Xianghu, Nanchang",,28.637831,115.9033,102,52,14,12,10,8,6,3,1031,76,2,20141210190000
819,"Martial Arts School, Nanchang",,28.794538,115.752876,61,43,12,9,7,4,6,3,1031,76,2,20141210190000
820,"Petrifaction Company, Nanchang",,28.608634,115.912999,97,35,10,7,1,6,6,2,1031,64,2,20141210190000
821,"Provincial Station, Nanchang",,28.677155,115.941896,102,34,12,1,1,7,6,3,1031,76,2,20141210190000
822,Nanchang,,28.679883,115.863022,124,62,13,9,8,9,6,3,1031,76,2,20141210190000
823,"Lushan Mountain Observatory, Jiujiang",,29.5751,115.998926,57,48,26,16,105,10,-2,-2,1031,100,0,20141210190000
824,"Shili, Jiujiang",,29.668119,115.992381,50,32,7,8,123,8,-2,-2,1031,100,0,20141210190000
825,"Maoshantou, Jiujiang",,29.700819,115.967192,53,36,7,12,128,7,-2,-2,1031,100,0,20141210190000
826,"Xiyuan, Jiujiang",,29.723929,115.998206,38,38,9,13,99,9,-2,-2,1031,100,0,20141210190000
827,"Wuqierling Factory, Jiujiang",,29.640802,116.022713,42,13,19,6,137,10,-2,-2,1031,100,0,20141210190000
828,"Water Scientific Research Institute, Jiujiang",,29.679179,116.068081,42,31,8,12,101,8,-3,-3,1032,100,8,20141210190000
829,"Zonghe Industrial Park, Jiujiang",,29.592047,115.916335,38,28,15,10,98,5,-2,-2,1031,100,0,20141210190000
830,"Petrochemical General Plant, Jiujiang",,29.738832,116.09463,50,43,8,1,8,11,-3,-3,1032,100,8,20141210190000
831,Jiujiang,,29.70254,116.007025,57,48,26,16,137,10,-2,-2,1031,100,0,20141210190000
1332,"Feiyu, Xinyu",,27.844697,115.000136,50,19,5,4,9,,7,,1030,89,5,20141210190000
1333,"Beigang, Xinyu",,27.932491,115.103767,50,21,10,9,21,,7,,1030,89,5,20141210190000
1334,"No.2 water factory, Xinyu",,27.839577,114.933915,50,13,2,9,3,,7,,1030,89,5,20141210190000
1335,"Bureau of Meteorology, Xinyu",,27.81048,114.936507,50,20,3,8,6,,7,,1030,89,5,20141210190000
1336,Xinyu,,27.814351,114.922194,59,21,10,12,21,,7,,1030,89,5,20141210190000
832,"Tobacco Factory, Zhengzhou",,34.753419,113.687131,65,57,25,15,23,2,4,-18,1032,19,6,20141210190000
833,"Textile Machinery Factory, Zhengzhou",,34.773366,113.647067,38,65,64,13,22,19,4,-18,1032,19,6,20141210190000
834,"Banking College, Zhengzhou",,34.800856,113.681126,87,58,21,12,20,5,4,-18,1032,19,6,20141210190000
835,"Water Supply Company, Zhengzhou",,34.807188,113.571089,85,62,34,14,11,18,4,-18,1032,19,6,20141210190000
836,"Economic Development Zone Management Committee, Zhengzhou",,34.717652,113.733182,87,72,27,19,10,3,4,-18,1032,19,6,20141210190000
837,"No. 47 middle school, Zhengzhou",,34.772211,113.74009,68,60,24,16,28,15,4,-18,1032,19,6,20141210190000
838,"City Monitoring Station, Zhengzhou",,34.748404,113.60514,65,64,25,17,21,19,4,-18,1032,19,6,20141210190000
839,"Henan Medical University, Zhengzhou",,34.752637,113.641658,93,62,23,17,18,10,4,-18,1032,19,6,20141210190000
840,"Gangli Reservoir, Zhengzhou",,34.952652,113.64248,68,55,21,12,31,9,4,-18,1032,19,6,20141210190000
841,Zhengzhou,,34.745417,113.631415,93,62,23,17,18,10,4,-18,1032,19,6,20141210190000
842,"Henan University No.1 Hospital, Kaifeng",,34.799302,114.352706,68,50,21,18,15,7,4,-19,1032,17,5,20141210190000
843,"Maternity And Child Hospital, Kaifeng",,34.795803,114.386103,50,55,12,29,27,21,4,-19,1032,17,5,20141210190000
844,"Cancer Hospital, Kaifeng",,34.775428,114.350292,70,51,22,22,25,10,4,-19,1032,17,5,20141210190000
