locationid,stationname,chinesename,latitude,longitude,pm25,pm10,o3,no2,so2,co,temperature,dewpoint,pressure,humidity,wind,est_time
1,Dongcheng Dongsi,,39.9304,116.423239,13,5,18,11,3,6,17,5,1027,45,6,20141011170000
2,"Temple of Heaven, Dongcheng",,39.887403,116.41324,53,103,19,12,5,6,17,5,1027,45,6,20141011170000
3,West Park officials,,39.930333,116.345162,48,-,17,10,4,7,17,5,1027,45,6,20141011170000
4,West Wanshou Nishinomiya,,39.879354,116.358183,21,5,26,9,4,7,17,5,1027,45,6,20141011170000
5,Chaoyang Olympic Sports Center,,39.983406,116.403253,29,-,61,-,-,-,17,5,1027,45,6,20141011170000
6,Chaoyang Agricultural Exhibition Hall,,39.938331,116.46715,38,13,20,13,3,6,17,5,1027,45,6,20141011170000
7,Haidian Wanliu,,39.988245,116.293062,29,5,12,13,4,8,17,5,1027,45,6,20141011170000
8,The Haidian northern New Area,,40.091313,116.180194,-,-,-,-,-,-,-,-,0,-,-,20141011170000
9,Haidian Beijing Botanical Garden,,40.003252,116.213097,26,-,8,32,4,17,17,5,1027,45,6,20141011170000
10,Fengtai garden,,39.86423,116.285037,29,-,27,2,2,7,17,5,1027,45,6,20141011170000
11,Fengtai Yungang,,39.82535,116.152237,20,-,20,34,4,17,17,5,1027,45,6,20141011170000
12,Shijingshan city,,39.915286,116.190144,25,174,24,5,2,7,17,5,1027,45,6,20141011170000
13,"Fangshan, Liangxiang",,39.743357,116.14225,26,-,23,3,2,8,17,5,1027,45,6,20141011170000
14,"Huangcunzhen, Daxing",,39.719389,116.410219,43,-,22,7,3,7,17,5,1027,45,6,20141011170000
15,BDA,,39.796197,116.51197,22,-,27,10,3,7,17,5,1027,45,6,20141011170000
16,Tongzhou New Town,,39.887113,116.6689,16,-,13,17,2,16,17,5,1027,45,6,20141011170000
17,Shunyi New Town ,,40.128111,116.660908,33,-,16,5,2,7,17,5,1027,45,6,20141011170000
18,Changping Town,,40.218245,116.236084,13,5,20,11,3,5,17,5,1027,45,6,20141011170000
19,"Mentougou, Longquan Town",,39.938397,116.112323,26,-,27,3,2,4,17,5,1027,45,6,20141011170000
20,Pinggu town,,40.144433,117.106563,314,-,36,25,13,32,20,10,1022,52,7,20141011170000
21,Huairou town,,40.329104,116.63387,13,5,26,4,2,8,17,5,1027,45,6,20141011170000
22,The town of Miyun,,40.371186,116.838053,20,-,32,4,2,6,17,5,1027,45,6,20141011170000
23,Yanqing town,,40.454217,115.978106,13,-,22,6,2,2,17,5,1027,45,6,20141011170000
24,Changping Dingling,,40.293269,116.226108,19,5,28,3,2,3,17,5,1027,45,6,20141011170000
25,Badaling Northwest,,40.36623,115.994146,63,-,32,17,9,13,20,10,1022,52,7,20141011170000
26,Miyun Reservoir,,40.500157,116.91701,20,-,36,1,2,5,17,5,1027,45,6,20141011170000
27,"Donggaocun Zhen, Pinggu",,40.10142,117.126556,13,-,33,10,2,12,17,5,1027,45,6,20141011170000
28,"Yongledianzhen, Tongzhou",,39.713192,116.78905,21,57,15,19,2,11,17,5,1027,45,6,20141011170000
29,"Yufazhen, Daxing",,39.521203,116.306026,99,-,23,3,2,8,17,5,1027,45,6,20141011170000
30,"Liulihezhen, Fangshan",,39.581169,116.006089,100,-,20,7,4,7,17,5,1027,45,6,20141011170000
31,"Qianmen E St, Dongcheng",,39.900402,116.401242,92,-,19,10,2,6,17,5,1027,45,6,20141011170000
32,Yongdingmen Inner St,,39.877401,116.400238,140,103,17,13,3,6,17,5,1027,45,6,20141011170000
33,Xizhimen N St,,39.955352,116.355187,71,-,14,11,5,6,17,5,1027,45,6,20141011170000
34,South Ring Road,,39.857377,116.37421,52,-,6,21,10,11,17,5,1027,45,6,20141011170000
35,East Fourth Ring Road,,39.940273,116.489075,97,-,19,8,2,5,17,5,1027,45,6,20141011170000
36,Beijing,,39.955906,116.474246,38,13,20,13,3,6,17,5,1027,45,6,20141011170000
37,Putuo,,31.232979,121.415378,87,55,39,9,4,3,21,16,1017,73,6,20141011170000
38,Yangpu Sipiao,,31.263795,121.540311,84,58,42,14,4,7,21,16,1017,73,6,20141011170000
39,Shanghai Normal College Primary Division,,31.199031,121.487719,89,51,42,8,4,7,21,16,1017,73,6,20141011170000
40,Dianshan Lake,,31.091338,120.982293,88,30,43,8,6,5,21,16,1017,73,6,20141011170000
41,Hongkou Liangcheng,,31.298906,121.47155,87,57,41,11,7,6,21,16,1017,73,6,20141011170000
42,Jingan,,31.224251,121.429637,91,55,41,12,6,5,21,16,1017,73,6,20141011170000
43,Shanghai Normal University,,31.163531,121.416643,81,49,45,10,6,7,21,16,1017,73,6,20141011170000
44,Chuansha,,31.188626,121.707342,67,32,46,3,5,5,21,16,1017,73,6,20141011170000
45,Zhangjiang,,31.204896,121.581215,73,45,49,5,3,5,21,16,1017,73,6,20141011170000
46,Lingshan Road,,31.226286,121.537317,79,55,47,19,10,4,21,16,1017,73,6,20141011170000
1080,City average,,31.228451,121.478227,82,52,42,10,5,5,21,16,1017,73,6,20141011170000
47,Shanghai,,31.202842,121.453493,91,55,42,12,6,7,21,16,1017,73,6,20141011170000
48,Guangzhou,,23.138517,113.263701,151,66,18,53,16,10,27,16,1013,51,4,20141011170000
49,"Huadu town, Guangzhou",,23.389121,113.220062,152,63,42,17,23,4,27,16,1013,51,4,20141011170000
50,"Luogang Zhenlong, Guangzhou",,23.308027,113.567032,152,81,36,19,44,8,27,16,1013,51,4,20141011170000
51,"LuHu, Guangzhou",,23.151743,113.281842,122,55,18,44,9,7,27,16,1013,51,4,20141011170000
52,"Tianhu, Guangzhou",,23.647433,113.629715,147,53,85,6,10,8,27,16,1012,51,3,20141011170000
53,"Zhudong, Guangzhou",,23.418406,113.078552,152,72,48,22,29,5,27,16,1013,51,3,20141011170000
54,"Modiesha station, Guangzhou",,23.103814,113.338238,104,71,33,37,12,5,27,16,1013,51,4,20141011170000
55,Zhuhai,,22.2677,113.581765,172,117,108,22,25,14,27,19,1012,61,2,20141011170000
1075,"Huicai technical school, Foshan",,23.039667,113.105492,178,92,27,50,41,9,27,16,1013,51,4,20141011170000
56,"Sanshuiyun donghai, Foshan",,23.185788,112.865368,169,110,26,36,39,9,27,16,1013,51,4,20141011170000
57,"Nanhai Bureau of Meteorology, Foshan",,23.046836,113.145764,161,83,30,43,25,9,27,16,1013,51,4,20141011170000
58,"Sanshui Monitoring Station, Foshan",,23.163551,112.890843,169,107,17,37,21,11,27,16,1013,51,4,20141011170000
1087,Foshan,,23.018995,113.126899,178,92,34,50,41,9,27,16,1013,51,4,20141011170000
59,"Ronggui street committee, Shunde",,22.762729,113.258356,158,77,33,42,17,10,27,16,1013,51,4,20141011170000
60,Shunde,,22.80246,113.298701,158,77,33,42,23,10,-,-,0,-,-,20141011170000
61,"Donghu, Jiangmen",,22.590411,113.087351,160,84,49,34,27,3,27,21,1012,70,2,20141011170000
62,"Taoyuan Atmosphere Premier Station, Jiangmen",,22.72489,112.93404,161,87,47,22,25,7,27,21,1012,70,2,20141011170000
63,Jiangmen,,22.576047,113.087351,160,84,81,34,27,11,27,19,1012,61,2,20141011170000
64,"Kengkouzi station, Zhaoqing",,23.158865,112.570287,124,57,50,15,7,7,27,16,1013,51,3,20141011170000
65,"Mugangzi station, Zhaoqing",,23.067961,112.431934,144,58,34,17,9,8,27,16,1013,51,4,20141011170000
67,Zhaoqing,,23.044571,112.470346,144,69,34,31,9,13,27,16,1013,51,4,20141011170000
68,"Jinguo Bay, Huizhou",,22.937223,114.385567,-,-,-,-,-,-,-,-,0,-,-,20141011170000
1091,"Xiabu, Huizhou",,23.077493,114.410275,139,70,31,13,9,5,28,18,1012,54,5,20141011170000
69,"Xijiao, Huizhou",,23.338178,114.112867,104,43,22,10,18,8,28,18,1012,54,5,20141011170000
70,"Jiangbei, Huizhou",,23.111706,114.415274,112,53,30,22,8,7,28,18,1012,54,5,20141011170000
71,"Huiyang chuanhu, Huizhou",,22.814485,114.329292,87,35,39,9,6,14,28,18,1012,54,5,20141011170000
72,"Daya bay management committee, Huizhou",,22.739283,114.53631,117,54,30,37,5,4,28,18,1012,54,5,20141011170000
73,Huizhou,,23.109349,114.421164,152,75,31,22,9,10,28,18,1012,54,5,20141011170000
74,"Guancheng No.2 water plant, Dongguan",,23.057294,113.753254,151,64,29,22,16,7,28,18,1012,54,5,20141011170000
75,"Dongcheng Shijing, Dongguan",,23.010039,113.799529,144,56,32,21,11,6,28,18,1012,54,5,20141011170000
76,"Nancheng Xiping, Dongguan",,22.963051,113.743494,132,59,26,26,11,6,28,18,1012,54,5,20141011170000
77,"Nancheng Yuanling, Dongguan",,23.025058,113.751308,147,59,36,14,16,10,28,18,1012,54,5,20141011170000
78,Dongguan,,23.017813,113.756958,151,69,36,26,22,10,28,18,1012,54,5,20141011170000
79,"Zimaling, Zhongshan",,22.505112,113.407183,162,68,48,31,10,11,27,21,1012,70,2,20141011170000
80,"Yangtze River tourist area, Zhongshan",,22.48589,113.439054,152,52,84,5,3,13,27,21,1012,70,2,20141011170000
81,"Huabai Park, Zhongshan",,22.51839,113.374362,168,74,49,24,8,18,28,19,1011,58,1,20141011170000
82,Zhongshan,,22.513997,113.398277,162,91,84,46,17,13,27,19,1012,61,2,20141011170000
83,"No.8 middle school, Shaoguan",,24.767777,113.583537,147,57,39,8,13,9,24,16,1015,50,2,20141011170000
83,"No.8 middle school, Shaoguan",,24.767777,113.583537,147,57,39,8,13,9,24,16,1015,50,2,20141011170000
84,"Forest area, Shaoguan",,24.796107,113.612131,151,60,41,5,17,11,24,16,1015,50,2,20141011170000
84,"Forest area, Shaoguan",,24.796106,113.612131,151,60,41,5,17,11,24,16,1015,50,2,20141011170000
86,"Shaoguan University, Shaoguan",,24.790864,113.646598,124,46,33,10,14,9,24,16,1015,50,2,20141011170000
86,"Shaoguan University, Shaoguan",,24.790864,113.646599,124,46,33,10,14,9,24,16,1015,50,2,20141011170000
88,"Qujiang Monitoring Station, Shaoguan",,24.683042,113.60157,153,62,41,12,12,7,24,16,1015,50,2,20141011170000
88,"Qujiang Monitoring Station, Shaoguan",,24.683042,113.60157,153,62,41,12,12,7,24,16,1015,50,2,20141011170000
89,Shaoguan,,24.807342,113.602712,154,62,68,12,21,13,24,16,1015,50,2,20141011170000
90,"Chaonanzi Station, Shantou",,23.251213,116.406762,173,120,35,16,12,9,24,21,1012,83,2,20141011170000
91,Shantou,,23.350642,116.686306,279,239,42,12,13,9,24,21,1012,83,2,20141011170000
92,"City Environmental Monitoring Station, Zhanjiang",,21.220431,110.397317,134,78,54,20,15,8,23,20,1013,78,1,20141011170000
93,"EPB Dormitory, Zhanjiang",,21.197376,110.406487,147,67,49,20,27,11,23,20,1013,78,1,20141011170000
94,"Xiashan Swimming Park, Zhanjiang",,21.200431,110.415655,129,52,66,20,23,11,23,20,1013,78,1,20141011170000
95,"Zhanjiang Theatre, Zhanjiang",,21.268177,110.366445,157,69,51,10,10,16,23,20,1013,78,1,20141011170000
96,"Mazhang EPA, Zhanjiang",,21.265486,110.335993,144,61,15,9,14,9,23,20,1013,78,1,20141011170000
97,"Potou District EPB, Zhanjiang",,21.247604,110.454508,117,59,76,7,3,11,23,20,1013,78,1,20141011170000
98,Zhanjiang,,21.26832,110.363883,157,78,76,20,27,16,23,20,1013,78,1,20141011170000
99,"Maogang sub-office EPB, Maoming",,21.466435,111.033462,152,74,54,6,3,6,25,19,0,70,2,20141011170000
100,"Petrochemical No. 7 elementaty school, Maoming",,21.648905,110.937861,169,82,48,18,10,9,25,19,0,70,2,20141011170000
101,"Jiankang road, Maoming",,21.662211,110.909482,173,110,36,29,32,15,25,19,0,70,2,20141011170000
102,"Gaoling, Maoming",,21.690558,110.871146,169,96,30,10,17,11,25,19,0,70,2,20141011170000
1094,Maoming,,21.660223,110.929968,173,110,48,29,32,15,25,19,0,70,2,20141011170000
103,"Jiaying University, Meizhou",,24.325415,116.12816,102,45,32,6,5,7,24,21,1012,83,2,20141011170000
104,"Mexian new town, Meizhou",,24.269283,116.084546,117,58,25,18,6,9,24,21,1012,83,2,20141011170000
105,"Environmental Monitoring Center, Meizhou",,24.262778,116.129621,117,60,18,19,8,9,24,21,1012,83,2,20141011170000
1095,Meizhou,,24.285988,116.127065,117,69,18,19,8,9,24,21,1012,83,2,20141011170000
106,"City EPA, Shanwei",,22.772349,115.370227,78,31,65,3,6,6,25,21,1013,71,1,20141011170000
107,"City government, Shanwei",,22.787161,115.375536,87,33,61,2,6,7,25,21,1013,71,1,20141011170000
108,"Xincheng Middle School, Shanwei",,22.789851,115.367124,89,37,45,6,5,10,25,21,1013,71,1,20141011170000
1099,Shanwei,,22.783576,115.38022,89,37,65,6,6,10,25,21,1013,71,1,20141011170000
109,"No.3 elementary school, Heyuan",,23.75435,114.703514,158,59,43,8,9,8,26,17,1014,46,3,20141011170000
109,"No.3 elementary school, Heyuan",,23.755946,114.699091,158,59,43,8,9,8,26,17,1014,46,3,20141011170000
111,"City water company, Heyuan",,23.754246,114.682459,153,66,44,13,9,7,26,17,1014,46,3,20141011170000
111,"City water company, Heyuan",,23.688709,114.954652,153,66,44,13,9,7,26,17,1014,46,3,20141011170000
113,"Heyuan high school, Heyuan",,23.720037,114.699563,154,61,41,7,8,8,26,17,1014,46,3,20141011170000
113,"Heyuan high school, Heyuan",,23.720666,114.693879,154,61,41,7,8,8,26,17,1014,46,3,20141011170000
115,Heyuan,,23.740888,114.705147,158,66,44,13,9,8,26,17,1014,46,3,20141011170000
116,"Yuanyang Lake, Yangjiang",,21.855869,111.983676,171,79,84,17,5,10,26,20,1013,59,1,20141011170000
1100,Yangjiang,,21.855227,111.987308,171,110,84,17,5,10,26,20,1013,59,1,20141011170000
118,"Town governement, Qingyuan",,23.708005,113.026215,117,56,40,9,19,14,27,16,1013,51,4,20141011170000
119,"Fupin district, Qingyuan",,24.185415,113.419369,129,45,33,11,9,10,27,16,1013,51,4,20141011170000
119,"Fupin district, Qingyuan",,23.624781,113.067713,129,45,33,11,9,10,27,16,1013,51,4,20141011170000
121,"Environment protection office, Qingyuan",,23.691109,113.047948,134,51,36,10,8,9,27,16,1013,51,4,20141011170000
121,"Environment protection office, Qingyuan",,23.685931,113.053239,134,51,36,10,8,9,27,16,1013,51,4,20141011170000
123,"Fengcheng Subdistrict, Qingyuan",,23.695447,113.068189,117,56,39,9,19,14,27,16,1013,51,4,20141011170000
124,Qingyuan,,23.679304,113.061513,134,56,40,11,19,14,27,16,1013,51,4,20141011170000
125,"Xiyuan Road, Chaozhou",,23.668654,116.638272,127,60,45,10,7,12,24,21,1012,83,2,20141011170000
126,"Archives Bureau, Chaozhou",,23.667881,116.649104,137,59,48,12,7,12,24,21,1012,83,2,20141011170000
127,"Municipal Corporation, Chaozhou",,23.65035,116.621859,162,88,42,24,27,14,24,21,1012,83,2,20141011170000
1101,Chaozhou,,23.654204,116.626969,162,88,48,24,27,14,24,21,1012,83,2,20141011170000
128,"Donghu Park, Jieyang",,23.532877,116.374427,129,69,69,13,16,8,24,21,1012,83,2,20141011170000
129,"Yuhu Middle School, Jieyang",,23.52682,116.414123,153,75,44,17,13,8,24,21,1012,83,2,20141011170000
130,"Experimental Primary School, Jieyang",,23.571473,116.364137,162,75,41,14,27,11,24,21,1012,83,2,20141011170000
1102,Jieyang,,23.547596,116.37754,162,82,69,17,27,11,24,21,1012,83,2,20141011170000
131,"City Environmental Monitoring Station, Yunfu",,22.936779,112.042248,158,86,24,20,7,9,27,16,1013,51,4,20141011170000
132,"The new city government headquarters, Yunfu",,22.914275,112.044475,151,69,30,7,7,18,27,16,1013,51,4,20141011170000
133,"Muyang police sub-station, Yunfu",,22.951267,112.05923,97,46,27,33,18,10,27,16,1013,51,4,20141011170000
1103,Yunfu,,22.912436,112.049811,158,86,30,33,18,18,27,16,1013,51,4,20141011170000
134,Yantian,,22.587949,114.266899,93,52,38,25,10,15,28,18,1012,54,5,20141011170000
135,Kwai Chung,,22.572837,113.867166,164,91,48,49,12,16,28,18,1012,54,5,20141011170000
135,Kwai Chung,,22.354168,114.134558,164,91,48,49,12,16,28,18,1012,54,5,20141011170000
135,Kwai Chung,,22.627947,114.428875,164,91,48,49,12,16,28,18,1012,54,5,20141011170000
137,Nanyou,,22.513802,113.928051,154,133,26,47,6,10,28,18,1012,54,5,20141011170000
138,Meisha,,22.59611,114.318345,99,38,33,7,6,11,28,18,1012,54,5,20141011170000
139,Xi xiang,,22.717524,114.252304,152,99,27,25,6,6,28,18,1012,54,5,20141011170000
140,Liyuan,,22.54732,114.101205,149,89,17,42,4,10,28,18,1012,54,5,20141011170000
1072,Kwai Chung,,22.572837,113.867166,129,65,26,30,2,12,28,18,1012,54,5,20141011170000
1072,Kwai Chung,,22.354168,114.134558,129,65,26,30,2,12,28,18,1012,54,5,20141011170000
1072,Kwai Chung,,22.627947,114.428875,129,65,26,30,2,12,28,18,1012,54,5,20141011170000
141,OCT,,22.539549,113.992458,154,73,28,50,3,13,28,18,1012,54,5,20141011170000
142,Honghu,,22.559647,114.121976,151,73,21,51,3,14,28,18,1012,54,5,20141011170000
143,Mission Hills,,22.694131,114.050496,153,75,31,38,4,9,28,18,1012,54,5,20141011170000
144,Shenzhen,,22.540382,114.062982,164,133,48,51,12,16,-,-,0,-,-,20141011170000
145,Chengdu,,30.622581,104.069564,61,25,24,18,11,7,15,13,1023,88,1,20141011170000
146,"Jinquan lianghe, Chengdu",,30.710359,103.974209,80,24,18,12,4,8,15,13,1023,88,1,20141011170000
147,"Shilidian, Chengdu",,30.684718,104.17845,42,15,18,11,2,7,15,13,1023,88,1,20141011170000
148,"Sanwayao, Chengdu",,30.568159,104.081524,55,17,17,16,1,8,15,13,1023,88,1,20141011170000
149,"Shahepu, Chengdu",,30.633685,104.120536,46,13,17,16,1,8,15,13,1023,88,1,20141011170000
150,"Liang Lane, Chengdu",,30.682601,104.076522,70,23,20,17,11,7,15,13,1023,88,1,20141011170000
151,"Caotang Temple, Chengdu",,30.651891,104.0284,63,25,24,18,5,6,15,13,1023,88,1,20141011170000
152,"Lingyansi, Chengdu",,31.025729,103.615022,104,46,45,4,1,3,15,13,1023,88,1,20141011170000
153,"Fuleshan, Mianyang",,31.472493,104.7806,25,10,28,3,4,5,15,11,1022,71,2,20141011170000
154,"High-tech Zone Water Company, Mianyang",,31.463309,104.674293,38,13,24,6,2,6,15,11,1022,71,2,20141011170000
155,"No.3 water company, Mianyang",,31.505002,104.731054,17,9,25,1,2,1,15,11,1022,71,2,20141011170000
156,Mianyang,,31.465174,104.681731,38,13,26,7,4,6,15,11,1022,71,2,20141011170000
157,"Dongshan Park, Deyang",,31.118648,104.424587,5,16,23,4,3,4,15,13,1023,88,1,20141011170000
158,"Xixiaoqu, Deyang",,31.131159,104.390972,21,3,16,5,7,5,15,13,1023,88,1,20141011170000
159,"City Procuratorate, Deyang",,31.114554,104.407986,17,14,9,6,5,11,15,13,1023,88,1,20141011170000
160,"Refractory Factory, Deyang",,31.108606,104.356506,34,18,23,7,1,3,15,13,1023,88,1,20141011170000
161,Deyang,,31.124715,104.400703,34,18,23,7,7,11,15,13,1023,88,1,20141011170000
162,"Nongnongping, Panzhihua",,26.566698,101.695438,87,45,25,16,18,9,19,13,0,63,2,20141011170000
163,"Hemenkou, Panzhihua",,26.589072,101.578312,151,65,23,11,9,15,19,13,0,63,2,20141011170000
164,"Bingcaogang, Panzhihua",,26.58143,101.718473,63,42,11,26,6,15,19,13,0,63,2,20141011170000
165,"Renhe, Panzhihua",,26.498166,101.746887,72,32,19,13,4,14,19,13,0,63,2,20141011170000
166,"Jinjina, Panzhihua",,26.553226,101.84862,142,57,26,11,32,10,19,13,0,63,2,20141011170000
167,Panzhihua,,26.578779,101.720211,151,65,26,26,32,15,19,13,0,63,2,20141011170000
168,"Shima Middle School, Yibin",,28.815979,104.599199,74,30,23,4,4,8,16,15,1022,87,2,20141011170000
169,"Municipal party committee, Yibin",,28.762654,104.624834,82,25,14,3,3,8,16,15,1022,87,2,20141011170000
170,"No. 4 middle school, Yibin",,28.783257,104.608407,99,35,20,9,5,7,16,15,1022,87,2,20141011170000
171,"City government, Yibin",,28.760477,104.644079,93,40,20,6,4,8,16,15,1022,87,2,20141011170000
172,"Huangjinzui, Yibin",,28.712319,104.578389,78,32,21,6,7,7,16,15,1022,87,2,20141011170000
173,"Shaping Middle School, Yibin",,28.795569,104.681393,70,25,24,7,2,5,16,15,1022,87,2,20141011170000
174,Yibin,,28.748384,104.645766,99,40,24,9,7,8,16,15,1022,87,2,20141011170000
175,"Datang Hill, Zigong",,29.359969,104.757388,95,52,15,11,1,4,17,12,1001,71,3,20141011170000
176,"Yanma Road, Zigong",,29.355752,104.724036,74,35,29,4,10,8,17,12,1001,71,3,20141011170000
177,"Tanmulin Street, Zigong",,29.353555,104.777397,104,47,21,7,7,3,17,12,1001,71,3,20141011170000
178,"Chunhua Road, Zigong",,29.33825,104.771895,97,43,15,10,7,7,17,12,1001,71,3,20141011170000
179,Zigong,,29.33617,104.781138,104,52,29,11,10,8,17,12,1001,71,3,20141011170000
180,"Jiushi Hill, Luzhou",,28.955347,105.434207,165,75,122,4,2,6,18,15,1001,82,2,20141011170000
181,"Xiaoshishang Port, Luzhou",,28.899583,105.447192,157,61,68,2,3,8,18,15,1001,82,2,20141011170000
182,"Lantianxian Bridge, Luzhou",,28.852766,105.4358,117,50,118,11,3,1,18,15,1001,82,2,20141011170000
183,"City Environment Monitoring Station, Luzhou",,28.895898,105.435802,157,58,44,8,5,7,18,15,1001,82,2,20141011170000
184,Luzhou,,28.868782,105.445938,165,75,122,11,5,8,18,15,1001,82,2,20141011170000
185,"City Committee, Nanchong",,30.799993,106.082906,87,50,15,4,2,2,19,7,1020,37,2,20141011170000
186,"Refinery Factory, Nanchong",,30.819412,106.10712,129,48,37,15,8,1,19,7,1020,37,2,20141011170000
187,"Gaoping District Monitoring Station, Nanchong",,30.783291,106.110417,25,51,24,8,3,5,19,7,1020,37,2,20141011170000
188,"Jialing District EPB, Nanchong",,30.761255,106.06818,91,45,44,15,3,1,19,7,1020,37,2,20141011170000
189,"City Environmental Monitoring Station, Nanchong",,30.836519,106.11272,61,43,28,4,2,4,19,7,1020,37,2,20141011170000
190,Nanchong,,30.835511,106.114717,129,51,44,15,8,5,19,7,1020,37,2,20141011170000
1249,"City Monitoring Station, Neijiang",,29.592673,105.036234,139,39,24,2,1,5,17,12,1001,71,3,20141011170000
1250,"Dongxing District Government , Neijiang",,29.592148,105.074966,76,52,23,4,2,3,17,12,1001,71,3,20141011170000
1251,"No 2 middle school, Neijiang",,29.579135,105.068548,152,57,20,6,1,3,17,12,1001,71,3,20141011170000
1252,Neijiang,,29.577653,105.06166,152,57,24,6,2,5,17,12,1001,71,3,20141011170000
1253,"City Monitoring Station, Suining",,30.610641,105.683583,78,45,38,3,4,3,18,7,0,47,5,20141011170000
1254,"Administrative center , Suining",,30.63206,105.819747,57,61,37,10,4,5,18,7,0,47,5,20141011170000
1255,Suining,,30.530053,105.596307,104,65,38,10,4,5,18,7,0,47,5,20141011170000
1256,"City Monitoring Station, Leshan",,29.560651,103.759211,91,38,50,7,5,12,16,14,0,86,2,20141011170000
1257,"Leshan Giant Buddha Scenic Area , Leshan",,29.543938,103.772706,95,38,-,9,3,7,16,14,0,86,2,20141011170000
1258,Leshan,,29.54935,103.767777,112,43,50,14,12,12,16,14,0,86,2,20141011170000
1259,"Heilongtan , Meishan",,30.047726,103.900649,159,79,24,12,4,5,15,13,1023,88,1,20141011170000
1260,"Bureau of Meteorology, Meishan",,30.084591,103.843715,158,59,30,7,1,4,15,13,1023,88,1,20141011170000
1261,"Xuguang Community , Meishan",,30.066277,103.8516,159,62,23,7,1,4,15,13,1023,88,1,20141011170000
1262,"City Monitoring Station, Meishan",,30.059205,103.836229,155,57,24,9,2,6,15,13,1023,88,1,20141011170000
1263,Meishan,,30.072618,103.85064,159,79,30,12,4,6,15,13,1023,88,1,20141011170000
1264,"Ziyang middle school, Ziyang",,30.147763,104.638024,65,52,32,2,12,2,17,12,1001,71,3,20141011170000
1265,Ziyang,,30.126054,104.63004,65,52,34,4,12,3,17,12,1001,71,3,20141011170000
191,Shenyang US Consulate,,41.785668,123.432865,-,-,36,-,-,10,-,-,0,-,-,20141011170000
192,"Huishan, Shenyang",,41.835421,123.647773,87,50,28,9,3,7,17,14,1024,82,4,20141011170000
193,"Hunnan, Shenyang",,41.758263,123.540809,132,57,30,13,7,6,15,9,1025,67,6,20141011170000
194,"Zhangshi, Shenyang",,41.771679,123.289859,114,59,17,12,15,7,17,14,1024,82,4,20141011170000
195,"Artillery College, Shenyang",,41.835749,123.547799,61,54,41,12,8,8,15,9,1025,67,6,20141011170000
196,"Beiling, Shenyang",,41.849633,123.434146,85,37,16,23,2,7,17,14,1024,82,4,20141011170000
197,"Wenyi Road, Shenyang",,41.767444,123.416144,132,60,33,13,7,8,15,9,1025,67,6,20141011170000
198,"Xiaoheyan, Shenyang",,41.779828,123.484015,104,56,50,13,6,7,17,14,1024,82,4,20141011170000
199,"Taiyuan Street, Shenyang",,41.799646,123.406146,87,50,15,19,6,9,17,14,1024,82,4,20141011170000
200,"Ermao, Shenyang",,41.783011,123.366679,117,62,36,10,10,8,15,9,1025,67,6,20141011170000
201,"Liaoning University, Shenyang",,41.830704,123.361071,53,37,24,5,2,6,15,9,1025,67,6,20141011170000
202,Shenyang,,41.808126,123.437611,87,50,15,19,6,9,17,14,1024,82,4,20141011170000
1104,"wenhua street, Shenyang , Shenyang",,41.774139,123.441839,132,60,33,13,7,8,17,14,1024,82,4,20141011170000
1105,"Tanglin Road , Shenyang , Shenyang",,41.823665,123.562317,61,54,38,12,8,8,17,14,1024,82,4,20141011170000
203,"Ganjingzi, Dalian",,38.9747,121.616893,129,63,30,24,1,4,17,17,1023,100,1,20141011170000
204,"Zhoushuizi, Dalian",,38.951928,121.569981,95,52,26,17,2,7,17,17,1023,100,1,20141011170000
205,"Xinghai No 3 station, Dalian",,38.885779,121.568864,134,59,27,9,3,2,16,16,1023,100,0,20141011170000
206,"Qingniwa Bridge, Dalian",,38.91274,121.638018,80,38,26,27,1,6,17,17,1023,100,1,20141011170000
207,"Fujiazhuang, Dalian",,38.864647,121.629947,80,49,21,7,3,1,17,17,1023,100,1,20141011170000
208,"Qixianling, Dalian",,38.856978,121.523169,93,48,15,21,3,5,17,17,1023,100,1,20141011170000
209,"Lushun, Dalian",,38.808946,121.264063,109,58,15,10,4,3,17,17,1023,100,1,20141011170000
210,"Jinzhou, Dalian",,39.132192,121.753259,87,37,16,9,3,4,16,16,1023,100,0,20141011170000
211,"BDA, Dalian",,39.05213,121.782022,89,51,15,5,2,5,17,17,1023,100,1,20141011170000
212,"D&D Port, Dalian",,39.064087,121.981874,85,30,16,6,1,7,17,17,1023,100,1,20141011170000
213,Dalian,,38.91478,121.619625,80,38,26,27,1,6,-,-,0,-,-,20141011170000
214,"Bearing Factory, Dandong",,40.068929,124.345703,153,86,7,20,14,28,12,10,1024,89,1,20141011170000
215,"Financial school, Dandong",,40.158723,124.432593,132,65,10,22,9,14,12,10,1024,89,1,20141011170000
216,"Yuanbaoshan water, Dandong",,40.149431,124.391698,109,55,22,23,12,17,12,10,1024,89,1,20141011170000
217,"Experimental Primary School, Dandong",,39.887343,124.158056,142,68,7,37,5,11,12,10,1024,89,1,20141011170000
218,Dandong,,40.002046,124.360479,129,63,18,31,12,17,12,10,1024,89,1,20141011170000
1106,"minzhu bridge, Dandong , Dandong",,40.112974,124.373604,129,63,3,31,5,11,12,10,1024,89,1,20141011170000
1107,"yuanbaoshan, Dandong , Dandong",,40.146298,124.399081,102,51,18,18,12,17,12,10,1024,89,1,20141011170000
1108,"linjiang houjie, Dandong , Dandong",,40.152757,124.431745,119,61,5,22,10,14,12,10,1024,89,1,20141011170000
219,"BDA, Panjin",,41.157144,122.06645,109,39,23,12,4,9,14,10,0,77,4,20141011170000
220,"Xinglongtai, Panjin",,41.140948,122.111343,97,45,22,9,5,7,14,10,0,77,4,20141011170000
221,"Dingxiang, Panjin",,41.16139,121.928781,129,55,34,14,7,11,14,10,0,77,4,20141011170000
222,Panjin,,41.122089,122.076206,129,55,34,14,7,11,14,10,0,77,4,20141011170000
223,"No.3 water company, Yingkou",,40.682052,122.385352,57,33,35,12,4,4,16,14,1024,80,0,20141011170000
224,"Yingkou University, Yingkou",,40.683689,122.388285,46,34,32,15,3,4,16,14,1024,80,0,20141011170000
225,"Botanical garden, Yingkou",,40.711674,122.281568,68,29,28,20,4,5,16,14,1024,80,0,20141011170000
226,Yingkou,,40.668578,122.24059,59,35,33,15,4,5,16,14,1024,80,0,20141011170000
1109,"jinghu west street, Yingkou , Yingkou",,40.653831,122.221943,59,35,33,15,4,5,16,14,1024,80,0,20141011170000
1110,"Daqing Road , Yingkou , Yingkou",,40.709181,122.28243,68,29,28,20,4,5,16,14,1024,80,0,20141011170000
227,"Xishanpo, Huludao",,40.724078,120.921974,164,84,42,22,37,9,14,10,0,77,4,20141011170000
228,"Huagong hospital, Huludao",,40.755662,120.848435,134,81,30,12,11,4,14,10,0,77,4,20141011170000
229,"New district park, Huludao",,40.723415,120.853801,80,66,42,9,10,8,14,10,0,77,4,20141011170000
230,"Lianshan district governement, Huludao",,40.775488,120.872292,59,31,36,11,11,7,14,10,0,77,4,20141011170000
231,Huludao,,40.712501,120.842107,164,84,42,22,37,9,17,5,0,34,7,20141011170000
1111,"Dongcheng District , Huludao , Huludao",,40.775362,120.871706,59,31,36,11,11,7,,,0,,,20141011170000
1112,"huagong street, Huludao , Huludao",,40.758901,120.842935,134,81,30,12,11,4,,,0,,,20141011170000
232,Anshan,,41.110466,123.000147,188,148,24,30,12,20,17,14,1024,82,4,20141011170000
233,"Qianshan Park, Anshan",,41.033486,123.143897,68,29,26,5,5,3,15,11,1025,77,6,20141011170000
234,"Tiexi, Anshan",,41.121636,122.97506,189,150,14,26,7,19,15,11,1025,77,6,20141011170000
235,"Taiping Station, Anshan",,41.153322,123.052433,192,133,11,24,11,12,15,11,1025,77,6,20141011170000
236,"Central Station, Anshan",,41.106731,123.002736,171,123,41,31,7,9,15,11,1025,77,6,20141011170000
237,"Shengou Temple, Anshan",,41.137157,123.031901,173,98,24,28,7,16,15,11,1025,77,6,20141011170000
1113,"Qianshan , Anshan , Anshan",,41.014521,123.122538,76,32,22,5,5,3,15,11,1025,77,6,20141011170000
1114,"Tiexi Sandao jie, Anshan",,41.103264,122.978613,188,148,10,25,9,20,15,11,1025,77,6,20141011170000
1115,"Taiyang, Anshan",,41.094946,123.019037,173,129,-,28,7,10,15,11,1025,77,6,20141011170000
238,Fushun,,41.883028,123.962984,80,118,22,11,13,17,15,11,1025,77,6,20141011170000
239,"Shenfu new town, Fushun",,41.804638,123.631684,21,38,22,5,6,8,15,11,1025,77,6,20141011170000
240,"Reservoir, Fushun",,41.8464,123.802857,76,123,23,19,15,17,15,11,1025,77,6,20141011170000
241,"Train Station, Fushun",,41.89726,124.017604,159,74,23,15,14,12,15,11,1025,77,6,20141011170000
242,"Dongzhou, Fushun",,41.855578,124.044738,153,140,22,30,17,10,15,11,1025,77,6,20141011170000
243,"Xinhua, Fushun",,41.888598,123.932932,153,71,18,23,14,10,15,11,1025,77,6,20141011170000
244,"Wanghua, Fushun",,41.888825,123.093723,74,65,19,17,22,15,15,11,1025,77,6,20141011170000
245,Benxi,,41.296267,123.772371,156,94,18,37,12,13,17,14,1024,82,4,20141011170000
246,"Weining, Benxi",,41.349663,123.826071,144,123,18,28,4,28,15,11,1025,77,6,20141011170000
247,"Occupational disease hospital, Benxi",,41.305432,123.74645,70,38,30,17,6,7,15,11,1025,77,6,20141011170000
248,"Dongming, Benxi",,41.292369,123.765058,124,55,29,60,28,15,15,11,1025,77,6,20141011170000
249,"Caitun, Benxi",,41.301591,123.746039,134,77,17,17,4,16,15,11,1025,77,6,20141011170000
250,"Xihu, Benxi",,41.331332,123.773537,156,94,18,37,12,13,15,11,1025,77,6,20141011170000
251,"Dayu, Benxi",,41.308091,123.818442,127,60,36,25,20,7,15,11,1025,77,6,20141011170000
1116,"Xinlitun , Benxi , Benxi",,41.264104,123.811523,82,44,23,25,8,7,15,11,1025,77,6,20141011170000
252,Jinzhou,,41.097169,121.132647,190,51,33,14,42,9,17,5,1024,34,7,20141011170000
253,"Beihu Park, Jinzhou",,41.141447,121.137339,190,97,33,8,9,6,17,5,1024,34,7,20141011170000
254,"Monitoring station, Jinzhou",,41.113441,121.140911,53,49,34,12,6,6,17,5,1024,34,7,20141011170000
255,"Nanshan, Jinzhou",,41.570689,122.046753,30,30,35,11,9,6,17,5,1024,34,7,20141011170000
1118,"BDA, Jinzhou",,40.853915,121.061756,53,51,18,14,42,9,17,5,1024,34,7,20141011170000
1119,"tianan street, Jinzhou , Jinzhou",,41.124468,121.126119,50,42,31,12,7,5,17,5,1024,34,7,20141011170000
1120,"baigu street, Jinzhou, Jinzhou",,41.12214,121.21027,55,21,27,8,7,7,17,5,1024,34,7,20141011170000
1121,Chaoyang,,41.576022,120.456053,38,30,9,3,6,9,-,-,0,-,-,20141011170000
472,"Fukang road, Tianjin",,39.098136,117.157621,61,23,12,1,1,6,17,6,1025,48,8,20141011170000
1122,"Agricultural Area, Chaoyang",,43.93968,125.247371,38,12,9,3,6,9,19,8,1023,35,4,20141011170000
1123,Tieling,,42.225197,123.732174,68,25,27,7,7,6,-,-,0,-,-,20141011170000
260,"Waterpark, Tieling",,42.297031,123.880748,53,20,22,3,10,6,15,11,1025,77,6,20141011170000
1124,"Huigong Street West , Tieling , Tieling",,42.311115,123.845614,17,11,34,3,4,3,15,11,1025,77,6,20141011170000
1125,Liaoyang,,41.269312,123.24268,164,81,31,23,9,19,-,-,0,-,-,20141011170000
1126,"Riverside Road , Liaoyang , Liaoyang",,41.176884,123.419859,127,53,24,10,4,9,15,11,1025,77,6,20141011170000
1127,Fuxin,,42.02373,121.675733,70,17,30,7,36,9,-,-,0,-,-,20141011170000
266,"Agricultural Area, Fuxin",,42.071291,121.696445,42,13,23,3,14,5,12,5,0,60,5,20141011170000
267,"Industrial Area, Fuxin",,42.041052,121.715554,38,14,20,6,2,9,12,5,0,60,5,20141011170000
1128,"Yulong Metro , Fuxin , Fuxin",,42.035091,121.666531,70,39,30,4,5,9,12,5,0,60,5,20141011170000
1129,"Dongyuan , Fuxin , Fuxin",,42.029119,121.681553,9,17,24,7,36,4,12,5,0,60,5,20141011170000
268,"City Monitoring Station, Jinan",,36.662614,117.054645,176,104,20,54,22,13,17,11,1023,59,2,20141011170000
269,"Shandong Institute of Economics, Jinan",,36.63819,117.074975,163,97,38,27,27,6,17,11,1023,59,2,20141011170000
270,"Quancheng Plaza, Jinan",,36.661711,117.027043,161,109,24,49,15,13,17,11,1023,59,2,20141011170000
271,"Kegansuo, Jinan",,36.611582,116.99384,158,114,30,41,13,8,17,11,1023,59,2,20141011170000
272,"Agriculture Science Institute, Jinan",,36.663115,116.95063,191,223,20,59,11,21,17,11,1023,59,2,20141011170000
273,"Lanxiang technical school, Jinan",,36.700421,116.95342,208,178,5,61,30,14,17,11,1023,59,2,20141011170000
274,"Chemical factory, Jinan",,36.687463,116.994406,195,173,12,84,19,13,17,11,1023,59,2,20141011170000
275,"Provincial Seed Warehouse, Jinan",,36.685706,117.066348,165,111,20,57,13,17,17,11,1023,59,2,20141011170000
276,"Shandong Architecture University, Jinan",,36.681732,117.191868,173,132,21,29,18,16,17,11,1023,59,2,20141011170000
277,"Baosheng cable company, Jinan",,36.724638,117.130855,219,239,9,51,11,13,17,11,1023,59,2,20141011170000
278,"Paomaling, Jinan",,36.47869,117.219027,159,84,121,15,52,21,17,11,1023,59,2,20141011170000
279,"Changqing District Communist Party School, Jinan",,36.548797,116.770859,169,97,19,50,26,11,17,11,1023,59,2,20141011170000
280,"BDA, Jinan",,36.685835,117.130851,156,106,33,61,3,14,17,11,1023,59,2,20141011170000
281,Jinan,,36.651426,117.126625,208,340,5,61,30,14,17,11,1023,59,2,20141011170000
282,"Shinan district No. 1, Qingdao",,36.065534,120.40839,82,55,40,33,5,3,16,14,1022,88,1,20141011170000
283,"Shibei district No. 1, Qingdao",,36.069919,120.341264,91,67,34,38,26,9,16,14,1022,88,1,20141011170000
284,"Shibei district No. 2, Qingdao",,36.104146,120.36637,5,62,47,44,5,7,16,14,1022,88,1,20141011170000
285,"Huangdao District No. 1, Qingdao",,35.958935,120.191041,99,74,17,33,12,4,16,14,1022,88,1,20141011170000
286,"Huangdao District No. 2, Qingdao",,35.970487,120.160339,95,57,25,31,11,11,16,14,1022,88,1,20141011170000
287,"Laoshan District No. 1, Qingdao",,36.085881,120.451839,127,37,34,22,14,9,16,14,1022,88,1,20141011170000
288,"Laoshan District No. 2, Qingdao",,36.091075,120.490388,82,30,47,6,10,3,16,14,1022,88,1,20141011170000
289,"Licang District No. 1, Qingdao",,36.184872,120.38533,95,65,18,33,6,7,16,14,1022,88,1,20141011170000
290,"Licang District No. 2, Qingdao",,36.154369,120.432287,99,56,13,28,7,6,16,14,1022,88,1,20141011170000
291,"Chengyang District No. 1, Qingdao",,36.308502,120.40008,38,110,5,15,14,7,18,15,1021,83,3,20141011170000
292,"Chengyang District No. 2, Qingdao",,36.308429,120.465806,80,64,31,12,4,2,16,14,1022,88,1,20141011170000
293,Qingdao,,36.067358,120.387773,127,74,34,38,26,11,16,14,1022,88,1,20141011170000
294,"Zichuan Meteo. Stations, Zibo",,36.637916,117.960222,234,437,17,65,65,25,15,10,0,73,1,20141011170000
295,"Dongfeng Chemical factory, Zibo",,36.838576,118.050785,210,137,14,62,39,23,15,10,0,73,1,20141011170000
296,"Boshan shuangshan, Zibo",,36.497278,117.853581,218,151,9,57,54,24,15,10,0,73,1,20141011170000
297,"Linzi Putian Park, Zibo",,36.820171,118.315022,199,138,24,61,36,21,15,10,0,73,1,20141011170000
298,"Qilu Petrochemical, Zibo",,36.765907,118.254967,194,161,10,38,10,17,15,10,0,73,1,20141011170000
299,"Zhoucun sanjin Group, Zibo",,36.8044,117.85694,262,181,18,48,47,26,15,10,0,73,1,20141011170000
300,"Vocational College, Zibo",,36.825208,117.926305,260,202,13,118,64,23,15,10,0,73,1,20141011170000
301,"BDA, Zibo",,36.905214,118.021824,229,160,12,46,34,21,15,10,0,73,1,20141011170000
302,Zibo,,36.813618,118.060948,271,437,20,86,79,26,15,10,0,73,1,20141011170000
303,"Shizhong District Government, Zaozhuang",,34.850397,117.569545,194,173,25,22,76,23,15,13,1022,88,0,20141011170000
304,"Sewage treatment plant, Zaozhuang",,34.818951,117.595345,268,182,21,45,71,17,15,13,1022,88,0,20141011170000
305,"Xuecheng EPA, Zaozhuang",,34.790214,117.272455,181,115,18,45,58,10,15,13,1022,88,0,20141011170000
306,"Yicheng District government, Zaozhuang",,34.772806,117.57647,193,184,37,43,18,9,15,13,1022,88,0,20141011170000
307,"Taierzhuang EPA, Zaozhuang",,34.579462,117.741067,240,333,21,23,7,24,15,13,1022,88,0,20141011170000
308,"Shanting EPA, Zaozhuang",,35.070373,117.457691,160,83,45,16,11,12,15,13,1022,88,0,20141011170000
309,"City EPA, Zaozhuang",,34.809466,117.320608,205,168,41,24,67,6,15,13,1022,88,0,20141011170000
310,"High-tech zone, Zaozhuang",,34.821779,117.363495,182,92,33,23,37,13,15,13,1022,88,0,20141011170000
311,Zaozhuang,,34.809693,117.329634,240,333,45,45,76,24,15,13,1022,88,0,20141011170000
312,"City EPA, Dongying",,37.432052,118.672871,209,136,38,16,29,13,18,13,0,72,1,20141011170000
313,"Vocational College, Dongying",,37.438653,118.630567,192,127,36,20,16,11,18,13,0,72,1,20141011170000
314,"Xianhe Oil Production Plant, Dongying",,37.442419,118.510222,178,126,37,24,4,10,18,13,0,72,1,20141011170000
315,"Gengjin village, Dongying",,37.445072,118.55839,182,117,17,44,14,9,18,13,0,72,1,20141011170000
316,"City environmental company, Dongying",,37.466599,118.508012,183,114,36,38,10,9,18,13,0,72,1,20141011170000
317,"Hekou  district, Dongying",,37.883786,118.522171,177,113,66,17,12,8,18,13,0,72,1,20141011170000
318,"BDA, Dongying",,37.435162,118.701827,223,141,84,13,34,14,18,13,0,72,1,20141011170000
319,Dongying,,37.435429,118.680434,209,136,66,44,29,13,18,13,0,72,1,20141011170000
320,"Bearing Factory, Yantai",,37.544126,121.376956,198,85,16,49,14,8,,,0,,,20141011170000
321,"Xijiao Chemical Station, Yantai",,37.547148,121.323695,178,60,30,36,13,12,,,0,,,20141011170000
322,"Fushan Monitoring Stations, Yantai",,37.472245,121.260116,161,60,57,10,4,10,,,0,,,20141011170000
323,"Mouping EPA, Yantai",,37.376681,121.586509,57,35,28,12,6,6,,,0,,,20141011170000
324,"Laishan EPA, Yantai",,37.478422,121.44829,172,90,27,30,9,7,,,0,,,20141011170000
325,"Laishan Shengquan Industrial Park, Yantai",,37.4271,121.408386,139,103,23,31,8,7,,,0,,,20141011170000
326,"China Agricultural University, Yantai",,37.423568,121.511838,107,78,32,25,6,6,,,0,,,20141011170000
327,"BDA EPA, Yantai",,37.560827,121.257954,169,89,27,58,7,9,,,0,,,20141011170000
329,"Dajijia, Yantai",,37.673849,121.071465,160,66,40,7,5,7,,,0,,,20141011170000
330,Yantai,,37.464793,121.453142,198,100,30,36,13,12,18,14,0,81,0,20141011170000
331,"BDA, Weifang",,36.720022,119.054064,223,178,24,43,18,9,,,0,,,20141011170000
332,"Business School, Weifang",,36.682442,119.105909,215,164,25,46,13,7,,,0,,,20141011170000
333,"Hanting District, Weifang",,36.773484,119.199705,179,110,34,33,36,8,,,0,,,20141011170000
334,"Gongda Company, Weifang",,36.657635,119.167266,172,105,38,25,11,7,,,0,,,20141011170000
335,"City EPA, Weifang",,36.701272,119.16838,183,122,23,25,8,8,,,0,,,20141011170000
336,"City Arbitration Committee, Weifang",,36.702422,119.145927,188,124,39,34,10,11,,,0,,,20141011170000
337,"Xinhui Group, Weifang",,36.641581,119.11679,180,121,30,33,9,8,,,0,,,20141011170000
338,"Jincheng Middle School, Weifang",,36.773611,119.115539,190,115,42,30,13,8,,,0,,,20141011170000
339,Weifang,,36.707217,119.167638,223,178,42,46,36,11,18,13,0,72,1,20141011170000
340,"City Monitoring Station, Jining",,35.408443,116.623917,178,113,9,49,24,20,16,14,1022,85,0,20141011170000
1090,"Shengdi Hollidays Resort, Jining",,35.424746,116.699093,167,100,13,66,18,4,16,14,1022,85,0,20141011170000
341,"Sewage treatment plant, Jining",,35.364286,116.609177,169,107,25,36,7,11,16,14,1022,85,0,20141011170000
342,"Electrochemical Factory, Jining",,35.390473,116.552956,93,113,30,50,41,16,16,14,1022,85,0,20141011170000
343,"Rencheng BDA, Jining",,35.390484,116.662995,196,121,21,41,30,12,16,14,1022,85,0,20141011170000
344,"Agricultural School, Jining",,35.44235,116.601682,166,114,18,19,4,10,16,14,1022,85,0,20141011170000
345,"BDA Huojucheng, Jining",,35.436377,116.642953,178,172,24,43,14,14,16,14,1022,85,0,20141011170000
346,Jining,,35.414473,116.59239,196,172,13,66,24,20,16,14,1022,85,0,20141011170000
347,"Taishan monitoring station, Taian",,36.194362,117.159648,176,119,8,42,19,20,11,5,0,55,3,20141011170000
348,"Shandong Electric Power School, Taian",,36.176071,117.12413,199,152,28,55,14,19,11,5,0,55,3,20141011170000
349,"Population Education school, Taian",,36.194417,117.104131,163,111,22,38,12,15,11,5,0,55,3,20141011170000
350,"Houfeng company, Taian",,36.204863,117.19015,173,123,9,30,8,18,11,5,0,55,3,20141011170000
351,"Nongda new campus, Taian",,36.170179,117.165191,179,129,8,43,15,25,11,5,0,55,3,20141011180000
352,"Transportation technical school, Taian",,36.202126,117.047068,151,67,12,37,9,12,11,5,0,55,3,20141011180000
353,"ICT Technology, Taian",,36.116621,117.107458,166,89,13,51,22,15,11,5,0,55,3,20141011180000
354,Taian,,36.200502,117.093682,199,152,28,55,22,25,11,5,0,55,3,20141011180000
355,"City Environmental Monitoring Station, Weihai",,37.513939,122.067058,78,56,24,33,18,6,18,14,0,81,0,20141011180000
356,"Woodworking Factory, Weihai",,37.325455,122.160777,85,35,41,5,3,3,18,14,0,81,0,20141011180000
357,"Lantian Hotel, Weihai",,37.514641,122.146276,82,52,37,13,16,9,18,14,0,81,0,20141011180000
358,"Zhang village government, Weihai",,37.485561,122.049436,78,35,25,15,6,3,18,14,0,81,0,20141011180000
359,"Gao District Bank, Weihai",,37.534919,122.056294,137,60,25,27,8,5,18,14,0,82,1,20141011180000
360,"Huxia technical school, Weihai",,37.427951,122.130811,76,54,32,7,9,5,18,14,0,81,0,20141011180000
361,Weihai,,37.5141,122.125477,85,63,41,33,16,9,18,14,0,81,0,20141011180000
362,"City governement square, Rizhao",,35.4075,119.526008,107,60,26,16,7,4,18,17,1022,94,1,20141011180000
363,"Port Authority, Rizhao",,35.381297,119.55396,102,65,26,28,3,5,18,17,1022,94,1,20141011180000
364,"City Monitoring Station, Rizhao",,35.388683,119.496405,142,67,16,28,8,6,18,17,1022,94,1,20141011180000
365,"Professor Garden, Rizhao",,35.462161,119.574193,82,54,38,2,4,2,18,17,1022,94,1,20141011180000
366,"Vocational and Technical College, Rizhao",,35.441939,119.538187,97,40,37,4,4,4,18,17,1022,94,1,20141011180000
367,"Lanshan EPA branch, Rizhao",,35.293405,119.345716,102,67,25,35,9,4,18,17,1022,94,1,20141011180000
368,"Jinma Industrial Park, Rizhao",,35.373339,119.514108,112,96,23,29,10,4,18,17,1022,94,1,20141011180000
369,Rizhao,,35.416089,119.532316,112,96,38,35,10,5,18,17,1022,94,1,20141011180000
370,"Vegetable oil factory, Laiwu",,36.205028,117.700917,199,135,14,42,47,23,15,10,1023,64,1,20141011180000
371,"Nursing home, Laiwu",,36.266067,117.652769,186,138,15,36,16,26,15,10,1023,64,1,20141011180000
372,"Xinyi middle school, Laiwu",,36.245086,117.739025,175,107,26,28,58,29,15,10,1023,64,1,20141011180000
373,"Risheng International School, Laiwu",,36.208125,117.730959,195,118,4,21,23,22,15,10,1023,64,1,20141011180000
374,"Gangcheng EPA, Laiwu",,36.066836,117.871823,155,96,9,20,49,35,15,10,1023,64,1,20141011180000
375,"City EPA, Laiwu",,36.228913,117.694797,178,117,18,26,27,33,15,10,1023,64,1,20141011180000
376,Laiwu,,36.213688,117.682612,199,138,26,42,58,29,-,-,0,-,-,20141011180000
377,"Lunan Pharmaceutical Factory, Linyi",,35.061671,118.299527,124,77,17,29,8,7,15,14,0,95,2,20141011180000
378,"Yihe compound, Linyi",,35.056752,118.34739,117,84,15,28,9,8,15,14,0,95,2,20141011180000
379,"Linyi University, Linyi",,35.114777,118.293414,164,104,11,33,9,13,15,14,0,95,2,20141011180000
380,City EPA,Nanfang,35.104871,118.353518,95,98,27,50,5,6,15,14,0,95,2,20141011180000
381,"Xinguang woolen factory, Linyi",,34.981004,118.282,144,77,9,33,12,9,15,14,0,95,2,20141011180000
382,"Hongfu Baijiu Factory, Linyi",,34.998788,118.257275,159,109,6,31,8,13,15,14,0,95,2,20141011180000
384,"Hedong insurance company, Linyi",,35.089354,118.40812,132,86,14,35,7,7,15,14,0,95,2,20141011180000
385,"Jianghua vehicule center, Linyi",,35.010082,118.435749,149,78,14,22,8,8,15,14,0,95,2,20141011180000
386,Linyi,,35.10428,118.362202,164,109,27,33,12,13,15,14,0,95,2,20141011180000
387,"Heima group, Dezhou",,37.466063,116.314134,228,173,17,44,17,15,18,13,1022,62,0,20141011180000
388,"Monitoring station, Dezhou",,37.433107,116.377312,242,289,29,42,24,25,18,13,1022,62,0,20141011180000
389,"Supervision Station, Dezhou",,37.449689,116.324709,222,187,9,44,32,24,18,13,1022,62,0,20141011180000
390,"Huayu technical school, Dezhou",,37.462809,116.357559,218,162,11,43,31,17,18,13,1022,62,0,20141011180000
391,"Shuangyi group, Dezhou",,37.478848,116.316362,263,160,15,44,19,20,18,13,1022,62,0,20141011180000
392,Dezhou,,37.434959,116.363366,263,289,17,48,32,27,18,13,1022,62,0,20141011180000
393,"Dongchang District Government, Liaocheng",,36.444473,115.971733,211,154,13,46,13,32,17,15,1022,85,0,20141011180000
394,"Light Machinery Factory No. 2, Liaocheng",,36.456788,116.002383,216,258,24,88,17,18,17,15,1022,85,0,20141011180000
395,"City committee communist party school, Liaocheng",,36.479537,115.989288,275,303,16,51,13,22,17,15,1022,85,0,20141011180000
396,"Customs, Liaocheng",,36.431933,115.956974,238,328,10,53,13,20,17,15,1022,85,0,20141011180000
397,"Hongshun Garden, Liaocheng",,36.471124,115.960319,263,223,8,88,24,27,17,15,1022,85,0,20141011180000
398,"BDA, Liaocheng",,36.459407,116.043621,211,159,12,47,33,21,17,15,1022,85,0,20141011180000
399,Liaocheng,,36.456792,115.991051,263,328,24,88,24,32,17,15,1022,85,0,20141011180000
400,"City EPA, Binzhou",,37.38024,118.026895,174,84,18,25,23,14,16,14,1022,82,1,20141011180000
777,"Anju Compound, Qiqihaer",,47.365672,123.937016,5,9,23,1,3,4,5,0,1022,56,2,20141011190000
401,"Beizhong new school, Binzhou",,37.38374,117.988996,189,106,6,28,51,20,16,14,1022,82,1,20141011180000
402,"No.2 water factory, Binzhou",,37.36155,118.002648,188,116,11,24,18,18,16,14,1022,82,1,20141011180000
403,"Keling Chemical factory, Binzhou",,37.396138,117.943609,175,82,15,7,6,15,16,14,1022,82,1,20141011180000
404,"Yinhe logistics company, Binzhou",,37.356122,117.943326,186,115,14,45,47,15,16,14,1022,82,1,20141011180000
405,"Bilin compond, Binzhou",,37.36815,117.978964,107,58,30,9,10,12,24,13,1020,39,0,20141011180000
406,Binzhou,,37.382639,117.976606,189,116,18,45,51,20,16,14,1022,82,1,20141011180000
407,"Bureau of Meteorology, Heze",,35.248625,115.428775,256,195,8,42,14,27,15,9,0,65,2,20141011180000
408,"Sewage treatment plant, Heze",,35.222517,115.531511,265,189,6,28,9,17,15,9,0,65,2,20141011180000
409,"Municipal CPPCC, Heze",,35.237125,115.480591,249,160,10,47,29,25,15,9,0,65,2,20141011180000
410,"Huarun Pharmaceutical Company, Heze",,35.261463,115.524873,210,137,22,28,12,21,15,9,0,65,2,20141011180000
411,"Heze University, Heze",,35.269706,115.460934,264,165,6,79,15,25,15,9,0,65,2,20141011180000
412,Heze,,35.233354,115.486503,264,195,10,79,29,27,15,9,0,65,2,20141011180000
413,"Shiji Park, Shijiazhuang",,38.03155,114.547873,179,82,14,9,3,11,17,10,1026,63,6,20141011180000
414,"Xinan College, Shijiazhuang",,38.012764,114.473163,168,87,8,3,12,12,17,10,1026,63,6,20141011180000
415,"Chemical College, Shijiazhuang",,38.055503,114.569816,21,19,10,10,2,12,17,10,1026,63,6,20141011180000
416,"Worker hospital, Shijiazhuang",,38.051784,114.461209,34,20,12,3,4,11,17,10,1026,63,6,20141011180000
417,"Northwest Water Company, Shijiazhuang",,38.140638,114.508038,61,12,18,3,2,8,17,10,1026,63,6,20141011180000
418,"High-tech zone, Shijiazhuang",,38.040482,114.610775,174,96,9,6,2,11,17,10,1026,63,6,20141011180000
419,"Fenglong Montain, Shijiazhuang",,37.910829,114.360264,80,19,43,12,33,14,17,10,1026,63,6,20141011180000
1130,"Zhengding Unicom, Shijiazhuang",,38.159458,114.59879,87,27,17,11,4,15,17,10,1026,63,6,20141011180000
1131,"Luancheng Communications, Shijiazhuang",,37.906534,114.638785,178,83,31,8,8,19,17,10,1026,63,6,20141011180000
1132,"Gaocheng Experimental School, Shijiazhuang",,38.039518,114.867812,209,124,20,17,112,22,17,10,1026,63,6,20141011180000
1133,"Wuji EPA, Shijiazhuang",,38.17862,114.997012,199,105,31,16,11,20,17,10,1026,63,6,20141011180000
1134,"Shenze Power Supply Bureau, Shijiazhuang",,38.197674,115.219126,178,93,21,16,13,15,17,10,1026,63,6,20141011180000
1135,"Zhaoxian EPA, Shijiazhuang",,37.77171,114.775957,298,148,33,15,16,21,17,10,1026,63,6,20141011180000
1136,"Gaoyi County City Hall, Shijiazhuang",,37.623535,114.612729,297,171,22,16,13,22,17,10,1026,63,6,20141011180000
1137,"Zanhuang County City Hall, Shijiazhuang",,37.672898,114.398269,390,283,30,12,7,12,17,10,1026,63,6,20141011180000
1138,"Jingxing Bureau of Meteorology, Shijiazhuang",,38.038788,114.158406,107,56,21,7,6,14,17,10,1026,63,6,20141011180000
1139,"Pingshan Ye River, Shijiazhuang",,38.266657,114.210275,70,38,27,8,3,9,17,10,1026,63,6,20141011180000
420,Shijiazhuang,,38.042926,114.520834,59,27,22,10,12,12,17,10,1026,63,6,20141011180000
421,"No. 12 middle school, Tangshan",,39.659306,118.190271,298,262,31,54,27,11,-,-,0,-,-,20141011180000
422,"Ceramics Company, Tangshan",,39.669255,118.225185,158,91,20,25,32,31,17,6,1025,48,7,20141011180000
423,"Commodities Bureau, Tangshan",,39.642301,118.191265,248,168,14,40,24,24,17,6,1025,48,7,20141011180000
424,"Leidazhanzi Station, Tangshan",,39.644375,118.150383,248,162,14,26,20,24,17,6,1025,48,7,20141011180000
425,"Supply and marketing cooperatives, Tangshan",,39.632334,118.17232,258,171,19,38,31,26,17,6,1025,48,7,20141011180000
1140,"Guye District City Hall, Tangshan",,39.741379,118.460246,180,114,9,17,40,23,17,6,1025,48,7,20141011180000
1141,"Kaiping Stations, Tangshan",,39.675246,118.275149,151,61,17,15,10,17,17,6,1025,48,7,20141011180000
1142,"Fengnan District City Hall, Tangshan",,39.5834,118.097454,132,78,25,29,15,20,17,6,1025,48,7,20141011180000
1143,"Fengrun City Hall, Tangshan",,39.840355,118.175338,144,61,17,20,18,37,17,6,1025,48,7,20141011180000
1144,"Qianxi EPA, Tangshan",,40.153339,118.317265,46,27,22,15,8,22,17,6,1025,48,7,20141011180000
1145,"Caofeidian Xinli  Primary School, Tangshan",,39.291232,118.462182,249,166,17,47,3,13,17,6,1025,48,7,20141011180000
1146,"Zunhua EPA, Tangshan",,40.206249,117.997315,80,31,31,12,13,20,17,6,1025,48,7,20141011180000
1147,"Qianan No.1 middle school, Tangshan",,40.004248,118.717055,127,49,16,14,13,57,17,6,1025,48,7,20141011180000
1266,"Luannan County , Tangshan",,39.511132,118.686928,171,158,29,25,12,11,17,6,1025,48,7,20141011180000
1267,"Yutian County , Tangshan",,39.908249,117.751417,70,41,15,14,7,29,17,6,1025,48,7,20141011180000
426,Tangshan,,39.632175,118.186472,258,178,27,40,32,31,-,-,0,-,-,20141011180000
427,"City Monitoring Station, Qinhuangdao",,39.958109,119.607773,192,94,19,28,4,13,,,0,,,20141011180000
428,"Beidaihe, Qinhuangdao",,39.829209,119.53194,177,69,16,44,19,10,,,0,,,20141011180000
429,"Shanhai Pass, Qinhuangdao",,40.019298,119.767898,177,109,8,28,7,7,,,0,,,20141011180000
430,"Contruction Plazz, Qinhuangdao",,39.943187,119.542912,173,115,13,49,8,12,,,0,,,20141011180000
431,"City government, Qinhuangdao",,39.93711,119.612769,209,103,1,30,13,13,,,0,,,20141011180000
1148,"Qinglong EPA, Qinhuangdao",,40.419223,118.958002,59,19,38,8,55,34,17,6,0,48,7,20141011180000
1149,"Changli EPA, Qinhuangdao",,39.714369,119.173237,202,133,37,22,9,8,,,0,,,20141011180000
1268,"Lulong County Bureau of Meteorology , Qinhuangdao",,39.901091,118.904857,294,183,28,1,20,20,17,6,0,48,7,20141011180000
432,Qinhuangdao,,39.936485,119.606263,209,115,19,49,13,13,-,-,0,-,-,20141011180000
433,"CongTai Park, Handan",,36.620197,114.501891,245,307,6,26,42,15,17,14,0,81,1,20141011180000
434,"City EPA, Handan",,36.618145,114.518822,307,154,11,70,41,17,17,14,0,81,1,20141011180000
435,"East Sewage Factory, Handan",,36.616064,114.548714,280,318,8,27,5,15,17,14,0,81,1,20141011180000
436,"Mine Hospital, Handan",,36.578149,114.509854,234,178,7,54,18,17,17,14,0,81,1,20141011180000
1150,"Fengfeng mine Inland Revenue Department, Handan",,36.423085,114.245994,273,191,19,33,47,11,18,14,0,66,1,20141011180000
1151,"Shexian EPA, Handan",,36.589084,113.692341,213,133,34,10,11,27,,,0,,,20141011180000
1152,"Ci County Vocational Education Center, Handan",,36.380247,114.390119,249,130,21,45,21,15,,,0,,,20141011180000
1153,"Yongnian government guesthouse, Handan",,36.783297,114.502905,252,175,18,39,54,10,17,14,0,81,1,20141011180000
1154,"Wuan BDA, Handan",,36.686223,114.269009,271,193,10,44,17,22,,,0,,,20141011180000
1085,Handan,,36.625683,114.544812,307,318,11,73,42,17,17,14,0,81,1,20141011180000
437,"Road and Bridge Corporation, Xingtai",,37.096415,114.538799,335,303,9,38,16,19,17,14,1024,81,1,20141011180000
438,"Dahuo fontain, Xingtai",,37.097563,114.488001,285,182,14,18,17,18,17,14,1024,81,1,20141011180000
439,"Xingtai Normal College, Xingtai",,37.053404,114.531819,310,308,16,29,23,16,17,14,1024,81,1,20141011180000
440,"Environment protection office, Xingtai",,37.06253,114.490985,286,288,29,9,17,19,17,14,1024,81,1,20141011180000
1155,"Cultural centers within the mound, Xingtai",,37.293569,114.524873,327,285,29,16,9,27,17,14,1024,81,1,20141011180000
383,Xingtai,,37.071066,114.510749,335,308,29,38,23,19,17,14,1024,81,1,20141011180000
441,"City Monitoring Station, Baoding",,38.871737,115.527103,117,54,20,8,8,9,19,15,1023,72,4,20141011180000
442,"Surface water Company, Baoding",,38.842891,115.467326,179,98,23,32,4,10,19,15,1023,72,4,20141011180000
443,"Huadian II, Baoding",,38.896748,115.528102,13,65,20,4,3,2,19,15,1023,72,4,20141011180000
444,"Reception Center, Baoding",,38.911905,115.477301,154,58,10,9,3,5,19,15,1023,72,4,20141011180000
445,"Film Factory, Baoding",,38.876949,115.448383,164,116,21,8,8,5,19,15,1023,72,4,20141011180000
446,"Natatorium, Baoding",,38.863815,115.499212,85,52,21,10,2,18,19,15,1023,72,4,20141011180000
1156,"Qingyuan City Hall, Baoding",,38.771758,115.502189,80,55,17,11,4,7,19,15,1023,72,4,20141011180000
1157,"Xushui EPA, Baoding",,39.025781,115.668023,-,-,-,-,-,-,-,-,0,-,-,20141011180000
1158,"Zhouzhou Monitoring Stations, Baoding",,39.493241,116.040187,65,37,21,4,6,6,19,15,1023,72,4,20141011180000
1159,"Gaobeidian EPA, Baoding",,39.3329,115.885891,65,41,2,5,10,3,19,15,1023,72,4,20141011180000
447,Baoding,,38.874791,115.471124,179,116,23,32,8,18,19,15,1023,72,4,20141011180000
448,"Century Compound, Zhangjiakou",,40.770279,114.909106,53,6,15,7,4,0,8,4,1032,67,2,20141011180000
449,"North Pumping Station, Zhangjiakou",,40.874362,114.910119,63,6,25,9,1,3,8,4,1032,67,2,20141011180000
450,"Hardware Warehouse, Zhangjiakou",,40.81232,114.887119,9,2,47,46,14,12,8,4,1032,67,2,20141011180000
451,"Tanji Chang, Zhangjiakou",,40.796301,114.89811,57,6,22,10,15,2,8,4,1032,67,2,20141011180000
1160,"Xiahuayuan EPA, Zhangjiakou",,40.509345,115.302442,63,26,23,8,1,2,8,4,1032,67,2,20141011180000
1161,"Huaian EPA, Zhangjiakou",,40.68157,114.398646,70,19,24,16,8,0,8,4,1032,67,2,20141011180000
1162,"Huailai Fuqian Primary School, Zhangjiakou",,40.422204,115.530285,68,39,18,16,28,1,8,4,1032,67,2,20141011180000
1269,"Zhangbei EPA , Zhangjiakou",,41.166775,114.732369,50,13,25,3,5,3,8,4,1032,67,2,20141011180000
1270,"Kangbao County Environmental Protection Agency , Zhangjiakou",,41.837866,114.591246,55,21,29,3,5,2,8,4,1032,67,2,20141011180000
1271,"Guyuan County welfare , Zhangjiakou",,41.669984,115.687401,70,20,24,3,2,3,8,4,1032,67,2,20141011180000
1272,"Shangyi County Environmental Protection Bureau , Zhangjiakou",,41.086638,113.984688,42,24,29,7,7,3,8,4,1032,67,2,20141011180000
1273,"Yuxian Secondary School , Zhangjiakou",,39.84699,114.601986,50,18,27,9,7,1,8,4,1032,67,2,20141011180000
1274,"Yang County Vocational Education Center , Zhangjiakou",,40.106343,114.134732,76,27,29,7,4,3,8,4,1032,67,2,20141011180000
1275,"Wan county Environmental Protection Agency , Zhangjiakou",,40.770459,114.75033,46,23,26,12,3,2,8,4,1032,67,2,20141011180000
473,"Nankou road, Tianjin",,39.174022,117.199688,42,123,8,6,2,6,17,6,1025,48,7,20141011180000
1276,"Zhuolu County Environmental Protection Agency , Zhangjiakou",,40.374273,115.221393,38,20,26,1,2,1,8,4,1032,67,2,20141011180000
452,Zhangjiakou,,40.825744,114.893659,63,8,47,46,15,12,8,4,1032,67,2,20141011180000
453,"Railway, Chengde",,40.917557,117.972331,46,14,36,7,3,0,13,3,1029,40,5,20141011180000
454,"Cultural Center, Chengde",,40.974625,117.824437,65,8,30,2,1,2,13,3,1029,40,5,20141011180000
455,"Bank of China, Chengde",,40.985582,117.958304,63,9,24,3,9,1,13,3,1029,40,5,20141011180000
456,"BDA, Chengde",,40.937567,117.969325,5,22,4,2,3,2,13,3,1029,40,5,20141011180000
457,"Ligong, Chengde",,41.012579,117.94428,124,54,32,4,2,2,13,3,1029,40,5,20141011180000
1163,"Chengde County EPA, Chengde",,40.776643,118.17646,68,27,31,9,1,1,13,3,1029,40,5,20141011180000
1164,"Xinglong County City Hall, Chengde",,40.424301,117.513488,78,31,37,7,11,7,13,3,1029,40,5,20141011180000
1165,"Luanping EPA, Chengde",,40.950792,117.350715,65,18,77,6,2,2,13,3,1029,40,5,20141011180000
1166,"Fengning County City Hall, Chengde",,41.216739,116.658037,25,19,28,1,1,2,13,3,1029,40,5,20141011180000
1277,"Longhua EPA , Chengde",,41.311956,117.739605,68,15,33,5,4,4,13,3,1029,40,5,20141011180000
458,Chengde,,40.955652,117.968737,124,54,36,7,9,2,13,3,1029,40,5,20141011180000
459,"Municipal EPB, Cangzhou",,38.323507,116.876746,119,98,31,18,4,7,17,6,1025,48,7,20141011180000
460,"Cangxian Urban Construction Bureau, Cangzhou",,38.299495,116.890734,157,97,21,12,15,16,17,5,1025,45,8,20141011180000
461,"TV Broadcast Station, Cangzhou",,38.325525,116.863761,155,79,25,16,7,6,17,5,1025,45,8,20141011180000
1167,"Qing County City Hall, Cangzhou",,38.589643,116.815876,91,54,4,11,1,0,17,6,1025,48,7,20141011180000
1168,"Poyoushi City Hall, Cangzhou",,38.089516,116.590575,195,124,23,14,4,10,17,6,1025,48,7,20141011180000
1169,"Huanghua Finance Bureau Training Center, Cangzhou",,38.377793,117.343356,167,79,35,23,4,3,17,6,1025,48,7,20141011180000
462,Cangzhou,,38.305035,116.844625,157,98,31,18,15,16,17,5,1025,45,8,20141011180000
463,"Environmental Monitoring Supervision Center, Langfang",,39.558157,116.720995,21,33,26,3,3,6,17,6,1025,48,7,20141011180000
464,"TCM Medical Material Company, Langfang",,39.519096,116.689914,13,60,20,3,3,6,17,6,1025,48,7,20141011180000
465,"BDA, Langfang",,39.576175,116.779041,34,40,20,2,5,6,17,6,1025,48,7,20141011180000
466,"North China Institute of Aerospace, Langfang",,39.53517,116.743027,30,38,17,2,2,8,17,6,1025,48,7,20141011180000
1170,"Guan Party School, Langfang",,39.446185,116.311026,53,55,24,14,2,5,17,6,1025,48,8,20141011180000
1171,"Xianghe EPA, Langfang",,39.76725,117.015252,50,39,26,9,2,11,17,6,1025,48,7,20141011180000
1172,"Wenan County EPA, Langfang",,38.880927,116.47001,46,51,36,11,4,12,17,6,1025,48,7,20141011180000
1173,"Three Rivers Department of Transportation, Langfang",,39.989419,117.091528,74,21,29,13,2,7,17,6,1025,48,7,20141011180000
1278,"Yongqing EPA , Langfang",,39.329071,116.510917,63,106,29,14,5,4,17,6,1025,48,7,20141011180000
1279,"Dacheng EPA, Langfang",,38.712628,116.665751,139,119,33,14,16,19,17,6,1025,48,7,20141011180000
467,Langfang,,39.539148,116.689668,34,60,26,3,5,8,17,6,1025,48,7,20141011180000
468,"Hengshui City EPB, Hengshui",,37.739679,115.695929,293,171,28,13,14,15,17,8,0,53,6,20141011180000
469,"Environmental Monitoring Station, Hengshui",,37.738593,115.648837,154,190,33,17,9,12,17,8,0,53,6,20141011180000
470,"Electrical Machine North Factory, Hengshui",,37.758686,115.70094,248,182,26,16,11,17,17,8,0,53,6,20141011180000
1174,"Anping EPA, Hengshui",,38.238559,115.537988,80,69,30,12,46,12,17,8,0,53,6,20141011180000
1175,"Jizhou EPA, Hengshui",,37.548552,115.58679,254,161,31,23,12,19,17,8,0,53,6,20141011180000
1280,"Zaoqiang EPA, Hengshui",,37.520698,115.714936,268,176,43,17,14,15,17,8,0,53,6,20141011180000
1281,"Wuyi EPA, Hengshui",,37.801554,115.898697,117,112,27,13,12,13,17,8,0,53,6,20141011180000
1282,"Wuqiang EPA , Hengshui",,38.03557,115.959767,127,60,26,1,6,22,17,8,0,53,6,20141011180000
1283,"Raoyang EPA , Hengshui",,38.230652,115.741041,87,69,36,9,4,11,17,8,0,53,6,20141011180000
1284,"Gucheng County , Hengshui",,37.347569,115.966707,304,160,20,37,15,13,17,8,0,53,6,20141011180000
471,Hengshui,,37.739562,115.676066,293,190,33,17,14,17,17,8,0,53,6,20141011180000
1176,"Xinji City Hall, Xinji",,37.949711,115.230084,142,101,14,1,27,22,17,8,0,53,6,20141011180000
474,"Qinjian street, Tianjin",,39.166588,117.15104,25,47,11,4,1,10,17,6,1025,48,7,20141011180000
475,"Nanjing Road, Tianjin",,39.120958,117.195112,21,62,16,5,2,8,17,6,1025,48,7,20141011180000
476,"Dazhigu No.8 road, Tianjin",,39.111811,117.25147,30,11,13,4,4,6,17,6,1025,48,7,20141011180000
477,"Qianjin street, Tianjin",,39.09371,117.207981,59,43,22,1,3,9,17,6,1025,48,7,20141011180000
478,"Huaihe street, Tianjin",,39.227167,117.191293,25,81,11,7,1,8,17,6,1025,48,7,20141011180000
479,"Xiangshan street, Tianjin",,39.134752,117.275125,61,59,10,11,2,9,17,6,1025,48,7,20141011180000
480,"Yuejin Road, Tianjin",,39.088177,117.320884,50,20,10,8,1,5,17,6,1025,48,7,20141011180000
482,"No.4 street, Tianjin",,39.035228,117.713424,112,89,9,9,2,14,17,6,1025,48,7,20141011180000
483,"Yongming road, Tianjin",,38.840392,117.463805,70,20,26,6,2,16,17,6,1025,48,7,20141011180000
484,"Xinhua street, Tianjin",,39.138671,117.010083,-,-,-,-,-,-,-,-,0,-,-,20141011180000
485,"Jingu Road, Tianjin",,38.985659,117.381254,-,-,-,-,-,-,-,-,0,-,-,20141011180000
486,"Tanggu Yingkou street, Tianjin",,39.021768,117.656454,-,-,-,-,-,-,-,-,0,-,-,20141011180000
487,"Hexi Yijing road, Tianjin",,39.248392,117.798043,-,-,-,-,-,-,-,-,0,-,-,20141011180000
488,"Jianshe Road, Tianjin",,39.720075,117.310588,-,-,-,-,-,-,-,-,0,-,-,20141011180000
489,"Quanzhou South road, Tianjin",,39.373857,117.050329,-,-,-,-,-,-,-,-,0,-,-,20141011180000
490,"Donghuan road, Tianjin",,40.043144,117.451062,-,-,-,-,-,-,-,-,0,-,-,20141011180000
491,"Tuanpowa, Tianjin",,38.920418,117.16299,53,46,14,5,2,5,17,6,1025,48,7,20141011180000
493,"Beiwei No.2 road, Tianjin",,38.943857,116.920624,-,-,-,-,-,-,-,-,0,-,-,20141011180000
494,"Haitai fazhan No.2 road, Tianjin",,39.079608,117.096583,-,-,-,-,-,-,-,-,0,-,-,20141011180000
495,"Hangtian road, Tianjin",,39.152244,117.381309,65,93,11,6,2,10,17,6,1025,48,7,20141011180000
496,"Hanbei road, Tianjin",,39.159768,117.770477,137,83,14,9,3,15,17,6,1025,48,7,20141011180000
497,"Baobai highway, Tianjin",,39.51757,117.349635,-,-,-,-,-,-,-,-,0,-,-,20141011180000
498,Tianjin,,39.085164,117.207281,59,62,22,5,3,9,17,6,1025,48,7,20141011180000
499,"Wolong bridge, Hangzhou",,30.24371,120.132762,132,51,22,12,8,7,20,15,1017,73,3,20141011180000
500,"Hemu primary school, Hangzhou",,30.309669,120.124507,114,51,23,15,9,7,20,15,1017,73,3,20141011180000
501,"Zhejiang Agricultural University, Hangzhou",,30.265601,120.197583,112,40,22,15,11,5,20,15,1017,73,3,20141011180000
502,"Xiasha, Hangzhou",,30.303516,120.352618,144,55,14,17,10,4,20,15,1017,73,3,20141011180000
503,"Yunqi, Hangzhou",,30.178555,120.093142,97,53,29,11,8,8,20,15,1017,73,3,20141011180000
504,"Xixi, Hangzhou",,30.272425,120.068144,117,51,21,16,7,6,20,15,1017,73,3,20141011180000
505,"Chengxiang town, Hangzhou",,30.179493,120.274184,119,51,19,14,11,7,20,15,1017,73,3,20141011180000
506,"Qiandao lake, Hangzhou",,29.638139,119.031092,112,58,51,4,7,3,20,15,1017,73,3,20141011180000
507,"Linping town, Hangzhou",,30.415948,120.305059,117,54,24,13,14,6,20,15,1017,73,3,20141011180000
509,"No.2 Middle School, Hangzhou",,30.044303,119.956356,104,55,26,5,5,6,20,15,1017,73,3,20141011180000
510,"City Hall, Hangzhou",,30.234185,119.723503,89,52,98,3,3,5,20,15,1017,73,3,20141011180000
511,"No. 4 middle school, Hangzhou",,30.229428,119.699591,91,55,-,1,7,6,20,15,1017,73,3,20141011180000
512,Hangzhou,,30.271756,120.159765,172,53,29,16,11,8,20,15,1017,73,3,20141011180000
513,"City Station, Wenzhou",,28.009715,120.679129,95,40,23,12,4,4,18,17,0,91,5,20141011180000
514,"Ouhai, Wenzhou",,28.001846,120.641982,99,50,21,13,3,7,18,17,0,91,5,20141011180000
515,"Longwan, Wenzhou",,27.968122,120.768393,102,54,21,18,6,6,18,17,0,91,5,20141011180000
516,"Nanpu, Wenzhou",,27.981763,120.683685,89,50,21,16,4,9,18,17,0,91,5,20141011180000
517,Wenzhou,,27.990985,120.703425,102,54,23,18,6,9,18,17,0,91,5,20141011180000
518,"Monitoring station, Jiaxing",,30.75437,120.767373,109,54,36,7,7,6,21,16,1016,73,7,20141011180000
519,"Jiaxing University, Jiaxing",,30.745099,120.735004,99,41,36,12,19,5,21,16,1016,73,7,20141011180000
520,"Qinghe Primary School, Jiaxing",,30.775685,120.747969,91,40,34,2,9,6,21,16,1016,73,7,20141011180000
521,Jiaxing,,30.751627,120.762862,109,54,36,12,19,6,21,16,1016,73,7,20141011180000
522,"Chengbei water plant, Huzhou",,30.891155,120.096593,91,52,32,13,5,6,21,17,1017,78,6,20141011180000
523,"Jishan new village, Huzhou",,30.859939,120.120168,104,36,34,10,4,6,21,17,1017,78,6,20141011180000
524,"Town west water plant, Huzhou",,30.862371,120.084577,104,48,34,11,5,5,21,17,1017,78,6,20141011180000
525,Huzhou,,30.892304,120.091694,104,52,34,13,5,6,21,17,1017,78,6,20141011180000
526,"Donghu middle school, Shaoxing",,29.990447,120.647547,153,55,28,19,20,6,20,15,1017,73,3,20141011180000
527,"City EPA station, Shaoxing",,30.001695,120.584318,127,70,28,22,19,4,20,15,1017,73,3,20141011180000
528,"Chengdong BDA committee, Shaoxing",,29.986643,120.613578,112,58,27,22,17,3,20,15,1017,73,3,20141011180000
529,"Paojiang station, Shaoxing",,30.07574,120.62154,117,60,23,24,23,7,20,15,1017,73,3,20141011180000
530,"Shaoxing technical school, Shaoxing",,29.930983,120.577131,97,73,13,16,7,9,20,15,1017,73,3,20141011180000
531,"Library, Shaoxing",,29.706266,120.253183,117,62,23,12,6,11,20,15,1017,73,3,20141011180000
532,"Transporation management station, Shaoxing",,29.726405,120.221602,109,57,25,16,5,10,20,15,1017,73,3,20141011180000
533,"Dongpu Town Governement, Shaoxing",,30.049601,120.539893,134,47,20,21,37,9,20,15,1017,73,3,20141011180000
534,Shaoxing,,29.993122,120.590182,153,73,29,24,37,9,-,-,0,-,-,20141011180000
535,"City Monitoring Station, Jinhua",,29.100031,119.690373,147,55,35,15,12,6,18,18,0,96,2,20141011180000
536,"No.15 middle school, Jinhua",,29.074022,119.652121,139,58,34,17,8,6,18,18,0,96,2,20141011180000
537,"No.4 middle school, Jinhua",,29.110109,119.653654,129,55,31,13,13,7,18,18,0,96,2,20141011180000
538,"Beiyuan, Jinhua",,29.332898,120.083351,117,58,31,11,12,4,18,18,0,96,2,20141011180000
539,"Jiangdong, Jinhua",,29.302486,120.095291,142,59,39,14,10,8,18,18,0,96,2,20141011180000
540,Jinhua,,29.076083,119.65215,147,58,35,17,13,7,18,18,0,96,2,20141011180000
541,"EPA building, Quzhou",,28.937291,118.876081,93,53,21,22,12,7,22,16,1016,64,2,20141011180000
542,"Experimental school, Quzhou",,28.961502,118.880916,95,51,19,33,7,5,22,16,1016,64,2,20141011180000
543,"Quzhou University, Quzhou",,28.971452,118.860052,112,57,21,21,8,7,22,16,1016,64,2,20141011180000
544,Quzhou,,28.966994,118.864252,112,57,23,33,12,7,22,16,1016,64,2,20141011180000
545,"Putuo east port, Zhoushan",,29.951412,122.317679,65,41,44,1,3,3,21,18,1015,83,6,20141011180000
546,"Dinghai tanfeng, Zhoushan",,30.018014,122.126566,63,40,44,1,3,10,21,18,1015,83,6,20141011180000
547,Zhoushan,,29.983049,122.210763,74,51,44,1,3,10,21,18,1015,83,6,20141011180000
548,"Taizhou EPA building, Taizhou",,28.651216,121.42331,70,41,40,2,1,5,19,18,0,92,5,20141011180000
549,"Luqiao Tian Yang Wang, Taizhou",,28.574364,121.381194,72,37,37,2,1,3,19,18,0,92,5,20141011180000
550,"Huangyan EPA building, Taizhou",,28.656151,121.285064,74,36,27,4,1,12,19,18,0,92,5,20141011180000
551,"Yu Zhuang Qian, Lishui",,28.419638,119.883884,137,57,20,19,5,6,22,17,1015,63,1,20141011180000
552,"Monitoring station building, Lishui",,28.444379,119.923103,109,56,27,8,5,5,22,17,1015,63,1,20141011180000
553,"Liandu primary school, Lishui",,28.450912,119.939332,104,51,36,10,4,7,22,17,1015,63,1,20141011180000
554,Lishui,,28.464224,119.927201,137,57,36,19,5,7,22,17,1015,63,1,20141011180000
1248,Jingningxian,,27.977454,119.634837,117,60,10,17,3,5,22,17,1015,63,1,20141011180000
555,Taigu Primary School,,29.864178,121.60022,68,45,34,3,3,4,21,18,1015,83,4,20141011180000
556,Qianhu shuihan,,29.862459,121.5328,74,49,31,4,4,6,21,18,1015,83,4,20141011180000
557,Sanjiang secondary schools,,29.891563,121.568427,78,45,37,22,4,6,21,18,1015,83,4,20141011180000
558,Longsai Hospital,,29.957301,121.726734,63,31,41,14,7,4,21,18,1015,83,4,20141011180000
559,Beilun District EPB,,29.911633,121.850773,70,43,36,9,5,3,21,18,1015,83,4,20141011180000
560,Wanli University,,29.821314,121.574364,65,40,42,9,2,5,21,18,1015,83,4,20141011180000
561,Qianhu water plant,,29.774416,121.648136,65,40,37,10,132,4,21,18,1015,83,4,20141011180000
562,Municipal management station,,29.899182,121.626691,63,68,36,9,5,5,21,18,1015,83,4,20141011180000
1177,Daxie Literary Museum,,29.9027,121.986447,74,51,38,4,3,3,21,18,1015,83,4,20141011180000
1178,Cixi EPB,,30.165807,121.248991,85,55,40,6,3,8,21,18,1015,83,4,20141011180000
1179,Cixi Experimently Primary School,,30.179808,121.268672,76,53,41,6,4,5,21,18,1015,83,4,20141011180000
1180,"Yongsan Park, Yuyao",,30.050842,121.162477,93,53,38,13,4,6,21,18,1015,83,4,20141011180000
1181,"Qilupu Water Company, Yuyao",,30.039112,121.133416,85,48,37,13,6,2,21,18,1015,83,4,20141011180000
1182,Fenghua EPB,,29.666557,121.42069,80,43,40,4,3,6,21,18,1015,83,4,20141011180000
1183,"Yuelong station, Ninghai",,29.296505,121.445872,74,40,36,5,3,5,21,18,1015,83,4,20141011180000
1184,"Wenfeng Primary School, Xiangshan",,29.470908,121.889544,68,45,38,4,3,5,21,18,1015,83,4,20141011180000
1185,"Chengnan Primary School, Ninghai",,29.293812,121.43666,70,40,40,4,4,6,21,18,1015,83,4,20141011180000
1186,"Xingang Primary School, Xiangshan",,29.203878,121.952514,63,41,40,2,3,4,21,18,1015,83,4,20141011180000
1356,Haishu City Monitoring Center,,29.86835,121.539341,74,49,28,4,56,6,21,18,1015,83,4,20141011180000
1357,Fenghua Xikou government,,29.693164,121.29331,65,35,43,3,3,5,21,18,1015,83,4,20141011180000
1294,Ningbo,,29.865766,121.548164,78,68,42,22,132,6,21,18,1015,83,4,20141011180000
1187,Fuyang,,30.046157,119.96468,104,55,26,5,5,6,-,-,0,-,-,20141011180000
1188,Yiwu,,29.304353,120.079794,142,59,39,14,12,8,-,-,0,-,-,20141011180000
1189,Zhuji,,29.711185,120.240748,117,62,25,16,6,11,20,15,1017,73,3,20141011180000
563,"Shanxi Road , Nanjing",,32.06795,118.779216,134,73,17,24,4,4,18,17,1019,94,2,20141011180000
564,"Ruijin Road , Nanjing",,32.029321,118.80817,107,67,8,22,6,5,18,17,1019,94,2,20141011180000
565,"Xuanwu Lake, Nanjing",,32.075423,118.800188,119,69,14,33,4,4,18,17,1019,94,2,20141011180000
566,"Olympic Center, Nanjing",,32.007171,118.742217,102,66,18,12,2,2,18,17,1019,94,2,20141011180000
567,"Xianlin University Town , Nanjing",,32.106958,118.919882,99,57,13,26,5,6,18,17,1019,94,2,20141011180000
568,Nanjing,,32.058179,118.802061,127,72,18,23,6,5,18,17,1019,94,2,20141011180000
569,"Shangfang hill , Suzhou",,31.24502,120.565211,82,41,32,11,6,4,21,16,1016,73,7,20141011180000
570,"Wuzhong District , Suzhou",,31.268105,120.61717,89,31,30,9,6,5,21,16,1016,73,7,20141011190000
571,"Suzhou New District , Suzhou",,31.297277,120.547262,97,44,31,14,7,5,21,16,1016,73,7,20141011190000
572,"Suzhou Industrial Area, Suzhou",,31.307603,120.673257,107,44,35,13,6,5,21,16,1016,73,7,20141011190000
573,"Xiangcheng district, Suzhou",,31.368674,120.645209,78,34,36,8,7,5,21,16,1016,73,7,20141011190000
574,Suzhou,,31.296701,120.589493,107,50,37,16,8,5,21,16,1016,73,7,20141011190000
575,"South suburb , Nantong",,31.957836,120.917218,93,44,42,8,11,3,20,16,1003,79,4,20141011190000
576,"Xinghu park, Nantong",,31.927873,120.944254,85,52,42,11,12,5,20,16,1003,79,4,20141011190000
577,"Zilang school, Nantong",,32.039638,120.814358,124,53,35,8,6,0,20,16,1003,79,4,20141011190000
578,Nantong,,31.978005,120.898555,114,55,42,8,6,8,20,16,1003,79,4,20141011190000
579,Lianyungang,,34.595509,119.226814,152,84,21,27,10,7,8,8,1016,96,0,20141011190000
580,"Hongmen police substation, Lianyungang",,34.588692,119.146693,99,67,25,22,7,5,16,16,1022,96,0,20141011190000
581,"Xugou Nuclear Expert Village , Lianyungang",,34.749957,119.373707,82,68,18,28,11,3,16,16,1022,96,0,20141011190000
582,"Hengrui pharmaceutical company, BDA, Lianyungang",,34.697574,119.353668,91,48,31,23,5,4,16,16,1022,96,0,20141011190000
583,"City Monitoring Station, Lianyungang",,34.586791,119.186929,149,54,34,18,6,6,17,16,1022,99,0,20141011190000
584,"Yellow river new village , Xuzhou",,34.271542,117.177241,162,145,8,44,17,23,15,13,1022,88,0,20141011190000
585,"Tongshan Veterinary Hospital , Xuzhou",,34.307086,117.197766,161,119,7,35,10,13,15,14,1022,93,0,20141011190000
586,"New Town , Xuzhou",,34.213992,117.261718,154,98,9,18,9,7,15,13,1022,88,0,20141011190000
587,"Taoyuan road, Xuzhou",,34.289822,117.249721,161,133,13,21,11,13,15,13,1022,88,0,20141011190000
588,"Agricultural Science Academy , Xuzhou",,34.27655,117.299079,119,94,5,14,11,6,15,13,1022,88,0,20141011190000
589,"Tongshan EPA, Xuzhou",,34.179384,117.171798,97,81,3,18,9,10,15,13,1022,88,0,20141011190000
590,Xuzhou,,34.20346,117.289825,162,105,16,45,24,23,15,13,1022,88,0,20141011190000
591,Yangzhou,,32.39233,119.418446,159,69,10,19,10,5,11,9,0,90,6,20141011190000
592,"Hanjiang Monitoring Station, Yangzhou",,32.374218,119.394484,68,54,23,4,5,3,17,16,0,93,3,20141011190000
593,"No. 4 Hospital, Yangzhou",,32.401394,119.44444,13,55,25,3,13,3,17,16,0,93,3,20141011190000
594,"City Monitoring Station, Yangzhou",,32.406588,119.41591,76,53,20,10,18,3,17,16,0,93,3,20141011190000
595,"University Town , Wuxi",,31.484752,120.273571,107,53,30,9,16,5,21,16,1016,73,7,20141011190000
596,"Shibei High School , Wuxi",,31.619969,120.279584,114,60,32,11,17,6,21,16,1016,73,7,20141011190000
597,"Yuhong Elementary School , Wuxi",,31.561155,120.249588,119,57,32,13,27,7,21,16,1016,73,7,20141011190000
598,Wuxi,,31.488746,120.31575,139,59,32,16,23,9,-,-,0,-,-,20141011190000
599,Changzhou,,31.808037,119.979205,172,86,6,22,36,13,11,9,0,88,5,20141011190000
600,"Chengjian School, Changzhou",,31.776476,119.937681,102,55,26,11,16,5,18,16,1003,91,4,20141011190000
601,"Changzhou Engineering Institute , Changzhou",,31.806828,119.966724,93,49,28,13,6,5,18,16,1003,91,4,20141011190000
602,"Wujin Monitoring Station, Changzhou",,31.701788,119.939676,89,50,25,13,4,6,18,16,1003,91,4,20141011190000
603,"City Monitoring Station, Changzhou",,31.777201,119.979426,95,52,29,12,6,6,18,16,1003,91,4,20141011190000
604,Zhenjiang,,32.18597,119.431281,170,79,4,39,15,13,9,8,0,93,5,20141011190000
605,"New District Administrative office , Zhenjiang",,32.186174,119.685021,102,60,25,18,5,10,18,17,1019,94,2,20141011190000
606,"Vocational Education Center , Zhenjiang",,32.212973,119.496253,99,51,20,12,3,6,18,17,1019,94,2,20141011190000
607,"Dantu Monitoring Station , Zhenjiang",,32.130026,119.435432,-,-,-,-,-,-,-,-,0,-,-,20141011190000
608,"City Monitoring Station, Zhenjiang",,32.202178,119.439766,87,53,28,14,5,12,18,17,1019,94,2,20141011190000
609,"Gaogang Adminstrative office , Taizhoushi",,32.300768,119.886757,129,64,25,7,9,5,17,16,0,93,3,20141011190000
610,"Students Innovation Park , Taizhoushi",,32.461672,119.892761,132,-,27,7,15,3,17,16,0,93,3,20141011190000
611,Taizhoushi,,32.453555,119.927852,139,72,22,17,22,7,17,16,0,93,3,20141011190000
612,"Yancheng power station , Yancheng",,33.400859,120.123067,119,52,33,8,4,4,-,-,0,-,-,20141011190000
613,Yancheng,,33.345939,120.168504,144,52,30,5,3,7,11,10,1016,95,4,20141011190000
614,"Wenfeng Middle School , Yancheng",,33.370531,120.134041,85,46,17,9,16,5,-,-,0,-,-,20141011190000
615,"BDA Management Committe, Yancheng",,33.393191,120.22978,74,30,35,6,5,2,-,-,0,-,-,20141011190000
616,"City Monitoring Station, Yancheng",,33.390623,120.164423,104,55,33,8,2,4,17,16,0,93,3,20141011190000
617,Suqian,,33.960666,118.281004,160,87,24,7,5,7,11,10,0,91,6,20141011190000
618,"Suqian College , Suqian",,33.951472,118.298523,97,50,24,16,4,6,17,16,0,97,2,20141011190000
619,"Suqian Middle School , Suqian",,33.95784,118.249505,117,69,19,20,5,4,17,16,0,97,2,20141011190000
620,"Suyu District Environmental Protection Agency , Suqian",,33.94932,118.326569,139,59,24,7,5,7,17,16,0,97,2,20141011190000
621,"City Monitoring Station, Suqian",,33.956982,118.277022,137,55,13,8,6,6,17,16,0,97,2,20141011190000
622,Taizhou,,28.653436,121.425185,74,37,40,3,1,12,19,18,0,91,5,20141011190000
623,Donghu Liyuan,,30.572324,114.377844,168,69,45,6,3,7,18,16,1020,88,2,20141011190000
624,Yuehu Lake,,30.554662,114.256937,162,75,18,17,5,6,18,16,1020,88,2,20141011190000
625,Hankou Huaqiao ,,30.61724,114.287652,173,78,40,17,4,9,18,16,1020,88,2,20141011190000
626,Wuchang Ziyang ,,30.530801,114.309438,164,73,28,16,2,6,18,16,1020,88,2,20141011190000
627,Qingshan Ganghua,,30.622435,114.375599,174,77,36,20,9,7,18,16,1020,88,2,20141011190000
628,Dunkou Xinou,,30.480091,114.162176,1,89,37,19,7,9,18,16,1020,88,2,20141011190000
629,Donghu Gaoxin,,30.48095,114.40724,164,73,39,12,9,11,18,16,1020,88,2,20141011190000
630,Wujianshan,,30.63114,114.135907,181,76,42,15,0,12,18,16,1020,88,2,20141011190000
631,Yuanshun Road,,30.297142,113.858587,187,83,60,8,3,8,18,16,1020,88,2,20141011190000
632,Wuhan,,30.590689,114.310838,174,78,45,20,9,9,18,16,1020,88,2,20141011190000
1190,"Silingsan Factory, Yichang",,30.713288,111.306585,179,102,19,21,29,7,17,14,1022,81,3,20141011190000
633,Yichang,,30.689528,111.292131,187,112,24,21,29,11,17,14,1022,81,3,20141011190000
633,Yichang,,30.689528,111.292131,187,112,24,21,29,11,17,14,1022,81,3,20141011190000
1191,"City Library , Jingzhou",,30.31494,112.260844,205,124,31,20,15,8,18,14,1021,70,2,20141011190000
1192,"City committee communist party school, Jingzhou",,30.35054,112.20743,192,136,34,10,15,16,18,14,1021,70,2,20141011190000
1193,"kerong EPA, Jingzhou",,30.302965,112.29443,199,133,94,17,13,11,18,14,1021,70,2,20141011190000
634,Jingzhou,,30.332608,112.245451,205,136,94,20,15,16,18,14,1021,70,2,20141011190000
634,Jingzhou,,30.332608,112.245451,205,136,94,20,15,16,18,14,1021,70,2,20141011190000
635,Huangshi,,30.19723,115.043908,157,90,35,18,7,26,18,16,1021,94,2,20141011190000
635,Huangshi,,30.19723,115.043908,157,90,35,18,7,26,18,16,1021,94,2,20141011190000
1194,"Chenjiaying, Huangshi",,30.232823,115.067923,154,78,19,17,1,26,18,,1021,94,2,20141011190000
1195,"Chenjiawan , Huangshi",,30.200422,115.082138,157,83,19,18,6,21,18,,1021,94,2,20141011190000
1196,"Xinxialu, Huangshi",,30.17332,114.954357,142,68,35,12,7,21,18,,1021,94,2,20141011190000
1197,"Tie montian, Huangshi",,30.203885,114.906439,154,90,21,7,1,12,18,,1021,94,2,20141011190000
1198,"BDA, Huangshi",,30.207491,115.031739,154,73,28,1,2,23,18,,1021,94,2,20141011190000
636,Shiyan,,32.627208,110.803311,99,52,14,6,1,2,13,,1023,70,2,20141011190000
636,Shiyan,,32.627208,110.803311,99,52,14,6,1,2,13,,1023,70,2,20141011190000
1199,"Wudang Mountain , Shiyan",,32.392921,111.047655,151,54,20,4,4,5,14,,,69,2,20141011190000
1200,"Riverside Village , Shiyan",,32.647286,110.785335,65,34,14,6,1,1,13,,,70,2,20141011190000
1201,"Liujiagou , Shiyan",,32.636732,110.731129,74,33,9,3,1,9,13,,,70,2,20141011190000
637,Xiangyang,,32.007029,112.128496,222,122,15,12,7,15,17,,1023,76,3,20141011190000
638,Ezhou,,30.389244,114.899884,153,68,35,10,12,11,19,16,1029,89,4,20141011190000
638,Ezhou,,30.389244,114.899884,153,68,35,10,12,11,19,16,1029,89,4,20141011190000
1203,"City government, Ezhou",,30.391836,114.892822,151,52,30,10,12,9,19,,1029,89,4,20141011190000
1204,"Zhaojiaba, Ezhou",,30.368966,114.90365,139,68,35,1,1,11,19,,1029,89,4,20141011190000
1205,"Fankou BDA, Ezhou",,30.410759,114.818225,153,67,34,7,3,7,19,,1029,89,4,20141011190000
639,Jingmen,,31.033208,112.205093,247,123,32,20,16,9,15,14,1016,83,3,20141011190000
639,Jingmen,,31.033208,112.205093,247,123,32,20,16,9,15,14,1016,83,3,20141011190000
640,Xiaogan,,30.922089,113.922387,182,106,34,6,4,12,20,16,1020,77,2,20141011190000
640,Xiaogan,,30.922089,113.922387,182,106,34,6,4,12,20,16,1020,77,2,20141011190000
1206,"wenhua street, Shenyang , Xiaogan",,30.925856,113.92104,183,102,32,6,5,12,18,16,1020,88,2,20141011190000
641,Huanggang,,30.45124,114.877378,147,73,38,17,12,9,19,16,1029,89,4,20141011190000
641,Huanggang,,30.45124,114.877378,147,73,38,17,12,9,19,16,1029,89,4,20141011190000
1208,"Dazhou Island, Huanggang",,30.446205,114.900323,147,73,38,17,12,9,19,,1029,89,4,20141011190000
1209,"Workers Center , Huanggang",,30.469244,114.912504,152,62,36,7,3,11,19,,1029,89,4,20141011190000
642,Xianning,,29.838978,114.327898,160,102,41,12,8,21,18,16,993,98,1,20141011190000
642,Xianning,,29.838978,114.327898,160,102,41,12,8,21,18,16,993,98,1,20141011190000
1210,"Municipal Development and Reform Commission , Xianning",,29.818645,114.328461,157,100,27,14,4,21,18,,993,98,1,20141011190000
1211,"Xianan District Governement, Xianning",,29.51107,114.181864,161,80,5,9,3,14,17,,1002,92,1,20141011190000
1212,"Yangtze River Industrial Park , Xianning",,29.883098,114.32909,155,73,37,9,9,13,18,,993,98,1,20141011190000
1213,"Qianshan Park, Xianning",,29.815351,114.328689,154,71,28,7,4,10,18,,993,98,1,20141011190000
643,Suizhou,,31.688342,113.388675,194,118,43,6,10,16,14,,1017,86,2,20141011190000
643,Suizhou,,31.688342,113.388675,194,118,43,6,10,16,14,,1017,86,2,20141011190000
1338,"City committee communist party school, Suizhou",,31.725316,113.3648,198,130,47,6,6,11,14,,1017,86,2,20141011190000
1339,"Forestry Bureau, Suizhou",,31.690065,113.383157,190,105,45,8,9,14,14,,1017,86,2,20141011190000
645,Xiantao,,30.360228,113.460616,179,104,42,4,5,12,18,16,1030,75,4,20141011190000
645,Xiantao,,30.360228,113.460616,179,104,42,4,5,12,18,16,1030,75,4,20141011190000
1214,"Xiangcheng Yundong Street, Xiangfan",,32.017716,112.16102,183,94,12,6,5,13,17,,1023,76,3,20141011190000
1359,"Fancheng Xinhua Road , Xiangfan",,32.0544,112.145224,157,82,14,9,4,14,17,,1023,76,3,20141011190000
655,"City Environmental Monitoring Station, Baotou",,40.657201,109.886738,80,62,19,12,6,8,,,0,,,20141011190000
656,"Donghe EPB, Baotou",,40.586213,110.002224,68,71,10,26,8,11,,,0,,,20141011190000
657,"Baotou shopping mall, Baotou",,40.508334,109.819085,87,74,16,10,8,6,,,0,,,20141011190000
658,"Huilong logistics, Baotou",,40.633436,109.879821,91,69,15,10,4,2,,,0,,,20141011190000
659,Baotou,,40.658597,109.846051,112,88,19,26,8,11,3,-1,0,71,2,20141011190000
660,"Huatai Automobile Mall, Eerduosi",,39.837048,109.972209,68,60,34,2,1,3,3,-1,1037,71,2,20141011190000
661,"Olympus Garden, Eerduosi",,39.789171,109.987742,63,67,29,4,4,5,3,-1,1037,71,2,20141011190000
662,Eerduosi,,39.609284,109.78704,74,67,34,5,7,5,3,-1,1037,71,2,20141011190000
663,"Tianyi Road, Chifeng",,42.275552,118.88507,30,36,50,1,4,3,10,0,1030,38,3,20141011190000
664,"Songshan No.1 Middle School, Chifeng",,42.329307,118.793045,21,7,39,4,3,3,10,0,1030,38,3,20141011190000
665,"Hada Street, Chifeng",,42.280714,118.988235,38,12,27,5,3,2,10,0,1030,38,3,20141011190000
666,"Songshan Road, Chifeng",,42.171487,118.89501,34,16,46,3,8,2,10,0,1030,38,3,20141011190000
667,Chifeng,,42.259752,118.893027,38,36,50,5,8,3,10,0,1030,38,3,20141011190000
674,Fuzhou,,26.071406,119.301294,85,54,44,14,4,5,23,15,1011,61,2,20141011190000
675,"Xidong, Xiamen",,24.815345,118.161848,91,39,42,9,3,5,23,19,1012,78,1,20141011190000
676,"Hongwen, Xiamen",,24.473969,118.156281,76,51,45,22,7,6,23,19,1012,78,1,20141011190000
677,"Gulangyu, Xiamen",,24.443168,118.068571,102,52,40,24,7,5,23,19,1012,78,1,20141011190000
678,"Huli, Xiamen",,24.51235,118.099146,114,59,27,38,6,4,23,19,1012,78,1,20141011190000
679,Xiamen,,24.477187,118.094402,114,59,40,38,7,5,-,-,0,-,-,20141011190000
680,"Qingyuan Montain, Quanzhou",,24.939503,118.598337,72,32,25,2,3,4,23,19,1012,78,1,20141011190000
681,"Tushan Street, Quanzhou",,24.90867,118.586397,82,64,38,15,10,6,23,19,1012,78,1,20141011190000
682,"Wanan, Quanzhou",,24.304154,118.070903,91,46,33,11,5,5,23,19,1012,78,1,20141011190000
683,Quanzhou,,24.87179,118.68001,107,67,38,17,10,6,23,19,1012,78,1,20141011190000
687,"Jiancaoping, Taiyuan",,37.887889,112.528383,25,30,9,5,3,6,10,2,1029,58,5,20141011190000
688,"Jianhe, Taiyuan",,37.910779,112.579258,13,10,10,4,7,7,10,2,1029,58,5,20141011190000
689,"Shanglan, Taiyuan",,38.011589,112.440679,9,28,9,9,6,6,10,2,1029,58,5,20141011190000
690,"Jinyuan, Taiyuan",,37.713164,112.475552,13,11,4,6,10,6,10,2,1029,58,5,20141011190000
691,"Xiaodian, Taiyuan",,37.782137,112.483533,21,25,11,6,10,7,10,2,1029,58,5,20141011190000
692,"Taoyuan, Taiyuan",,37.869752,112.543332,21,19,6,11,10,9,10,2,1029,58,5,20141011190000
693,"Wucheng, Taiyuan",,37.819998,112.576252,85,35,9,3,4,13,10,2,1029,58,5,20141011190000
694,"Nanzhai, Taiyuan",,37.985902,112.555312,46,25,15,2,7,11,10,2,1029,58,5,20141011190000
695,"Jinsheng, Taiyuan",,37.781205,112.494494,55,32,11,7,8,8,10,2,1029,58,5,20141011190000
696,Taiyuan,,37.871115,112.555178,25,30,9,11,10,9,-,-,0,-,-,20141011190000
697,"Monitoring station, Changzhi",,36.194062,113.10389,57,40,15,16,16,7,16,6,0,52,7,20141011190000
698,"Auditing bureau, Changzhi",,36.212787,113.095221,57,30,9,16,11,6,16,6,0,52,7,20141011190000
699,"Qinghua station, Changzhi",,36.154328,113.116385,38,30,13,16,8,9,16,6,0,52,7,20141011190000
700,"No.8 middle school, Changzhi",,36.185451,113.099481,57,32,8,13,9,16,,,0,,,20141011190000
701,Changzhi,,36.195553,113.12292,89,52,20,16,16,16,14,6,0,49,2,20141011190000
702,"Yungang Hotel, Datong",,40.076997,113.278079,17,8,21,2,5,4,5,4,1032,88,1,20141011190000
703,"college of education, Datong",,40.085608,113.27808,55,14,17,7,3,3,5,4,1032,88,1,20141011190000
704,Datong,,40.078016,113.307143,55,18,27,7,9,13,5,4,1032,88,1,20141011190000
705,"Technical Schools, Linfen",,36.07131,111.509046,38,12,15,14,6,8,6,2,0,70,4,20141011190000
706,"Municipal party committee, Linfen",,36.087425,111.508771,13,15,7,12,6,14,6,2,0,70,4,20141011190000
1073,"City Monitoring Station, Linfen",,36.097676,111.518739,57,23,16,8,23,13,6,2,0,70,4,20141011190000
707,"South Airport, Linfen",,36.041614,111.497968,46,11,6,11,7,21,6,2,0,70,4,20141011190000
708,Linfen,,36.087944,111.525098,57,23,27,10,6,22,6,2,0,70,4,20141011190000
709,"City center, Yangquan",,37.848012,113.578636,42,52,12,12,9,2,10,2,1029,58,5,20141011190000
710,Yangquan,,37.857475,113.586921,57,54,14,35,51,11,10,2,1029,58,5,20141011190000
711,"Water Company, Jincheng",,35.504787,112.857245,25,16,12,13,3,14,11,6,1027,68,1,20141011190000
712,"Baiyun shopping mall, Jincheng",,35.492858,112.841566,30,27,8,5,4,4,11,6,1027,68,1,20141011190000
713,"City EPA, Jincheng",,35.488422,112.858528,50,31,6,2,4,6,11,6,1027,68,1,20141011190000
714,"Institute of Technology, Jincheng",,35.484844,112.878073,46,26,15,10,11,6,11,6,1027,68,1,20141011190000
715,"No.1 middle school, Jincheng",,35.478725,112.838636,61,30,11,10,7,1,11,6,1027,68,1,20141011190000
716,Jincheng,,35.490287,112.85794,61,27,15,13,11,14,11,6,1027,68,1,20141011190000
718,"District Government, Shuozhou",,39.320857,112.430641,82,20,17,13,10,9,9,1,1031,42,5,20141011190000
719,"City EPA, Shuozhou",,39.331495,112.407997,82,25,17,10,11,9,9,1,1031,42,5,20141011190000
720,"No.2 middle school, Shuozhou",,39.377963,112.432877,59,18,19,8,11,6,9,4,1029,64,4,20141011190000
721,Shuozhou,,39.332756,112.439672,82,18,19,12,17,9,9,4,1029,77,4,20141011190000
722,"Jinlun compound, Jinzhong",,37.697891,112.771017,57,45,7,5,7,5,10,2,1029,58,5,20141011190000
723,"Hydraulic Component Factory, Jinzhong",,37.688355,112.725844,46,40,8,12,14,6,10,2,1029,58,5,20141011190000
724,"Nandu compound, Jinzhong",,37.713148,112.732036,42,39,3,7,4,5,10,2,1029,58,5,20141011190000
725,"Yuci district government, Jinzhong",,37.698228,112.714167,30,29,5,4,8,4,10,2,1029,58,5,20141011190000
726,Jinzhong,,37.687705,112.759187,57,34,8,12,14,6,10,2,1029,58,5,20141011190000
727,"Yuncheng Middle School, Yuncheng",,35.012345,111.003215,25,23,16,12,3,12,11,7,1031,67,4,20141011190000
728,"Yudou BDA, Yuncheng",,35.05065,111.029571,34,30,19,6,1,1,11,7,1031,67,4,20141011190000
730,"Regional Technical School, Yuncheng",,35.028727,110.974076,68,21,13,7,0,8,11,7,1031,67,4,20141011190000
731,"Airport new district, Yuncheng",,35.084515,111.05339,53,29,18,4,9,15,11,7,1031,67,4,20141011190000
732,Yuncheng,,35.025675,111.013344,68,29,19,12,9,15,-,-,0,-,-,20141011190000
733,"Jiyin, Xinzhou",,38.413292,112.742432,-,-,-,-,-,-,-,-,0,-,-,20141011190000
734,"BDA, Xinzhou",,38.450069,112.736723,9,77,12,1,6,1,10,2,1029,58,5,20141011190000
735,"Convention Center, Xinzhou",,38.492043,112.709772,21,30,10,2,4,7,10,2,1029,58,5,20141011190000
736,Xinzhou,,38.417244,112.740742,21,77,12,3,8,7,10,2,1029,58,5,20141011190000
737,"City EPA, Luliang",,37.522189,111.144365,5,-,10,6,16,13,14,14,0,93,1,20141011190000
738,"Soybean factory, Luliang",,37.51689,111.135101,46,40,6,3,14,20,14,14,0,93,1,20141011190000
739,"Water Company, Luliang",,37.53394,111.138834,21,37,13,7,1,17,14,14,0,93,1,20141011190000
740,Luliang,,25.027007,103.668566,46,40,13,7,16,20,14,14,0,93,1,20141011190000
741,"City government, Sanmenxia",,34.776251,111.198781,119,58,8,13,4,1,11,7,1031,67,4,20141011190000
743,"BDA, Sanmenxia",,34.800434,111.204332,30,17,11,6,2,2,11,7,1031,67,4,20141011190000
744,Sanmenxia,,34.771506,111.206129,119,48,11,13,4,7,11,7,1031,67,4,20141011190000
745,"Food Factory, Changchun",,43.919094,125.329521,93,120,35,5,3,5,9,6,1025,82,2,20141011190000
746,"Bus Factory, Changchun",,43.912337,125.293431,57,38,24,6,2,5,9,6,1025,82,2,20141011190000
747,"Institute of Posts and Telecommunications, Changchun",,43.842368,125.285005,85,29,19,7,1,6,9,6,1025,82,2,20141011190000
748,"Laodong Park, Changchun",,43.877293,125.371519,42,38,23,5,3,6,9,6,1025,82,2,20141011190000
749,"Forest area, Changchun",,43.871825,125.331519,85,59,28,4,1,8,9,6,1025,82,2,20141011190000
750,"Jinyuetan, Changchun",,43.79031,125.460561,85,51,38,3,1,5,9,6,1025,82,2,20141011190000
751,"Shuaiwanzi, Changchun",,43.552321,125.639086,-,-,-,-,-,-,-,-,0,-,-,20141011190000
752,"Economic Development Zone Sanitation Department, Changchun",,43.869221,125.42365,82,32,33,3,2,5,9,6,1025,82,2,20141011190000
753,"High-tech Zone Administrative Committee, Changchun",,43.819064,125.256375,38,27,30,4,2,5,9,6,1025,82,2,20141011190000
754,"Daishan Park, Changchun",,43.852365,125.223399,93,45,31,4,1,6,9,6,1025,82,2,20141011190000
755,Changchun,,43.819415,125.329977,85,38,23,7,3,6,-,-,0,-,-,20141011190000
756,"Hadawan, Jilin",,43.888081,126.545727,87,53,36,5,13,13,10,7,0,80,4,20141011190000
757,"Fengman, Jilin",,43.768169,126.678802,-,-,-,-,-,-,-,-,0,-,-,20141011190000
758,"Electric Power College, Jilin",,43.827403,126.502281,50,24,50,4,2,5,10,7,0,80,4,20141011190000
759,"Jiangnan Park, Jilin",,43.83531,126.556519,46,20,31,5,4,7,10,7,0,80,4,20141011190000
760,"Dongjuzi, Jilin",,43.838597,126.590068,46,30,27,5,3,8,10,7,0,80,4,20141011190000
763,Jilin,,43.840137,126.555262,87,53,67,11,13,13,10,7,0,80,4,20141011190000
764,"Lingbei, Haerbin",,45.756979,126.548008,63,24,87,3,5,22,9,8,1022,93,4,20141011190000
765,"Songbei Commercial University, Haerbin",,45.818624,126.566963,38,21,97,5,9,8,9,8,1022,93,4,20141011190000
766,"Acheng huining, Haerbin",,45.544286,126.985183,153,73,59,2,4,6,9,8,1022,93,4,20141011190000
767,"Nangang College Street, Haerbin",,45.724121,126.604906,30,21,132,18,2,4,9,8,1022,93,4,20141011190000
768,"Taiping Hongwei Park, Haerbin",,45.775332,126.695101,74,23,94,8,6,7,9,8,1022,93,4,20141011190000
769,"Daowai Chengde Square, Haerbin",,45.768637,126.640955,80,33,62,4,4,7,9,8,1022,93,4,20141011190000
770,"Xiangfang Hongqi Street, Haerbin",,45.733936,126.691083,68,25,18,4,2,27,9,8,1022,93,4,20141011190000
771,"Dongli Heping Road, Haerbin",,45.727765,126.651974,93,55,73,6,6,5,9,8,1022,93,4,20141011190000
772,"Daoli Jianguo Road, Haerbin",,45.749715,126.59891,59,29,99,7,4,5,9,8,1022,93,4,20141011190000
773,"Pingfang Light Factory, Haerbin",,45.611951,126.620898,89,32,22,6,4,10,9,8,1022,93,4,20141011190000
774,"Hulan Normal College, Haerbin",,45.983745,126.616553,151,69,65,3,1,8,9,8,1022,93,4,20141011190000
775,"Provincial Academy of Agricultural Sciences, Haerbin",,45.686141,126.626517,65,47,45,3,5,9,9,8,1022,93,4,20141011190000
776,Haerbin,,45.805757,126.541007,63,21,97,5,9,22,-,-,0,-,-,20141011190000
778,"Farming Vehicule Factory, Qiqihaer",,47.326793,123.961427,38,10,24,1,3,5,5,0,1022,56,2,20141011190000
779,"Fuqu EPA, Qiqihaer",,47.1853,123.62322,17,53,24,1,5,4,5,0,1022,56,2,20141011190000
780,"City Center Square, Qiqihaer",,47.343096,123.96192,0,2,27,1,2,10,5,0,1022,56,2,20141011190000
1217,"City Environmental Monitoring Station, Qiqihaer",,47.303639,123.957551,17,13,25,1,3,4,5,0,1022,56,2,20141011190000
781,Qiqihaer,,47.356387,123.924736,38,53,27,1,5,10,5,0,1022,56,2,20141011190000
782,"Saertu District, Daqing",,46.582368,125.152904,55,15,33,10,6,4,8,6,1022,80,2,20141011190000
783,"Datong District, Daqing",,46.036786,124.842115,25,66,95,1,5,4,8,6,1022,80,2,20141011190000
784,"Honggang District, Daqing",,46.418381,124.88973,63,23,48,3,4,4,8,6,1022,80,2,20141011190000
785,"Longfeng District, Daqing",,46.535426,125.107043,53,30,78,7,7,7,8,6,1022,80,2,20141011190000
786,"Ranghulu District, Daqing",,46.635123,124.85648,70,25,67,5,6,4,8,6,1022,80,2,20141011190000
787,Daqing,,46.591414,125.110838,70,30,95,10,7,7,8,6,1022,80,2,20141011190000
788,"Locomotive Factory, Mudanjiang",,44.610589,129.652672,72,51,29,6,5,3,13,6,1018,52,6,20141011190000
789,"No. 1 hospital, Mudanjiang",,44.567775,129.617043,87,43,33,7,2,2,13,6,1018,52,6,20141011190000
1220,"EPA building, Mudanjiang",,44.567777,129.620658,82,29,33,4,2,2,13,6,1018,52,6,20141011190000
1221,"Cultural Square, Mudanjiang",,44.586388,129.623164,87,34,24,10,4,2,13,6,1018,52,6,20141011190000
790,Mudanjiang,,44.553619,129.640246,87,51,40,10,12,3,13,6,1018,52,6,20141011190000
791,"Mingzhu Plaza, Hefei",,31.782847,117.201512,102,52,76,26,6,5,15,14,1020,94,2,20141011190000
792,"Sanli Street, Hefei",,31.874637,117.312573,107,52,75,12,5,3,15,14,1020,94,2,20141011190000
793,"Hupo Compound, Hefei",,31.868583,117.264491,134,52,49,5,11,3,15,14,1020,94,2,20141011190000
794,"Dongpu Reservoir, Hefei",,31.90319,117.165584,151,73,92,9,3,4,15,14,1020,94,2,20141011190000
795,"Changjiang middle road, Hefei",,31.855185,117.255484,119,56,9,7,2,6,15,14,1020,94,2,20141011190000
796,"Luyang District, Hefei",,31.941771,117.271504,117,68,47,1,17,5,15,14,1020,94,2,20141011190000
797,"Yaohai District, Hefei",,31.856595,117.341644,152,53,21,5,5,11,15,14,1020,94,2,20141011190000
798,"Baohe District, Hefei",,31.793644,117.307554,134,85,8,7,2,6,15,14,1020,94,2,20141011190000
799,"Lake district, Hefei",,31.736619,117.283501,114,84,15,25,3,10,15,14,1020,94,2,20141011190000
800,"High-tech zone, Hefei",,31.849755,117.129624,154,78,9,12,7,6,15,14,1020,94,2,20141011190000
801,Hefei,,31.819449,117.232753,119,56,76,7,2,6,-,-,0,-,-,20141011190000
802,"Hudong Road No.4 Elementary School, Maanshan",,31.684121,118.511017,104,55,38,15,8,6,17,16,1019,94,2,20141011190000
803,"Tianping Garment Factory, Maanshan",,31.64197,118.488043,102,51,83,12,10,10,17,16,1019,94,2,20141011190000
804,"City education base, Maanshan",,31.711216,118.648913,78,36,37,3,3,2,17,16,1019,94,2,20141011190000
805,"Cihu No.2 elementary school, Maanshan",,31.748546,118.515729,124,59,14,19,6,6,17,16,1019,94,2,20141011190000
806,"Maanshan steel factory power plant, Maanshan",,31.690864,118.48528,132,81,23,20,10,8,17,16,1019,94,2,20141011190000
807,Maanshan,,31.668461,118.511939,132,81,83,20,10,10,17,16,1019,94,2,20141011190000
808,"Science Innovation Center, Wuhu",,31.417056,118.375406,72,21,33,4,5,12,17,16,1019,94,2,20141011190000
809,"No.4 Water Plant, Wuhu",,31.315914,118.376231,89,33,13,7,11,12,17,16,1019,94,2,20141011190000
810,"Monitoring station, Wuhu",,31.348955,118.358154,93,45,25,12,11,10,17,16,1019,94,2,20141011190000
811,"Wuqierling Factory, Wuhu",,31.382068,118.407639,99,46,35,3,4,6,17,16,1019,94,2,20141011190000
812,Wuhu,,31.351007,118.438322,99,46,35,12,11,12,17,16,1019,94,2,20141011190000
813,"Jiangxi Foreign Affairs Office, Nanchang",,28.678027,115.903436,189,121,25,9,2,7,22,16,1017,61,2,20141011190000
814,"Provincial forestry company, Nanchang",,28.69065,115.898546,203,109,26,2,2,6,22,16,1017,61,2,20141011190000
815,"Institute of Forestry, Nanchang",,28.731518,115.82478,112,55,33,2,5,9,22,16,1017,61,2,20141011190000
816,"Jingdong town government, Nanchang",,28.680659,115.972736,200,148,34,2,2,5,22,16,1017,61,2,20141011190000
817,"Contruction Industry College, Nanchang",,28.684018,115.865891,151,51,30,16,20,10,22,16,1017,61,2,20141011190000
818,"Xianghu, Nanchang",,28.637831,115.9033,147,69,36,17,18,9,22,16,1017,61,2,20141011190000
819,"Martial Arts School, Nanchang",,28.794538,115.752876,99,47,27,9,10,6,22,16,1017,61,2,20141011190000
820,"Petrifaction Company, Nanchang",,28.608634,115.912999,181,102,34,5,6,8,22,16,1018,57,2,20141011190000
821,"Provincial Station, Nanchang",,28.677155,115.941896,163,119,32,2,3,6,22,16,1017,61,2,20141011190000
822,Nanchang,,28.679883,115.863022,203,150,36,17,20,10,22,16,1017,61,2,20141011190000
939,Sanya,,18.251142,109.515993,152,75,56,12,3,7,23,21,1011,88,1,20141011190000
823,"Lushan Mountain Observatory, Jiujiang",,29.5751,115.998926,76,36,50,10,5,5,12,12,1019,100,9,20141011190000
824,"Shili, Jiujiang",,29.668119,115.992381,109,52,35,5,17,6,12,12,1019,100,9,20141011190000
825,"Maoshantou, Jiujiang",,29.700819,115.967192,80,48,33,4,3,4,12,12,1019,100,9,20141011190000
826,"Xiyuan, Jiujiang",,29.723929,115.998206,82,50,23,8,5,5,12,12,1019,100,9,20141011190000
827,"Wuqierling Factory, Jiujiang",,29.640802,116.022713,87,55,44,6,23,5,12,12,1019,100,9,20141011190000
828,"Water Scientific Research Institute, Jiujiang",,29.679179,116.068081,89,43,30,6,6,4,12,12,1019,100,9,20141011190000
829,"Zonghe Industrial Park, Jiujiang",,29.592047,115.916335,87,50,43,1,12,5,12,12,1019,100,9,20141011190000
830,"Petrochemical General Plant, Jiujiang",,29.738832,116.09463,80,40,28,21,3,3,12,12,1019,100,9,20141011190000
831,Jiujiang,,29.70254,116.007025,109,55,50,21,23,6,12,12,1019,100,9,20141011190000
1332,"Feiyu, Xinyu",,27.844697,115.000136,112,54,39,4,10,,20,,1017,84,1,20141011190000
1333,"Beigang, Xinyu",,27.932491,115.103767,129,67,34,5,14,,20,,1017,84,1,20141011190000
1334,"No.2 water factory, Xinyu",,27.839577,114.933915,114,60,19,3,12,,20,,1017,84,1,20141011190000
1335,"Bureau of Meteorology, Xinyu",,27.81048,114.936507,102,65,37,5,9,,20,,1017,84,1,20141011190000
1336,Xinyu,,27.814351,114.922194,129,67,39,5,14,10,20,16,1017,84,1,20141011190000
832,"Tobacco Factory, Zhengzhou",,34.753419,113.687131,166,72,16,15,16,18,16,6,1023,52,7,20141011190000
833,"Textile Machinery Factory, Zhengzhou",,34.773366,113.647067,174,98,17,13,18,32,16,6,1023,52,7,20141011190000
834,"Banking College, Zhengzhou",,34.800856,113.681126,164,64,10,26,23,15,16,6,1023,52,7,20141011190000
835,"Water Supply Company, Zhengzhou",,34.807188,113.571089,95,67,13,24,24,10,16,6,1023,52,7,20141011190000
836,"Economic Development Zone Management Committee, Zhengzhou",,34.717652,113.733182,114,92,15,22,32,14,17,7,1023,52,6,20141011190000
837,"No. 47 middle school, Zhengzhou",,34.772211,113.74009,91,59,14,15,17,7,16,6,1023,52,7,20141011190000
838,"City Monitoring Station, Zhengzhou",,34.748404,113.60514,129,95,8,13,11,18,16,6,1023,52,7,20141011190000
839,"Henan Medical University, Zhengzhou",,34.752637,113.641658,162,73,20,17,26,17,16,6,1023,52,7,20141011190000
840,"Gangli Reservoir, Zhengzhou",,34.952652,113.64248,127,94,10,16,20,14,16,6,1023,52,7,20141011190000
841,Zhengzhou,,34.745417,113.631415,162,95,20,17,26,18,-,-,0,-,-,20141011190000
842,"Henan University No.1 Hospital, Kaifeng",,34.799302,114.352706,55,55,10,17,18,12,16,6,1023,52,5,20141011190000
843,"Maternity And Child Hospital, Kaifeng",,34.795803,114.386103,53,51,10,10,8,12,16,6,1023,52,5,20141011190000
844,"Cancer Hospital, Kaifeng",,34.775428,114.350292,46,72,11,8,22,10,16,6,1023,52,5,20141011190000
845,"Yellow River Conservancy Institute, Kaifeng",,34.826066,114.324772,170,75,40,9,29,9,16,6,1023,52,5,20141011190000
846,"Shijixing Kindergarden, Kaifeng",,34.793606,114.302744,34,42,4,15,25,16,16,6,1023,52,5,20141011190000
847,Kaifeng,,34.796346,114.313426,55,72,11,17,25,16,16,6,1023,52,5,20141011190000
852,Jiaozuo,,35.215381,113.248188,76,43,15,15,54,12,16,6,1023,52,7,20141011190000
853,"Cotton Research Institute, Anyang",,36.081435,114.486451,204,115,5,33,35,12,17,14,1024,79,1,20141011190000
854,"Hongmiao Street, Anyang",,36.086733,114.326,170,89,3,24,33,24,17,14,1024,79,1,20141011190000
855,"Yinxing Compound, Anyang",,36.056519,114.36495,155,78,5,25,35,23,17,14,1024,79,1,20141011190000
856,"Tiefo Temple, Anyang",,36.110041,114.309309,289,163,3,22,73,36,17,14,1024,79,1,20141011190000
857,Anyang,,36.097767,114.398846,289,89,16,34,73,36,17,14,1024,79,1,20141011190000
858,"City Monitoring Station, Luoyang",,34.669055,112.439633,55,23,4,6,17,3,20,,1022,72,3,20141011190000
859,"BDA Management Committee, Luoyang",,34.622084,112.390759,21,18,6,5,9,2,20,,1022,72,3,20141011190000
860,"New municipal office, Luoyang",,34.623745,112.432973,50,40,16,6,7,16,20,,1022,72,3,20141011190000
861,"City committee communist party school, Luoyang",,34.650169,112.400212,50,27,4,8,8,3,20,,1022,72,3,20141011190000
862,"Henan Forestry College, Luoyang",,34.685566,112.509429,65,20,8,12,19,8,20,,1022,72,3,20141011190000
863,"CITIC No.2 Elementary School, Luoyang",,34.668212,112.36907,59,25,5,11,9,6,20,,1022,72,3,20141011190000
864,"Yuxi Hotel, Luoyang",,34.685949,112.472611,82,34,4,9,18,9,11,,1026,83,5,20141011190000
865,Luoyang,,34.617424,112.46054,82,40,16,12,19,16,11,6,1026,83,5,20141011190000
866,"City Planning Design Institute, Pingdingshan",,33.7352,113.297916,82,55,19,12,18,6,16,6,1023,52,5,20141011190000
867,"Xinhua Hotel, Pingdingshan",,33.737754,113.328814,74,59,13,9,11,7,16,6,1023,52,5,20141011190000
868,"Engineering College, Pingdingshan",,33.772474,113.188235,65,50,14,11,12,4,16,6,1023,52,5,20141011190000
869,"High Voltage Switchgear Factory, Pingdingshan",,33.719941,113.312665,87,68,9,13,18,5,16,6,1023,52,5,20141011190000
870,Pingdingshan,,33.764754,113.199082,87,68,19,13,18,7,16,6,1023,52,5,20141011190000
1303,"City Monitoring Station, Hebi",,35.748411,114.313927,203,144,6,27,14,10,13,,1027,84,1,20141011190000
1304,"BDA, Xinxiang",,35.281373,113.908605,134,52,5,11,16,10,10,,978,85,1,20141011190000
