locationid,stationname,chinesename,latitude,longitude,pm25,pm10,o3,no2,so2,co,temperature,dewpoint,pressure,humidity,wind,est_time
1,Dongcheng Dongsi,,39.9304,116.423239,296,195,6,55,12,23,4,2,1016,87,2,20141104170000
2,"Temple of Heaven, Dongcheng",,39.887403,116.41324,212,122,5,40,2,20,4,2,1016,87,2,20141104170000
3,West Park officials,,39.930333,116.345162,237,133,4,61,10,22,4,2,1016,87,2,20141104170000
4,West Wanshou Nishinomiya,,39.879354,116.358183,248,139,4,52,3,26,4,2,1016,87,2,20141104170000
5,Chaoyang Olympic Sports Center,,39.983406,116.403253,280,155,4,60,10,22,4,2,1016,87,2,20141104170000
6,Chaoyang Agricultural Exhibition Hall,,39.938331,116.46715,287,169,4,57,8,23,4,2,1016,87,2,20141104170000
7,Haidian Wanliu,,39.988245,116.293062,238,140,2,55,8,19,4,2,1016,87,2,20141104170000
8,The Haidian northern New Area,,40.091313,116.180194,223,115,3,36,5,16,4,2,1016,87,2,20141104170000
9,Haidian Beijing Botanical Garden,,40.003252,116.213097,235,118,19,32,15,13,4,2,1016,87,2,20141104170000
10,Fengtai garden,,39.86423,116.285037,268,151,5,55,7,23,4,2,1016,87,2,20141104170000
11,Fengtai Yungang,,39.82535,116.152237,204,108,11,34,10,14,4,2,1016,87,2,20141104170000
12,Shijingshan city,,39.915286,116.190144,208,110,9,43,7,20,4,2,1016,87,2,20141104170000
13,"Fangshan, Liangxiang",,39.743357,116.14225,290,156,4,43,4,23,4,2,1016,87,2,20141104170000
14,"Huangcunzhen, Daxing",,39.719389,116.410219,308,165,4,51,5,21,4,2,1016,87,2,20141104170000
15,BDA,,39.796197,116.51197,250,141,6,40,5,18,4,2,1016,87,2,20141104170000
16,Tongzhou New Town,,39.887113,116.6689,303,189,4,42,22,29,4,2,1016,87,2,20141104170000
17,Shunyi New Town ,,40.128111,116.660908,225,124,4,40,2,23,4,2,1016,87,2,20141104170000
18,Changping Town,,40.218245,116.236084,203,107,13,37,5,16,4,2,1016,87,2,20141104170000
19,"Mentougou, Longquan Town",,39.938397,116.112323,189,92,10,25,5,14,4,2,1016,87,2,20141104170000
20,Pinggu town,,40.144433,117.106563,192,91,11,21,9,13,4,2,1016,87,2,20141104170000
21,Huairou town,,40.329104,116.63387,198,103,15,21,6,18,4,2,1016,87,2,20141104170000
22,The town of Miyun,,40.371186,116.838053,249,138,5,26,5,21,4,2,1016,87,2,20141104170000
23,Yanqing town,,40.454217,115.978106,220,112,17,18,6,16,4,2,1016,87,2,20141104170000
24,Changping Dingling,,40.293269,116.226108,208,101,17,29,9,13,4,2,1016,87,2,20141104170000
25,Badaling Northwest,,40.36623,115.994146,196,106,18,27,8,12,4,2,1016,87,2,20141104170000
26,Miyun Reservoir,,40.500157,116.91701,233,117,22,12,7,18,4,2,1016,87,2,20141104170000
27,"Donggaocun Zhen, Pinggu",,40.10142,117.126556,187,100,22,23,20,10,4,2,1016,87,2,20141104170000
28,"Yongledianzhen, Tongzhou",,39.713192,116.78905,320,168,2,34,8,21,4,2,1016,87,2,20141104170000
29,"Yufazhen, Daxing",,39.521203,116.306026,205,284,6,23,2,10,4,2,1016,87,2,20141104170000
30,"Liulihezhen, Fangshan",,39.581169,116.006089,299,180,11,30,3,14,4,2,1016,87,2,20141104170000
31,"Qianmen E St, Dongcheng",,39.900402,116.401242,267,134,1,46,2,23,4,2,1016,87,2,20141104170000
32,Yongdingmen Inner St,,39.877401,116.400238,276,153,2,54,12,31,4,2,1016,87,2,20141104170000
33,Xizhimen N St,,39.955352,116.355187,277,154,4,52,11,29,4,2,1016,87,2,20141104170000
34,South Ring Road,,39.857377,116.37421,289,157,1,66,13,26,4,2,1016,87,2,20141104170000
35,East Fourth Ring Road,,39.940273,116.489075,315,159,2,40,3,28,4,2,1016,87,2,20141104170000
36,Beijing,,39.955906,116.474246,289,195,6,55,12,23,4,2,1016,87,1,20141104170000
37,Putuo,,31.232979,121.415378,88,45,34,23,6,4,14,8,1021,67,2,20141104170000
38,Yangpu Sipiao,,31.263795,121.540311,124,51,22,39,5,8,14,8,1021,67,2,20141104170000
39,Shanghai Normal College Primary Division,,31.199031,121.487719,129,57,20,45,6,10,14,8,1021,67,2,20141104170000
40,Dianshan Lake,,31.091338,120.982293,158,83,12,43,7,7,14,8,1021,67,2,20141104170000
41,Hongkou Liangcheng,,31.298906,121.47155,87,45,27,37,7,8,14,8,1021,67,2,20141104170000
42,Jingan,,31.224251,121.429637,90,43,28,32,7,5,14,8,1021,67,2,20141104170000
43,Shanghai Normal University,,31.163531,121.416643,117,53,20,51,8,7,14,8,1021,67,2,20141104170000
44,Chuansha,,31.188626,121.707342,91,44,22,26,5,5,14,8,1021,67,2,20141104170000
45,Zhangjiang,,31.204896,121.581215,112,51,20,34,5,8,14,8,1021,67,2,20141104170000
46,Lingshan Road,,31.226286,121.537317,93,46,37,21,4,3,14,8,1021,67,2,20141104170000
1080,City average,,31.228451,121.478227,102,49,25,34,6,6,14,8,1021,67,2,20141104170000
47,Shanghai,,31.202842,121.453493,89,60,29,48,6,6,14,8,1021,67,2,20141104170000
48,Guangzhou,,23.138517,113.263701,161,92,17,42,17,13,22,13,1018,57,0,20141104170000
49,"Huadu town, Guangzhou",,23.389121,113.220062,167,77,32,25,24,7,22,13,1018,57,0,20141104170000
50,"Luogang Zhenlong, Guangzhou",,23.308027,113.567032,174,106,27,24,7,11,22,13,1018,57,0,20141104170000
51,"LuHu, Guangzhou",,23.151743,113.281842,155,67,12,35,12,13,22,13,1018,57,0,20141104170000
52,"Tianhu, Guangzhou",,23.647433,113.629715,53,55,47,4,7,8,22,13,1018,57,0,20141104170000
53,"Zhudong, Guangzhou",,23.418406,113.078552,167,77,32,25,24,8,22,13,1018,57,0,20141104170000
54,"Modiesha station, Guangzhou",,23.103814,113.338238,134,89,21,63,10,7,22,13,1018,57,0,20141104170000
55,Zhuhai,,22.2677,113.581765,147,67,26,12,9,12,24,19,1017,73,5,20141104170000
1075,"Huicai technical school, Foshan",,23.039667,113.105492,187,121,14,56,42,12,22,13,1018,57,0,20141104170000
56,"Sanshuiyun donghai, Foshan",,23.185788,112.865368,169,93,17,45,31,13,22,13,1018,57,0,20141104170000
57,"Nanhai Bureau of Meteorology, Foshan",,23.046836,113.145764,172,106,13,61,42,17,22,13,1018,57,0,20141104170000
58,"Sanshui Monitoring Station, Foshan",,23.163551,112.890843,170,104,14,43,41,9,22,13,1018,57,0,20141104170000
1087,Foshan,,23.018995,113.126899,172,106,13,61,42,17,22,13,1017,57,1,20141104170000
59,"Ronggui street committee, Shunde",,22.762729,113.258356,180,133,8,63,33,16,22,13,1018,57,0,20141104170000
60,Shunde,,22.80246,113.298701,170,109,9,66,24,10,-,-,0,-,-,20141104170000
61,"Donghu, Jiangmen",,22.590411,113.087351,171,89,14,29,28,9,24,19,1017,73,5,20141104170000
62,"Taoyuan Atmosphere Premier Station, Jiangmen",,22.72489,112.93404,175,115,18,28,20,13,24,19,1017,73,5,20141104170000
63,Jiangmen,,22.576047,113.087351,171,89,14,29,28,9,24,19,1017,73,5,20141104170000
64,"Kengkouzi station, Zhaoqing",,23.158865,112.570287,158,66,28,13,17,10,22,13,1018,57,0,20141104170000
65,"Mugangzi station, Zhaoqing",,23.067961,112.431934,168,88,18,26,12,16,22,13,1018,57,0,20141104170000
67,Zhaoqing,,23.044571,112.470346,157,71,30,13,19,6,22,13,1017,57,1,20141104170000
68,"Jinguo Bay, Huizhou",,22.937223,114.385567,137,62,96,6,6,8,23,17,1018,69,3,20141104170000
1091,"Xiabu, Huizhou",,23.077493,114.410275,139,61,44,7,5,4,23,17,1018,69,3,20141104170000
69,"Xijiao, Huizhou",,23.338178,114.112867,152,59,35,12,12,9,23,17,1018,69,3,20141104170000
70,"Jiangbei, Huizhou",,23.111706,114.415274,144,69,52,6,7,7,23,17,1018,69,3,20141104170000
71,"Huiyang chuanhu, Huizhou",,22.814485,114.329292,102,46,50,6,6,9,23,17,1018,69,3,20141104170000
72,"Daya bay management committee, Huizhou",,22.739283,114.53631,99,42,66,4,5,6,23,17,1018,69,3,20141104170000
73,Huizhou,,23.109349,114.421164,144,69,52,6,7,7,23,17,1018,69,3,20141104170000
74,"Guancheng No.2 water plant, Dongguan",,23.057294,113.753254,178,99,23,36,12,11,23,17,1018,69,3,20141104170000
75,"Dongcheng Shijing, Dongguan",,23.010039,113.799529,165,77,26,43,10,9,23,17,1018,69,3,20141104170000
76,"Nancheng Xiping, Dongguan",,22.963051,113.743494,166,97,15,46,14,10,23,17,1018,69,3,20141104170000
77,"Nancheng Yuanling, Dongguan",,23.025058,113.751308,169,84,28,39,12,10,23,17,1018,69,3,20141104170000
78,Dongguan,,23.017813,113.756958,169,84,28,39,12,10,23,17,1018,69,3,20141104170000
79,"Zimaling, Zhongshan",,22.505112,113.407183,172,93,15,29,18,5,24,19,1017,73,4,20141104170000
80,"Yangtze River tourist area, Zhongshan",,22.48589,113.439054,164,82,12,21,10,11,24,19,1017,73,4,20141104170000
81,"Huabai Park, Zhongshan",,22.51839,113.374362,165,93,14,36,17,19,24,19,1017,73,4,20141104170000
82,Zhongshan,,22.513997,113.398277,172,93,15,29,18,5,24,19,1017,73,4,20141104170000
83,"No.8 middle school, Shaoguan",,24.767777,113.583537,153,68,32,17,24,9,18,11,1019,51,1,20141104170000
83,"No.8 middle school, Shaoguan",,24.767777,113.583537,153,68,32,17,24,9,18,11,1019,51,1,20141104170000
84,"Forest area, Shaoguan",,24.796106,113.612131,151,73,33,9,24,8,18,11,1019,51,1,20141104170000
84,"Forest area, Shaoguan",,24.796107,113.612131,151,73,33,9,24,8,18,11,1019,51,1,20141104170000
86,"Shaoguan University, Shaoguan",,24.790864,113.646598,151,56,31,14,11,6,18,11,1019,51,1,20141104170000
86,"Shaoguan University, Shaoguan",,24.790864,113.646599,151,56,31,14,11,6,18,11,1019,51,1,20141104170000
88,"Qujiang Monitoring Station, Shaoguan",,24.683042,113.60157,176,94,30,35,16,9,18,11,1019,51,1,20141104170000
88,"Qujiang Monitoring Station, Shaoguan",,24.683042,113.60157,176,94,30,35,16,9,18,11,1019,51,1,20141104170000
89,Shaoguan,,24.807342,113.602712,151,73,33,9,24,8,18,11,1019,51,1,20141104170000
90,"Chaonanzi Station, Shantou",,23.251213,116.406762,151,95,43,14,10,8,19,17,1019,88,2,20141104170000
91,Shantou,,23.350642,116.686306,91,54,47,10,8,12,19,17,1019,88,2,20141104170000
92,"City Environmental Monitoring Station, Zhanjiang",,21.220431,110.397317,102,75,55,8,6,12,23,20,1016,78,4,20141104170000
93,"EPB Dormitory, Zhanjiang",,21.197376,110.406487,152,62,50,9,8,6,23,20,1016,78,4,20141104170000
94,"Xiashan Swimming Park, Zhanjiang",,21.200431,110.415655,152,58,48,6,9,11,23,20,1016,78,4,20141104170000
95,"Zhanjiang Theatre, Zhanjiang",,21.268177,110.366445,161,63,55,8,6,27,23,20,1016,78,4,20141104170000
96,"Mazhang EPA, Zhanjiang",,21.265486,110.335993,153,61,20,9,8,14,23,20,1016,78,4,20141104170000
97,"Potou District EPB, Zhanjiang",,21.247604,110.454508,152,67,43,9,6,16,23,20,1016,78,4,20141104170000
98,Zhanjiang,,21.26832,110.363883,161,63,55,9,6,27,23,20,1016,78,4,20141104170000
99,"Maogang sub-office EPB, Maoming",,21.466435,111.033462,159,79,38,6,9,8,23,21,0,85,5,20141104170000
100,"Petrochemical No. 7 elementaty school, Maoming",,21.648905,110.937861,154,59,38,6,5,12,23,21,0,85,5,20141104170000
101,"Jiankang road, Maoming",,21.662211,110.909482,149,62,22,10,5,14,23,21,0,85,5,20141104170000
102,"Gaoling, Maoming",,21.690558,110.871146,149,70,24,28,32,11,23,21,0,85,5,20141104170000
1094,Maoming,,21.660223,110.929968,149,62,22,10,5,14,23,21,0,85,5,20141104170000
103,"Jiaying University, Meizhou",,24.325415,116.12816,158,69,40,6,8,12,19,17,1019,88,2,20141104170000
104,"Mexian new town, Meizhou",,24.269283,116.084546,166,102,24,22,8,13,19,17,1019,88,2,20141104170000
105,"Environmental Monitoring Center, Meizhou",,24.262778,116.129621,159,86,27,24,8,13,19,17,1019,88,2,20141104170000
1095,Meizhou,,24.285988,116.127065,159,86,27,24,8,13,19,17,1019,88,2,20141104170000
106,"City EPA, Shanwei",,22.772349,115.370227,97,47,62,6,6,9,21,17,1019,65,2,20141104170000
107,"City government, Shanwei",,22.787161,115.375536,114,54,65,7,8,7,21,17,1019,65,2,20141104170000
108,"Xincheng Middle School, Shanwei",,22.789851,115.367124,104,51,41,6,4,12,21,17,1019,65,2,20141104170000
1099,Shanwei,,22.783576,115.38022,104,51,41,6,4,12,21,17,1019,65,2,20141104170000
109,"No.3 elementary school, Heyuan",,23.755946,114.699091,156,58,23,16,16,13,22,12,1018,46,1,20141104170000
109,"No.3 elementary school, Heyuan",,23.75435,114.703514,156,58,23,16,16,13,22,12,1018,46,1,20141104170000
111,"City water company, Heyuan",,23.754246,114.682459,95,71,31,22,17,10,22,12,1018,46,1,20141104170000
111,"City water company, Heyuan",,23.688709,114.954652,95,71,31,22,17,10,22,12,1018,46,1,20141104170000
113,"Heyuan high school, Heyuan",,23.720037,114.699563,89,49,32,15,16,9,22,12,1018,46,1,20141104170000
113,"Heyuan high school, Heyuan",,23.720666,114.693879,89,49,32,15,16,9,22,12,1018,46,1,20141104170000
115,Heyuan,,23.740888,114.705147,89,49,32,15,16,9,22,12,1018,46,1,20141104170000
116,"Yuanyang Lake, Yangjiang",,21.855869,111.983676,183,106,21,39,28,14,21,15,1018,60,4,20141104170000
1100,Yangjiang,,21.855227,111.987308,183,106,21,39,28,14,21,15,1018,60,4,20141104170000
118,"Town governement, Qingyuan",,23.708005,113.026215,159,94,17,36,25,15,22,13,1018,57,0,20141104170000
119,"Fupin district, Qingyuan",,23.624781,113.067713,132,71,12,24,19,17,22,13,1018,57,0,20141104170000
121,"Environment protection office, Qingyuan",,23.691109,113.047948,172,110,18,32,22,12,22,13,1018,57,0,20141104170000
121,"Environment protection office, Qingyuan",,23.685931,113.053239,172,110,18,32,22,12,22,13,1018,57,0,20141104170000
123,"Fengcheng Subdistrict, Qingyuan",,23.695447,113.068189,159,94,17,36,25,15,22,13,1018,57,0,20141104170000
124,Qingyuan,,23.679304,113.061513,172,110,18,32,22,12,22,13,1017,57,1,20141104170000
125,"Xiyuan Road, Chaozhou",,23.668654,116.638272,107,39,73,6,5,10,19,17,1019,88,2,20141104170000
126,"Archives Bureau, Chaozhou",,23.667881,116.649104,85,40,93,8,6,12,19,17,1019,88,2,20141104170000
127,"Municipal Corporation, Chaozhou",,23.65035,116.621859,80,44,57,5,5,15,19,17,1019,88,2,20141104170000
1101,Chaozhou,,23.654204,116.626969,80,44,57,5,5,15,19,17,1019,88,2,20141104170000
128,"Donghu Park, Jieyang",,23.532877,116.374427,93,39,43,11,15,8,19,17,1019,88,2,20141104170000
129,"Yuhu Middle School, Jieyang",,23.52682,116.414123,129,50,33,17,26,9,19,17,1019,88,2,20141104170000
130,"Experimental Primary School, Jieyang",,23.571473,116.364137,102,43,38,18,13,11,19,17,1019,88,2,20141104170000
1102,Jieyang,,23.547596,116.37754,93,39,43,11,15,8,19,17,1019,88,2,20141104170000
131,"City Environmental Monitoring Station, Yunfu",,22.936779,112.042248,91,64,9,24,16,13,22,13,1018,57,0,20141104170000
132,"The new city government headquarters, Yunfu",,22.914275,112.044475,171,90,9,23,15,22,22,13,1018,57,0,20141104170000
133,"Muyang police sub-station, Yunfu",,22.951267,112.05923,129,53,11,31,21,15,22,13,1018,57,0,20141104170000
1103,Yunfu,,22.912436,112.049811,171,90,9,23,15,22,22,13,1017,57,1,20141104170000
134,Yantian,,22.587949,114.266899,-,-,-,-,-,-,-,-,0,-,-,20141104170000
135,Kwai Chung,,22.572837,113.867166,153,67,18,19,4,14,23,17,1018,69,3,20141104170000
135,Kwai Chung,,22.354168,114.134558,153,67,18,19,4,14,23,17,1018,69,3,20141104170000
137,Nanyou,,22.513802,113.928051,152,71,34,8,7,12,23,17,1018,69,3,20141104170000
138,Meisha,,22.59611,114.318345,129,58,41,1,7,11,23,17,1018,69,3,20141104170000
139,Xi xiang,,22.717524,114.252304,152,56,39,9,8,12,23,17,1018,69,3,20141104170000
140,Liyuan,,22.54732,114.101205,129,59,28,9,4,13,23,17,1018,69,3,20141104170000
1072,Kwai Chung,,22.627947,114.428875,139,56,30,7,4,13,23,17,1018,69,3,20141104170000
1072,Kwai Chung,,22.354168,114.134558,139,56,30,7,4,13,23,17,1018,69,3,20141104170000
141,OCT,,22.539549,113.992458,151,57,31,12,5,14,23,17,1018,69,3,20141104170000
142,Honghu,,22.559647,114.121976,153,39,44,16,5,10,23,17,1018,69,3,20141104170000
143,Mission Hills,,22.694131,114.050496,152,70,25,15,4,15,23,17,1018,69,3,20141104170000
144,Shenzhen,,22.540382,114.062982,153,71,44,19,8,15,-,-,0,-,-,20141104170000
145,Chengdu,,30.622581,104.069564,174,105,4,32,15,9,12,9,1021,82,1,20141104170000
146,"Jinquan lianghe, Chengdu",,30.710359,103.974209,-,-,-,-,-,-,-,-,0,-,-,20141104170000
147,"Shilidian, Chengdu",,30.684718,104.17845,173,114,3,25,10,10,13,9,1021,77,1,20141104170000
148,"Sanwayao, Chengdu",,30.568159,104.081524,159,107,,,,9,13,9,1021,77,1,20141104170000
149,"Shahepu, Chengdu",,30.633685,104.120536,170,110,4,33,12,14,13,9,1021,77,1,20141104170000
150,"Liang Lane, Chengdu",,30.682601,104.076522,171,106,14,33,15,10,13,9,1021,77,1,20141104170000
151,"Caotang Temple, Chengdu",,30.651891,104.0284,165,105,4,32,15,9,13,9,1021,77,1,20141104170000
152,"Lingyansi, Chengdu",,31.025729,103.615022,154,68,20,16,7,4,13,9,1021,77,1,20141104170000
153,"Fuleshan, Mianyang",,31.472493,104.7806,117,60,20,11,6,7,14,9,1020,59,3,20141104170000
154,"High-tech Zone Water Company, Mianyang",,31.463309,104.674293,153,65,16,19,11,6,14,9,1020,59,3,20141104170000
155,"No.3 water company, Mianyang",,31.505002,104.731054,132,59,17,21,4,4,14,9,1020,59,3,20141104170000
156,Mianyang,,31.465174,104.681731,153,65,20,21,11,7,14,9,1020,59,3,20141104170000
157,"Dongshan Park, Deyang",,31.118648,104.424587,152,89,9,20,4,7,13,9,1021,77,1,20141104170000
158,"Xixiaoqu, Deyang",,31.131159,104.390972,154,66,10,13,4,9,13,9,1021,77,1,20141104170000
159,"City Procuratorate, Deyang",,31.114554,104.407986,132,61,5,17,1,9,13,9,1021,77,1,20141104170000
160,"Refractory Factory, Deyang",,31.108606,104.356506,156,80,16,16,5,6,13,9,1021,77,1,20141104170000
161,Deyang,,31.124715,104.400703,156,89,16,20,5,9,13,9,1021,77,1,20141104170000
162,"Nongnongping, Panzhihua",,26.566698,101.695438,80,63,9,25,9,10,16,9,0,53,0,20141104170000
163,"Hemenkou, Panzhihua",,26.589072,101.578312,82,51,13,13,7,15,16,9,0,53,0,20141104170000
164,"Bingcaogang, Panzhihua",,26.58143,101.718473,70,54,6,12,12,17,16,9,0,53,0,20141104170000
165,"Renhe, Panzhihua",,26.498166,101.746887,42,41,6,19,4,16,16,9,0,53,0,20141104170000
166,"Jinjina, Panzhihua",,26.553226,101.84862,97,120,7,13,9,16,16,9,0,53,0,20141104170000
167,Panzhihua,,26.578779,101.720211,97,120,13,25,12,17,16,9,0,53,0,20141104170000
168,"Shima Middle School, Yibin",,28.815979,104.599199,160,80,10,13,12,9,14,11,1022,75,0,20141104170000
169,"Municipal party committee, Yibin",,28.762654,104.624834,160,74,8,17,10,9,14,11,1022,75,0,20141104170000
170,"No. 4 middle school, Yibin",,28.783257,104.608407,172,92,7,17,7,6,14,11,1022,75,0,20141104170000
171,"City government, Yibin",,28.760477,104.644079,180,104,7,19,14,7,14,11,1022,75,0,20141104170000
172,"Huangjinzui, Yibin",,28.712319,104.578389,164,98,6,15,20,9,14,11,1022,75,0,20141104170000
173,"Shaping Middle School, Yibin",,28.795569,104.681393,168,110,11,12,9,7,14,11,1022,75,0,20141104170000
174,Yibin,,28.748384,104.645766,180,110,11,19,20,9,14,11,1022,75,0,20141104170000
175,"Datang Hill, Zigong",,29.359969,104.757388,199,117,10,15,11,8,13,10,0,78,1,20141104170000
176,"Yanma Road, Zigong",,29.355752,104.724036,211,130,12,20,23,6,13,10,0,78,1,20141104170000
177,"Tanmulin Street, Zigong",,29.353555,104.777397,180,61,20,11,13,7,13,10,0,78,1,20141104170000
178,"Chunhua Road, Zigong",,29.33825,104.771895,184,103,15,15,18,8,13,10,0,78,1,20141104170000
179,Zigong,,29.33617,104.781138,211,130,20,20,23,8,13,10,0,78,1,20141104170000
180,"Jiushi Hill, Luzhou",,28.955347,105.434207,137,56,17,6,6,6,15,11,0,80,1,20141104170000
181,"Xiaoshishang Port, Luzhou",,28.899583,105.447192,132,59,11,10,10,7,15,11,0,80,1,20141104170000
182,"Lantianxian Bridge, Luzhou",,28.852766,105.4358,117,65,8,18,4,3,15,11,0,80,1,20141104170000
183,"City Environment Monitoring Station, Luzhou",,28.895898,105.435802,147,56,5,17,7,5,15,11,0,80,1,20141104170000
184,Luzhou,,28.868782,105.445938,147,65,17,18,10,7,15,11,0,80,1,20141104170000
185,"City Committee, Nanchong",,30.799993,106.082906,109,67,21,14,3,4,16,10,1019,64,1,20141104170000
186,"Refinery Factory, Nanchong",,30.819412,106.10712,153,69,27,22,8,3,16,10,1019,64,1,20141104170000
187,"Gaoping District Monitoring Station, Nanchong",,30.783291,106.110417,152,61,10,28,24,9,16,10,1019,64,1,20141104170000
188,"Jialing District EPB, Nanchong",,30.761255,106.06818,127,59,12,35,7,3,16,10,1019,64,1,20141104170000
189,"City Environmental Monitoring Station, Nanchong",,30.836519,106.11272,132,63,12,19,11,7,16,10,1019,64,1,20141104170000
190,Nanchong,,30.835511,106.114717,153,69,27,35,24,9,16,10,1019,64,1,20141104170000
1249,"City Monitoring Station, Neijiang",,29.592673,105.036234,161,63,7,17,18,8,13,10,0,78,1,20141104170000
1250,"Dongxing District Government , Neijiang",,29.592148,105.074966,154,63,6,17,8,5,13,10,0,78,1,20141104170000
1251,"No 2 middle school, Neijiang",,29.579135,105.068548,164,77,6,21,20,5,13,10,0,78,1,20141104170000
1252,Neijiang,,29.577653,105.06166,164,77,7,21,20,8,13,10,0,78,1,20141104170000
1253,"City Monitoring Station, Suining",,30.610641,105.683583,144,73,44,26,8,24,14,9,0,75,1,20141104170000
1254,"Administrative center , Suining",,30.63206,105.819747,161,92,80,-,8,7,14,9,0,75,1,20141104170000
1255,Suining,,30.530053,105.596307,161,92,80,26,27,24,14,9,0,75,1,20141104170000
1256,"City Monitoring Station, Leshan",,29.560651,103.759211,161,82,18,23,15,8,12,7,0,71,2,20141104170000
1257,"Leshan Giant Buddha Scenic Area , Leshan",,29.543938,103.772706,162,79,20,17,10,9,12,7,0,71,2,20141104170000
1258,Leshan,,29.54935,103.767777,167,88,20,28,22,9,12,7,0,71,2,20141104170000
1259,"Heilongtan , Meishan",,30.047726,103.900649,171,54,23,25,3,4,13,9,1021,77,1,20141104170000
1260,"Bureau of Meteorology, Meishan",,30.084591,103.843715,169,102,10,33,13,8,13,9,1021,77,1,20141104170000
1261,"Xuguang Community , Meishan",,30.066277,103.8516,170,93,12,35,13,7,13,9,1021,77,1,20141104170000
1262,"City Monitoring Station, Meishan",,30.059205,103.836229,172,103,6,32,14,7,13,9,1021,77,1,20141104170000
1263,Meishan,,30.072618,103.85064,172,103,12,35,14,8,13,9,1021,77,1,20141104170000
1264,"Ziyang middle school, Ziyang",,30.147763,104.638024,114,63,25,13,16,7,13,10,0,78,1,20141104170000
1265,Ziyang,,30.126054,104.63004,114,63,25,19,36,8,13,10,0,78,1,20141104170000
191,Shenyang US Consulate,,41.785668,123.432865,163,79,,17,46,,11,-1,1015,44,4,20141104170000
192,"Huishan, Shenyang",,41.835421,123.647773,171,104,25,22,17,11,11,1,1015,50,4,20141104170000
193,"Hunnan, Shenyang",,41.758263,123.540809,173,115,28,17,44,11,11,-1,1015,44,4,20141104170000
194,"Zhangshi, Shenyang",,41.771679,123.289859,168,116,16,20,26,12,11,1,1015,50,4,20141104170000
195,"Artillery College, Shenyang",,41.835749,123.547799,117,92,30,19,34,11,11,-1,1015,44,4,20141104170000
196,"Beiling, Shenyang",,41.849633,123.434146,171,108,14,30,28,10,11,1,1015,50,4,20141104170000
197,"Wenyi Road, Shenyang",,41.767444,123.416144,175,79,29,17,46,11,11,-1,1015,44,4,20141104170000
198,"Xiaoheyan, Shenyang",,41.779828,123.484015,165,98,29,24,55,10,11,1,1015,50,4,20141104170000
199,"Taiyuan Street, Shenyang",,41.799646,123.406146,178,118,11,36,66,14,11,1,1015,50,4,20141104170000
200,"Ermao, Shenyang",,41.783011,123.366679,175,123,28,28,53,12,11,-1,1015,44,4,20141104170000
201,"Liaoning University, Shenyang",,41.830704,123.361071,169,82,30,18,35,10,11,-1,1015,44,4,20141104170000
202,Shenyang,,41.808126,123.437611,178,118,11,36,66,14,10,2,1015,58,4,20141104170000
1104,"wenhua street, Shenyang , Shenyang",,41.774139,123.441839,175,79,29,17,46,11,11,1,1015,50,4,20141104170000
1105,"Tanglin Road , Shenyang , Shenyang",,41.823665,123.562317,117,92,30,19,34,10,11,1,1015,50,4,20141104170000
203,"Ganjingzi, Dalian",,38.9747,121.616893,158,83,6,51,18,8,13,4,1018,54,3,20141104170000
204,"Zhoushuizi, Dalian",,38.951928,121.569981,153,76,6,20,20,20,13,4,1018,54,3,20141104170000
205,"Xinghai No 3 station, Dalian",,38.885779,121.568864,154,75,11,16,10,11,13,4,1018,54,4,20141104170000
206,"Qingniwa Bridge, Dalian",,38.91274,121.638018,132,63,14,20,8,10,13,4,1018,54,4,20141104170000
207,"Fujiazhuang, Dalian",,38.864647,121.629947,104,64,15,16,15,5,13,4,1018,54,3,20141104170000
208,"Qixianling, Dalian",,38.856978,121.523169,129,69,3,17,4,12,13,4,1018,54,4,20141104170000
209,"Lushun, Dalian",,38.808946,121.264063,137,61,14,14,10,7,13,4,1018,54,4,20141104170000
210,"Jinzhou, Dalian",,39.132192,121.753259,157,79,6,12,8,8,13,4,1018,54,4,20141104170000
211,"BDA, Dalian",,39.05213,121.782022,152,72,9,20,13,9,13,4,1018,54,4,20141104170000
212,"D&D Port, Dalian",,39.064087,121.981874,137,58,8,11,2,6,13,4,1018,54,4,20141104170000
213,Dalian,,38.91478,121.619625,132,63,14,20,8,10,-,-,0,-,-,20141104170000
214,"Bearing Factory, Dandong",,40.068929,124.345703,154,84,12,25,44,12,10,7,1020,73,1,20141104170000
215,"Financial school, Dandong",,40.158723,124.432593,152,73,18,17,14,14,10,7,1020,73,1,20141104170000
216,"Yuanbaoshan water, Dandong",,40.149431,124.391698,142,68,12,13,23,16,10,7,1020,73,1,20141104170000
217,"Experimental Primary School, Dandong",,39.887343,124.158056,149,72,15,17,12,13,10,7,1020,73,1,20141104170000
218,Dandong,,40.002046,124.360479,154,84,12,25,44,16,10,7,1020,73,1,20141104170000
1106,"minzhu bridge, Dandong , Dandong",,40.112974,124.373604,149,72,15,17,12,12,10,7,1020,73,1,20141104170000
1107,"yuanbaoshan, Dandong , Dandong",,40.146298,124.399081,142,68,12,13,23,16,10,7,1020,73,1,20141104170000
1108,"linjiang houjie, Dandong , Dandong",,40.152757,124.431745,152,73,18,17,14,14,10,7,1020,73,1,20141104170000
219,"BDA, Panjin",,41.157144,122.06645,155,63,21,12,12,18,10,4,0,63,5,20141104170000
220,"Xinglongtai, Panjin",,41.140948,122.111343,154,65,22,12,14,12,10,4,0,63,5,20141104170000
221,"Dingxiang, Panjin",,41.16139,121.928781,127,56,44,7,7,8,10,4,0,63,5,20141104170000
222,Panjin,,41.122089,122.076206,155,65,44,12,14,18,10,4,0,63,5,20141104170000
223,"No.3 water company, Yingkou",,40.682052,122.385352,89,78,35,21,33,8,12,1,1017,33,4,20141104170000
224,"Yingkou University, Yingkou",,40.683689,122.388285,74,54,34,21,34,9,12,1,1017,33,4,20141104170000
225,"Botanical garden, Yingkou",,40.711674,122.281568,91,40,34,20,33,9,12,1,1017,33,4,20141104170000
226,Yingkou,,40.668578,122.24059,93,78,35,23,34,9,12,1,1017,33,4,20141104170000
1109,"jinghu west street, Yingkou , Yingkou",,40.653831,122.221943,89,78,35,21,33,8,12,1,1017,33,4,20141104170000
1110,"Daqing Road , Yingkou , Yingkou",,40.709181,122.28243,91,40,34,20,33,9,12,1,1017,33,4,20141104170000
227,"Xishanpo, Huludao",,40.724078,120.921974,122,77,32,8,20,13,,,0,,,20141104170000
228,"Huagong hospital, Huludao",,40.755662,120.848435,114,80,26,14,16,8,,,0,,,20141104170000
229,"New district park, Huludao",,40.723415,120.853801,155,85,28,12,29,17,,,0,,,20141104170000
230,"Lianshan district governement, Huludao",,40.775488,120.872292,127,85,25,23,50,12,,,0,,,20141104170000
231,Huludao,,40.712501,120.842107,155,85,28,12,29,17,,,0,,,20141104170000
1111,"Dongcheng District , Huludao , Huludao",,40.775362,120.871706,127,85,25,23,50,12,,,0,,,20141104170000
1112,"huagong street, Huludao , Huludao",,40.758901,120.842935,114,80,26,14,16,8,,,0,,,20141104170000
232,Anshan,,41.110466,123.000147,162,95,33,21,51,16,11,0,1015,47,4,20141104170000
233,"Qianshan Park, Anshan",,41.033486,123.143897,152,70,32,12,23,6,11,-1,1015,44,4,20141104170000
234,"Tiexi, Anshan",,41.121636,122.97506,160,95,21,21,51,16,11,-1,1015,44,4,20141104170000
235,"Taiping Station, Anshan",,41.153322,123.052433,162,78,18,8,27,14,11,-1,1015,44,4,20141104170000
236,"Central Station, Anshan",,41.106731,123.002736,157,87,26,14,33,14,11,-1,1015,44,4,20141104170000
237,"Shengou Temple, Anshan",,41.137157,123.031901,156,72,27,11,22,13,11,0,1015,47,4,20141104170000
1113,"Qianshan , Anshan , Anshan",,41.014521,123.122538,152,70,33,12,23,6,11,0,1015,47,4,20141104170000
1114,"Tiexi Sandao jie, Anshan",,41.103264,122.978613,160,95,21,21,51,16,11,0,1015,47,4,20141104170000
1115,"Taiyang, Anshan",,41.094946,123.019037,157,87,26,14,33,14,11,0,1015,47,4,20141104170000
238,Fushun,,41.883028,123.962984,172,94,30,23,40,24,11,0,1015,47,4,20141104170000
239,"Shenfu new town, Fushun",,41.804638,123.631684,168,78,22,12,29,8,11,-1,1015,44,4,20141104170000
240,"Reservoir, Fushun",,41.8464,123.802857,87,36,30,11,22,23,11,-1,1015,44,4,20141104170000
241,"Train Station, Fushun",,41.89726,124.017604,151,67,23,10,33,15,11,-1,1015,44,4,20141104170000
242,"Dongzhou, Fushun",,41.855578,124.044738,172,94,21,19,38,9,11,-1,1015,44,4,20141104170000
243,"Xinhua, Fushun",,41.888598,123.932932,119,51,14,23,29,16,11,-1,1015,44,4,20141104170000
244,"Wanghua, Fushun",,41.888825,123.093723,147,61,20,18,40,14,11,-1,1015,44,4,20141104170000
245,Benxi,,41.296267,123.772371,137,72,43,12,23,8,11,0,1015,47,4,20141104170000
246,"Weining, Benxi",,41.349663,123.826071,159,80,85,16,8,9,11,-1,1015,44,4,20141104170000
247,"Occupational disease hospital, Benxi",,41.305432,123.74645,152,66,36,14,27,7,11,-1,1015,44,4,20141104170000
248,"Dongming, Benxi",,41.292369,123.765058,155,52,24,15,53,23,11,0,1015,47,4,20141104170000
249,"Caitun, Benxi",,41.301591,123.746039,162,98,12,43,51,26,11,0,1015,47,4,20141104170000
250,"Xihu, Benxi",,41.331332,123.773537,156,78,21,16,45,18,11,0,1015,47,4,20141104170000
251,"Dayu, Benxi",,41.308091,123.818442,137,58,43,9,21,8,11,-1,1015,44,4,20141104170000
1116,"Xinlitun , Benxi , Benxi",,41.264104,123.811523,137,72,36,12,23,8,11,-1,1015,44,4,20141104170000
252,Jinzhou,,41.097169,121.132647,160,76,27,23,81,13,11,5,1012,55,4,20141104170000
253,"Beihu Park, Jinzhou",,41.141447,121.137339,152,76,23,19,29,10,11,5,1012,55,4,20141104170000
254,"Monitoring station, Jinzhou",,41.113441,121.140911,158,78,27,22,25,8,11,5,1012,55,4,20141104170000
255,"Nanshan, Jinzhou",,41.570689,122.046753,151,42,32,14,28,19,11,5,1012,55,4,20141104170000
1118,"BDA, Jinzhou",,40.853915,121.061756,132,50,18,23,88,12,11,5,1012,55,4,20141104170000
1119,"tianan street, Jinzhou , Jinzhou",,41.124468,121.126119,158,78,27,22,25,8,11,5,1012,55,4,20141104170000
1120,"baigu street, Jinzhou, Jinzhou",,41.12214,121.21027,158,77,25,22,21,23,11,5,1012,55,4,20141104170000
1121,Chaoyang,,41.576022,120.456053,167,94,17,19,40,19,-,-,0,-,-,20141104170000
472,"Fukang road, Tianjin",,39.098136,117.157621,172,94,20,32,34,13,10,1,1016,54,2,20141104170000
1122,"Agricultural Area, Chaoyang",,43.93968,125.247371,165,66,8,8,4,19,11,-5,1013,21,2,20141104170000
1123,Tieling,,42.225197,123.732174,162,95,29,20,41,9,-,-,0,-,-,20141104170000
260,"Waterpark, Tieling",,42.297031,123.880748,151,86,24,20,41,8,11,0,1015,47,4,20141104170000
1124,"Huigong Street West , Tieling , Tieling",,42.311115,123.845614,161,90,28,13,35,9,11,0,1015,47,4,20141104170000
1125,Liaoyang,,41.269312,123.24268,93,55,24,10,20,16,-,-,0,-,-,20141104170000
1126,"Riverside Road , Liaoyang , Liaoyang",,41.176884,123.419859,93,55,24,10,20,16,11,-1,1015,44,4,20141104170000
1127,Fuxin,,42.02373,121.675733,159,129,26,25,167,9,-,-,0,-,-,20141104170000
266,"Agricultural Area, Fuxin",,42.071291,121.696445,147,64,16,15,167,4,6,-1,0,55,5,20141104170000
267,"Industrial Area, Fuxin",,42.041052,121.715554,139,115,19,16,22,10,6,-1,0,55,5,20141104170000
1128,"Yulong Metro , Fuxin , Fuxin",,42.035091,121.666531,134,106,30,12,51,15,7,0,0,57,5,20141104170000
1129,"Dongyuan , Fuxin , Fuxin",,42.029119,121.681553,159,129,26,25,40,9,6,-1,0,55,5,20141104170000
268,"City Monitoring Station, Jinan",,36.662614,117.054645,151,78,29,7,15,4,13,0,1018,28,4,20141104170000
269,"Shandong Institute of Economics, Jinan",,36.63819,117.074975,151,84,37,8,18,3,13,0,1018,28,4,20141104170000
270,"Quancheng Plaza, Jinan",,36.661711,117.027043,147,73,27,6,24,6,13,0,1018,28,4,20141104170000
271,"Kegansuo, Jinan",,36.611582,116.99384,109,70,31,17,19,4,13,0,1018,28,4,20141104170000
272,"Agriculture Science Institute, Jinan",,36.663115,116.95063,139,92,25,27,15,8,13,0,1018,28,4,20141104170000
273,"Lanxiang technical school, Jinan",,36.700421,116.95342,142,76,28,20,14,5,13,0,1018,28,4,20141104170000
274,"Chemical factory, Jinan",,36.687463,116.994406,137,76,20,9,12,6,13,0,1018,28,4,20141104170000
275,"Provincial Seed Warehouse, Jinan",,36.685706,117.066348,134,72,28,10,15,4,13,0,1018,28,4,20141104170000
276,"Shandong Architecture University, Jinan",,36.681732,117.191868,122,74,19,7,19,7,13,0,1018,28,4,20141104170000
277,"Baosheng cable company, Jinan",,36.724638,117.130855,161,92,23,22,24,13,13,0,1018,28,4,20141104170000
278,"Paomaling, Jinan",,36.47869,117.219027,152,75,39,10,32,4,13,0,1018,28,4,20141104170000
279,"Changqing District Communist Party School, Jinan",,36.548797,116.770859,152,84,33,17,23,6,13,0,1018,28,4,20141104170000
280,"BDA, Jinan",,36.685835,117.130851,104,67,42,9,9,7,13,0,1018,28,4,20141104170000
281,Jinan,,36.651426,117.126625,151,78,29,27,15,8,13,0,1018,28,4,20141104170000
282,"Shinan district No. 1, Qingdao",,36.065534,120.40839,127,59,69,8,10,5,9,4,1019,71,1,20141104170000
283,"Shibei district No. 1, Qingdao",,36.069919,120.341264,99,41,50,6,9,7,9,4,1019,71,1,20141104170000
284,"Shibei district No. 2, Qingdao",,36.104146,120.36637,91,51,43,12,11,7,9,4,1019,71,1,20141104170000
285,"Huangdao District No. 1, Qingdao",,35.958935,120.191041,134,78,37,15,19,6,9,4,1019,71,1,20141104170000
286,"Huangdao District No. 2, Qingdao",,35.970487,120.160339,132,52,39,15,8,4,9,4,1019,71,1,20141104170000
287,"Laoshan District No. 1, Qingdao",,36.085881,120.451839,112,46,47,14,9,8,9,4,1019,71,1,20141104170000
288,"Laoshan District No. 2, Qingdao",,36.091075,120.490388,97,57,96,11,16,3,9,4,1019,71,1,20141104170000
289,"Licang District No. 1, Qingdao",,36.184872,120.38533,112,65,19,19,10,11,9,4,1019,71,1,20141104170000
290,"Licang District No. 2, Qingdao",,36.154369,120.432287,102,52,37,22,9,6,9,4,1019,71,1,20141104170000
291,"Chengyang District No. 1, Qingdao",,36.308502,120.40008,149,75,20,46,23,8,9,4,1019,71,1,20141104170000
292,"Chengyang District No. 2, Qingdao",,36.308429,120.465806,119,48,47,9,10,6,9,4,1019,71,1,20141104170000
293,Qingdao,,36.067358,120.387773,127,59,69,8,10,5,9,4,1019,71,1,20141104170000
294,"Zichuan Meteo. Stations, Zibo",,36.637916,117.960222,-,-,-,-,-,-,-,-,0,-,-,20141104170000
295,"Dongfeng Chemical factory, Zibo",,36.838576,118.050785,165,94,6,57,77,18,7,0,0,53,3,20141104170000
296,"Boshan shuangshan, Zibo",,36.497278,117.853581,157,86,23,27,46,17,7,0,0,53,3,20141104170000
297,"Linzi Putian Park, Zibo",,36.820171,118.315022,161,116,12,28,41,27,7,0,0,53,3,20141104170000
298,"Qilu Petrochemical, Zibo",,36.765907,118.254967,157,123,5,36,13,16,7,0,0,53,3,20141104170000
299,"Zhoucun sanjin Group, Zibo",,36.8044,117.85694,165,80,19,30,18,19,7,0,0,53,3,20141104170000
300,"Vocational College, Zibo",,36.825208,117.926305,160,93,10,35,30,20,7,0,0,53,3,20141104170000
301,"BDA, Zibo",,36.905214,118.021824,169,101,12,21,53,12,7,0,0,53,3,20141104170000
302,Zibo,,36.813618,118.060948,167,96,30,57,77,18,7,0,0,53,3,20141104170000
303,"Shizhong District Government, Zaozhuang",,34.850397,117.569545,193,182,14,16,72,12,7,5,1020,84,0,20141104170000
304,"Sewage treatment plant, Zaozhuang",,34.818951,117.595345,276,196,16,37,94,17,7,5,1020,84,0,20141104170000
305,"Xuecheng EPA, Zaozhuang",,34.790214,117.272455,171,98,17,11,14,9,7,5,1020,84,0,20141104170000
306,"Yicheng District government, Zaozhuang",,34.772806,117.57647,186,160,9,48,13,9,7,5,1020,84,0,20141104170000
307,"Taierzhuang EPA, Zaozhuang",,34.579462,117.741067,199,134,12,41,16,12,7,5,1020,84,0,20141104170000
308,"Shanting EPA, Zaozhuang",,35.070373,117.457691,154,86,20,28,33,13,7,5,1020,84,0,20141104170000
309,"City EPA, Zaozhuang",,34.809466,117.320608,174,97,27,21,59,7,7,5,1020,84,0,20141104170000
310,"High-tech zone, Zaozhuang",,34.821779,117.363495,210,123,19,28,86,12,7,5,1020,84,0,20141104170000
311,Zaozhuang,,34.809693,117.329634,192,178,17,34,76,13,7,5,1020,84,0,20141104170000
312,"City EPA, Dongying",,37.432052,118.672871,177,108,10,28,39,16,10,1,0,53,5,20141104170000
313,"Vocational College, Dongying",,37.438653,118.630567,177,130,9,35,38,13,10,1,0,53,5,20141104170000
314,"Xianhe Oil Production Plant, Dongying",,37.442419,118.510222,193,151,8,46,48,15,10,1,0,53,5,20141104170000
315,"Gengjin village, Dongying",,37.445072,118.55839,178,123,7,37,25,11,10,1,0,53,5,20141104170000
316,"City environmental company, Dongying",,37.466599,118.508012,189,134,7,52,50,11,10,1,0,53,5,20141104170000
317,"Hekou  district, Dongying",,37.883786,118.522171,185,124,13,50,51,12,10,1,0,53,5,20141104170000
318,"BDA, Dongying",,37.435162,118.701827,174,104,18,29,19,15,10,1,0,53,5,20141104170000
319,Dongying,,37.435429,118.680434,177,108,10,28,39,16,10,1,0,53,5,20141104170000
320,"Bearing Factory, Yantai",,37.544126,121.376956,107,54,19,26,9,11,,,0,,,20141104170000
321,"Xijiao Chemical Station, Yantai",,37.547148,121.323695,107,49,41,8,9,10,,,0,,,20141104170000
322,"Fushan Monitoring Stations, Yantai",,37.472245,121.260116,95,45,26,8,8,7,,,0,,,20141104170000
323,"Mouping EPA, Yantai",,37.376681,121.586509,74,29,30,6,5,10,,,0,,,20141104170000
324,"Laishan EPA, Yantai",,37.478422,121.44829,89,42,34,11,8,5,,,0,,,20141104170000
325,"Laishan Shengquan Industrial Park, Yantai",,37.4271,121.408386,104,59,28,16,11,2,,,0,,,20141104170000
326,"China Agricultural University, Yantai",,37.423568,121.511838,112,60,33,12,10,7,,,0,,,20141104170000
327,"BDA EPA, Yantai",,37.560827,121.257954,102,50,13,11,10,9,,,0,,,20141104170000
329,"Dajijia, Yantai",,37.673849,121.071465,134,57,31,10,9,7,,,0,,,20141104170000
330,Yantai,,37.464793,121.453142,107,54,40,26,9,11,,,0,,,20141104170000
331,"BDA, Weifang",,36.720022,119.054064,169,94,24,28,25,7,,,0,,,20141104170000
332,"Business School, Weifang",,36.682442,119.105909,167,101,21,33,20,7,,,0,,,20141104170000
333,"Hanting District, Weifang",,36.773484,119.199705,179,357,21,29,24,7,,,0,,,20141104170000
334,"Gongda Company, Weifang",,36.657635,119.167266,172,115,24,30,30,8,,,0,,,20141104170000
335,"City EPA, Weifang",,36.701272,119.16838,170,119,23,25,28,9,,,0,,,20141104170000
336,"City Arbitration Committee, Weifang",,36.702422,119.145927,168,99,26,27,21,10,,,0,,,20141104170000
337,"Xinhui Group, Weifang",,36.641581,119.11679,165,108,22,29,26,9,,,0,,,20141104170000
338,"Jincheng Middle School, Weifang",,36.773611,119.115539,166,101,36,18,20,8,,,0,,,20141104170000
339,Weifang,,36.707217,119.167638,167,105,28,22,19,11,,,0,,,20141104170000
340,"City Monitoring Station, Jining",,35.408443,116.623917,149,87,17,33,15,8,10,3,1019,52,1,20141104170000
1090,"Shengdi Hollidays Resort, Jining",,35.424746,116.699093,147,77,18,45,24,8,10,3,1019,52,1,20141104170000
341,"Sewage treatment plant, Jining",,35.364286,116.609177,158,66,31,16,12,7,10,3,1019,52,1,20141104170000
342,"Electrochemical Factory, Jining",,35.390473,116.552956,129,86,31,25,22,11,10,3,1019,52,1,20141104170000
343,"Rencheng BDA, Jining",,35.390484,116.662995,177,81,29,28,18,10,10,3,1019,52,1,20141104170000
344,"Agricultural School, Jining",,35.44235,116.601682,162,88,20,28,13,7,10,3,1019,52,1,20141104170000
345,"BDA Huojucheng, Jining",,35.436377,116.642953,152,85,22,27,49,8,10,3,1019,52,1,20141104170000
346,Jining,,35.414473,116.59239,149,87,23,46,15,8,10,3,1019,52,1,20141104170000
347,"Taishan monitoring station, Taian",,36.194362,117.159648,167,83,17,20,31,9,1,-3,0,62,11,20141104170000
348,"Shandong Electric Power School, Taian",,36.176071,117.12413,160,74,23,33,32,12,1,-3,0,62,11,20141104170000
349,"Population Education school, Taian",,36.194417,117.104131,152,90,27,12,28,10,1,-3,0,62,11,20141104170000
350,"Houfeng company, Taian",,36.204863,117.19015,162,100,16,23,11,15,1,-3,0,62,11,20141104170000
351,"Nongda new campus, Taian",,36.170179,117.165191,173,105,4,81,50,17,1,-3,0,62,11,20141104170000
352,"Transportation technical school, Taian",,36.202126,117.047068,154,70,17,16,30,15,1,-3,0,62,11,20141104170000
353,"ICT Technology, Taian",,36.116621,117.107458,166,83,16,30,25,12,1,-3,0,62,11,20141104170000
354,Taian,,36.200502,117.093682,167,83,17,20,31,9,1,-3,0,62,11,20141104170000
355,"City Environmental Monitoring Station, Weihai",,37.513939,122.067058,70,45,46,6,8,5,13,6,0,63,5,20141104170000
356,"Woodworking Factory, Weihai",,37.325455,122.160777,70,39,40,7,6,3,13,6,0,63,5,20141104170000
357,"Lantian Hotel, Weihai",,37.514641,122.146276,70,48,43,7,11,6,13,6,0,63,5,20141104170000
358,"Zhang village government, Weihai",,37.485561,122.049436,65,35,32,6,6,6,13,6,0,63,5,20141104170000
359,"Gao District Bank, Weihai",,37.534919,122.056294,104,55,35,9,5,5,13,6,0,64,5,20141104170000
360,"Huxia technical school, Weihai",,37.427951,122.130811,85,53,42,5,6,4,13,6,0,63,5,20141104170000
361,Weihai,,37.5141,122.125477,70,45,46,6,8,5,13,6,0,63,5,20141104170000
362,"City governement square, Rizhao",,35.4075,119.526008,160,99,19,36,17,7,12,4,1021,47,0,20141104170000
363,"Port Authority, Rizhao",,35.381297,119.55396,109,84,30,14,75,8,14,4,1019,37,2,20141104170000
364,"City Monitoring Station, Rizhao",,35.388683,119.496405,165,108,13,43,13,10,12,4,1021,47,0,20141104170000
365,"Professor Garden, Rizhao",,35.462161,119.574193,162,104,32,45,19,9,12,4,1021,47,0,20141104170000
366,"Vocational and Technical College, Rizhao",,35.441939,119.538187,165,95,17,40,23,9,12,4,1021,47,0,20141104170000
367,"Lanshan EPA branch, Rizhao",,35.293405,119.345716,167,96,22,31,37,10,12,4,1021,47,0,20141104170000
368,"Jinma Industrial Park, Rizhao",,35.373339,119.514108,171,119,21,52,24,8,12,4,1021,47,0,20141104170000
369,Rizhao,,35.416089,119.532316,160,99,19,36,17,7,12,4,1021,47,0,20141104170000
370,"Vegetable oil factory, Laiwu",,36.205028,117.700917,190,121,15,44,69,17,8,1,1020,52,2,20141104170000
371,"Nursing home, Laiwu",,36.266067,117.652769,220,114,12,32,53,29,8,1,1020,52,2,20141104170000
372,"Xinyi middle school, Laiwu",,36.245086,117.739025,162,83,12,25,59,17,8,1,1020,52,2,20141104170000
373,"Risheng International School, Laiwu",,36.208125,117.730959,182,109,4,18,55,18,8,1,1020,52,2,20141104170000
374,"Gangcheng EPA, Laiwu",,36.066836,117.871823,170,100,6,26,52,20,8,1,1020,52,2,20141104170000
375,"City EPA, Laiwu",,36.228913,117.694797,178,121,14,5,64,16,8,1,1020,52,2,20141104170000
376,Laiwu,,36.213688,117.682612,190,121,16,44,69,17,-,-,0,-,-,20141104170000
377,"Lunan Pharmaceutical Factory, Linyi",,35.061671,118.299527,236,152,4,65,65,18,8,0,0,56,2,20141104170000
378,"Yihe compound, Linyi",,35.056752,118.34739,193,124,6,60,49,24,8,0,0,56,2,20141104170000
379,"Linyi University, Linyi",,35.114777,118.293414,225,343,4,64,58,26,8,0,0,56,2,20141104170000
380,City EPA,Nanfang,35.104871,118.353518,170,116,12,40,42,17,8,0,0,56,2,20141104170000
381,"Xinguang woolen factory, Linyi",,34.981004,118.282,188,126,16,53,59,18,8,0,0,56,2,20141104170000
382,"Hongfu Baijiu Factory, Linyi",,34.998788,118.257275,286,256,6,60,74,20,8,0,0,56,2,20141104170000
384,"Hedong insurance company, Linyi",,35.089354,118.40812,179,116,9,49,25,11,8,0,0,56,2,20141104170000
385,"Jianghua vehicule center, Linyi",,35.010082,118.435749,198,108,8,32,32,14,8,0,0,56,2,20141104170000
386,Linyi,,35.10428,118.362202,236,152,4,65,65,18,8,0,0,56,2,20141104170000
387,"Heima group, Dezhou",,37.466063,116.314134,170,104,18,24,38,15,11,0,1016,33,1,20141104170000
388,"Monitoring station, Dezhou",,37.433107,116.377312,175,117,19,21,30,13,11,0,1016,33,1,20141104170000
389,"Supervision Station, Dezhou",,37.449689,116.324709,179,107,15,22,34,11,11,0,1016,33,1,20141104170000
390,"Huayu technical school, Dezhou",,37.462809,116.357559,164,109,26,25,37,7,11,0,1016,33,1,20141104170000
391,"Shuangyi group, Dezhou",,37.478848,116.316362,180,99,21,31,32,11,11,0,1016,33,1,20141104170000
392,Dezhou,,37.434959,116.363366,170,104,18,24,42,15,11,0,1016,33,1,20141104170000
393,"Dongchang District Government, Liaocheng",,36.444473,115.971733,161,78,37,22,19,11,13,2,1017,37,2,20141104170000
394,"Light Machinery Factory No. 2, Liaocheng",,36.456788,116.002383,162,94,28,18,18,14,13,2,1017,37,2,20141104170000
395,"City committee communist party school, Liaocheng",,36.479537,115.989288,155,91,32,17,16,14,13,2,1017,37,2,20141104170000
396,"Customs, Liaocheng",,36.431933,115.956974,167,97,34,20,17,14,13,2,1017,37,2,20141104170000
397,"Hongshun Garden, Liaocheng",,36.471124,115.960319,160,104,25,19,18,6,13,2,1017,37,2,20141104170000
398,"BDA, Liaocheng",,36.459407,116.043621,169,94,20,17,20,12,13,2,1017,37,2,20141104170000
399,Liaocheng,,36.456792,115.991051,161,78,37,22,19,11,13,2,1017,37,2,20141104180000
400,"City EPA, Binzhou",,37.38024,118.026895,187,102,7,32,22,18,12,-1,1017,29,2,20141104180000
401,"Beizhong new school, Binzhou",,37.38374,117.988996,180,104,5,33,20,18,12,-1,1017,29,2,20141104180000
402,"No.2 water factory, Binzhou",,37.36155,118.002648,195,124,7,42,30,18,12,-1,1017,29,2,20141104180000
403,"Keling Chemical factory, Binzhou",,37.396138,117.943609,169,72,7,22,34,17,12,-1,1017,29,2,20141104180000
404,"Yinhe logistics company, Binzhou",,37.356122,117.943326,193,127,7,29,24,16,12,-1,1017,29,2,20141104180000
405,"Bilin compond, Binzhou",,37.36815,117.978964,193,126,6,33,30,18,12,-1,1017,29,2,20141104180000
406,Binzhou,,37.382639,117.976606,187,102,7,32,22,18,12,-1,1017,29,2,20141104180000
407,"Bureau of Meteorology, Heze",,35.248625,115.428775,160,93,28,19,10,10,10,0,0,51,3,20141104180000
408,"Sewage treatment plant, Heze",,35.222517,115.531511,165,112,16,39,33,11,10,0,0,51,3,20141104180000
409,"Municipal CPPCC, Heze",,35.237125,115.480591,159,90,27,22,29,9,10,0,0,51,3,20141104180000
410,"Huarun Pharmaceutical Company, Heze",,35.261463,115.524873,162,100,19,25,27,11,10,0,0,51,3,20141104180000
411,"Heze University, Heze",,35.269706,115.460934,160,103,31,16,22,8,10,0,0,51,3,20141104180000
412,Heze,,35.233354,115.486503,160,93,28,19,10,10,10,0,0,51,3,20141104180000
413,"Shiji Park, Shijiazhuang",,38.03155,114.547873,197,135,14,38,25,16,6,4,1016,87,3,20141104180000
414,"Xinan College, Shijiazhuang",,38.012764,114.473163,184,115,4,24,29,13,6,4,1016,87,3,20141104180000
415,"Chemical College, Shijiazhuang",,38.055503,114.569816,179,112,3,33,16,14,6,4,1016,87,3,20141104180000
416,"Worker hospital, Shijiazhuang",,38.051784,114.461209,191,146,2,38,29,21,6,4,1016,87,3,20141104180000
417,"Northwest Water Company, Shijiazhuang",,38.140638,114.508038,200,149,2,47,25,19,6,4,1016,87,3,20141104180000
418,"High-tech zone, Shijiazhuang",,38.040482,114.610775,190,141,6,34,32,13,6,4,1016,87,3,20141104180000
419,"Fenglong Montain, Shijiazhuang",,37.910829,114.360264,149,102,23,23,63,14,6,4,1016,87,3,20141104180000
1130,"Zhengding Unicom, Shijiazhuang",,38.159458,114.59879,226,177,3,47,35,19,6,4,1016,87,3,20141104180000
1131,"Luancheng Communications, Shijiazhuang",,37.906534,114.638785,181,133,7,40,23,8,6,4,1016,87,3,20141104180000
1132,"Gaocheng Experimental School, Shijiazhuang",,38.039518,114.867812,168,120,13,23,26,9,6,4,1016,87,3,20141104180000
1133,"Wuji EPA, Shijiazhuang",,38.17862,114.997012,181,122,16,35,57,10,6,4,1016,87,3,20141104180000
1134,"Shenze Power Supply Bureau, Shijiazhuang",,38.197674,115.219126,175,130,10,31,26,10,6,4,1016,87,3,20141104180000
1135,"Zhaoxian EPA, Shijiazhuang",,37.77171,114.775957,176,123,18,39,33,7,6,4,1016,87,3,20141104180000
1136,"Gaoyi County City Hall, Shijiazhuang",,37.623535,114.612729,186,133,9,40,28,8,6,4,1016,87,3,20141104180000
1137,"Zanhuang County City Hall, Shijiazhuang",,37.672898,114.398269,165,108,7,36,16,15,6,4,1016,87,3,20141104180000
1138,"Jingxing Bureau of Meteorology, Shijiazhuang",,38.038788,114.158406,179,160,2,47,40,21,6,4,1016,87,3,20141104180000
1139,"Pingshan Ye River, Shijiazhuang",,38.266657,114.210275,206,166,3,33,18,20,6,4,1016,87,3,20141104180000
420,Shijiazhuang,,38.042926,114.520834,192,112,3,41,36,9,6,4,1016,87,3,20141104180000
421,"No. 12 middle school, Tangshan",,39.659306,118.190271,,,,,,,-,-,0,-,-,20141104180000
422,"Ceramics Company, Tangshan",,39.669255,118.225185,177,104,10,48,50,15,11,1,1016,50,3,20141104180000
423,"Commodities Bureau, Tangshan",,39.642301,118.191265,170,102,6,41,51,18,11,1,1016,50,3,20141104180000
424,"Leidazhanzi Station, Tangshan",,39.644375,118.150383,165,100,12,47,41,23,11,1,1016,50,3,20141104180000
425,"Supply and marketing cooperatives, Tangshan",,39.632334,118.17232,168,102,11,56,54,25,11,1,1016,50,3,20141104180000
1140,"Guye District City Hall, Tangshan",,39.741379,118.460246,174,118,4,47,25,27,11,1,1016,50,3,20141104180000
1141,"Kaiping Stations, Tangshan",,39.675246,118.275149,165,86,3,46,26,9,11,1,1016,50,3,20141104180000
1142,"Fengnan District City Hall, Tangshan",,39.5834,118.097454,164,108,10,56,21,16,11,1,1016,50,3,20141104180000
1143,"Fengrun City Hall, Tangshan",,39.840355,118.175338,174,112,5,44,38,16,11,1,1016,50,3,20141104180000
1144,"Qianxi EPA, Tangshan",,40.153339,118.317265,182,146,7,40,12,25,11,1,1016,50,3,20141104180000
1145,"Caofeidian Xinli  Primary School, Tangshan",,39.291232,118.462182,167,81,36,14,28,4,11,1,1016,50,3,20141104180000
1146,"Zunhua EPA, Tangshan",,40.206249,117.997315,191,121,4,39,20,20,11,1,1016,50,3,20141104180000
1147,"Qianan No.1 middle school, Tangshan",,40.004248,118.717055,177,126,20,41,28,28,11,1,1016,50,3,20141104180000
1266,"Luannan County , Tangshan",,39.511132,118.686928,160,82,30,19,10,6,11,1,1016,50,3,20141104180000
1267,"Yutian County , Tangshan",,39.908249,117.751417,175,118,4,36,12,15,11,1,1016,50,3,20141104180000
426,Tangshan,,39.632175,118.186472,170,102,6,41,51,18,-,-,0,-,-,20141104180000
427,"City Monitoring Station, Qinhuangdao",,39.958109,119.607773,168,105,21,41,34,15,,,0,,,20141104180000
428,"Beidaihe, Qinhuangdao",,39.829209,119.53194,154,81,16,23,25,18,,,0,,,20141104180000
429,"Shanhai Pass, Qinhuangdao",,40.019298,119.767898,159,113,13,56,45,13,,,0,,,20141104180000
430,"Contruction Plazz, Qinhuangdao",,39.943187,119.542912,175,117,27,29,21,7,,,0,,,20141104180000
431,"City government, Qinhuangdao",,39.93711,119.612769,185,106,22,33,52,8,,,0,,,20141104180000
1148,"Qinglong EPA, Qinhuangdao",,40.419223,118.958002,165,107,18,29,49,20,,,0,,,20141104180000
1149,"Changli EPA, Qinhuangdao",,39.714369,119.173237,165,85,10,40,11,10,,,0,,,20141104180000
1268,"Lulong County Bureau of Meteorology , Qinhuangdao",,39.901091,118.904857,176,108,29,1,26,14,,,0,,,20141104180000
432,Qinhuangdao,,39.936485,119.606263,185,106,22,33,52,8,,,0,,,20141104180000
433,"CongTai Park, Handan",,36.620197,114.501891,281,131,10,18,27,5,,,0,,,20141104180000
434,"City EPA, Handan",,36.618145,114.518822,177,117,17,17,26,10,,,0,,,20141104180000
435,"East Sewage Factory, Handan",,36.616064,114.548714,162,94,16,27,20,3,,,0,,,20141104180000
436,"Mine Hospital, Handan",,36.578149,114.509854,167,97,13,25,9,5,,,0,,,20141104180000
1150,"Fengfeng mine Inland Revenue Department, Handan",,36.423085,114.245994,195,150,8,29,56,2,,,0,,,20141104180000
1151,"Shexian EPA, Handan",,36.589084,113.692341,158,91,12,37,18,12,,,0,,,20141104180000
1152,"Ci County Vocational Education Center, Handan",,36.380247,114.390119,187,160,8,30,54,10,,,0,,,20141104180000
1153,"Yongnian government guesthouse, Handan",,36.783297,114.502905,192,149,7,48,53,2,,,0,,,20141104180000
1154,"Wuan BDA, Handan",,36.686223,114.269009,197,169,4,42,54,21,,,0,,,20141104180000
1085,Handan,,36.625683,114.544812,162,94,16,27,20,3,,,0,,,20141104180000
437,"Road and Bridge Corporation, Xingtai",,37.096415,114.538799,217,174,6,50,48,13,12,3,1016,42,2,20141104180000
438,"Dahuo fontain, Xingtai",,37.097563,114.488001,241,172,6,38,50,19,12,3,1016,42,2,20141104180000
439,"Xingtai Normal College, Xingtai",,37.053404,114.531819,197,187,8,51,53,11,12,3,1016,42,2,20141104180000
440,"Environment protection office, Xingtai",,37.06253,114.490985,211,179,8,39,57,17,12,3,1016,42,2,20141104180000
1155,"Cultural centers within the mound, Xingtai",,37.293569,114.524873,179,127,4,39,27,25,12,3,1016,42,2,20141104180000
383,Xingtai,,37.071066,114.510749,211,179,8,39,57,17,12,3,1016,42,2,20141104180000
441,"City Monitoring Station, Baoding",,38.871737,115.527103,241,178,14,45,37,0,8,3,1015,65,1,20141104180000
442,"Surface water Company, Baoding",,38.842891,115.467326,258,236,4,109,40,31,8,3,1015,65,1,20141104180000
443,"Huadian II, Baoding",,38.896748,115.528102,239,163,7,47,53,19,8,3,1015,65,1,20141104180000
444,"Reception Center, Baoding",,38.911905,115.477301,286,225,3,38,21,10,8,3,1015,65,1,20141104180000
445,"Film Factory, Baoding",,38.876949,115.448383,311,372,5,44,12,33,8,3,1015,65,1,20141104180000
446,"Natatorium, Baoding",,38.863815,115.499212,211,307,3,48,53,36,8,3,1015,65,1,20141104180000
1156,"Qingyuan City Hall, Baoding",,38.771758,115.502189,214,161,2,33,3,31,8,3,1015,65,1,20141104180000
1157,"Xushui EPA, Baoding",,39.025781,115.668023,296,270,4,36,28,33,8,3,1015,65,1,20141104180000
1158,"Zhouzhou Monitoring Stations, Baoding",,39.493241,116.040187,225,153,4,31,14,22,8,3,1015,65,1,20141104180000
1159,"Gaobeidian EPA, Baoding",,39.3329,115.885891,279,185,3,41,47,39,8,3,1015,65,1,20141104180000
447,Baoding,,38.874791,115.471124,311,372,5,44,12,33,8,3,1015,65,1,20141104180000
448,"Century Compound, Zhangjiakou",,40.770279,114.909106,63,40,12,5,6,10,6,-6,1018,29,3,20141104180000
449,"North Pumping Station, Zhangjiakou",,40.874362,114.910119,151,40,5,19,7,17,6,-6,1018,29,3,20141104180000
450,"Hardware Warehouse, Zhangjiakou",,40.81232,114.887119,74,94,32,13,31,27,6,-6,1018,29,3,20141104180000
451,"Tanji Chang, Zhangjiakou",,40.796301,114.89811,129,51,6,24,21,16,6,-6,1018,29,3,20141104180000
1160,"Xiahuayuan EPA, Zhangjiakou",,40.509345,115.302442,161,90,14,22,26,5,6,-6,1018,29,3,20141104180000
1161,"Huaian EPA, Zhangjiakou",,40.68157,114.398646,147,65,28,9,17,11,6,-6,1018,29,3,20141104180000
1162,"Huailai Fuqian Primary School, Zhangjiakou",,40.422204,115.530285,188,115,8,4,6,12,6,-6,1018,29,3,20141104180000
1269,"Zhangbei EPA , Zhangjiakou",,41.166775,114.732369,82,54,23,2,4,5,6,-6,1018,29,3,20141104180000
1270,"Kangbao County Environmental Protection Agency , Zhangjiakou",,41.837866,114.591246,61,39,30,2,5,2,6,-6,1018,29,3,20141104180000
1271,"Guyuan County welfare , Zhangjiakou",,41.669984,115.687401,89,53,21,6,3,5,6,-6,1018,29,3,20141104180000
1272,"Shangyi County Environmental Protection Bureau , Zhangjiakou",,41.086638,113.984688,78,115,28,5,10,10,6,-6,1018,29,3,20141104180000
1273,"Yuxian Secondary School , Zhangjiakou",,39.84699,114.601986,149,63,22,12,15,12,6,-6,1018,29,3,20141104180000
1274,"Yang County Vocational Education Center , Zhangjiakou",,40.106343,114.134732,124,67,25,6,8,28,6,-6,1018,29,3,20141104180000
1275,"Wan county Environmental Protection Agency , Zhangjiakou",,40.770459,114.75033,127,60,25,14,10,6,6,-6,1018,29,3,20141104180000
473,"Nankou road, Tianjin",,39.174022,117.199688,163,80,14,22,33,7,11,1,1016,50,3,20141104180000
1276,"Zhuolu County Environmental Protection Agency , Zhangjiakou",,40.374273,115.221393,124,62,9,1,12,18,6,-6,1018,29,3,20141104180000
452,Zhangjiakou,,40.825744,114.893659,38,26,8,9,17,12,6,-6,1018,29,3,20141104180000
453,"Railway, Chengde",,40.917557,117.972331,173,117,12,36,20,10,4,-3,1016,45,1,20141104180000
454,"Cultural Center, Chengde",,40.974625,117.824437,152,108,1,28,11,19,4,-3,1016,45,1,20141104180000
455,"Bank of China, Chengde",,40.985582,117.958304,171,108,10,32,12,11,4,-3,1016,45,1,20141104180000
456,"BDA, Chengde",,40.937567,117.969325,184,140,10,17,17,14,4,-3,1016,45,1,20141104180000
457,"Ligong, Chengde",,41.012579,117.94428,189,146,19,24,12,10,4,-3,1016,45,1,20141104180000
1163,"Chengde County EPA, Chengde",,40.776643,118.17646,187,114,20,34,9,11,4,-3,1016,45,1,20141104180000
1164,"Xinglong County City Hall, Chengde",,40.424301,117.513488,195,111,8,32,12,25,4,-3,1016,45,1,20141104180000
1165,"Luanping EPA, Chengde",,40.950792,117.350715,194,118,19,34,17,14,4,-3,1016,45,1,20141104180000
1166,"Fengning County City Hall, Chengde",,41.216739,116.658037,174,89,19,14,6,16,4,-3,1016,45,1,20141104180000
1277,"Longhua EPA , Chengde",,41.311956,117.739605,177,99,19,26,5,17,4,-3,1016,45,1,20141104180000
458,Chengde,,40.955652,117.968737,184,140,10,17,17,14,4,-3,1016,45,1,20141104180000
459,"Municipal EPB, Cangzhou",,38.323507,116.876746,169,105,22,29,11,7,11,1,1016,50,3,20141104180000
460,"Cangxian Urban Construction Bureau, Cangzhou",,38.299495,116.890734,175,93,14,24,25,5,11,1,1016,50,3,20141104180000
461,"TV Broadcast Station, Cangzhou",,38.325525,116.863761,173,97,21,15,15,10,11,1,1016,50,3,20141104180000
1167,"Qing County City Hall, Cangzhou",,38.589643,116.815876,161,71,17,28,30,11,11,1,1016,50,3,20141104180000
1168,"Poyoushi City Hall, Cangzhou",,38.089516,116.590575,191,105,16,34,16,13,11,1,1016,50,3,20141104180000
1169,"Huanghua Finance Bureau Training Center, Cangzhou",,38.377793,117.343356,177,115,2,20,16,4,11,1,1016,50,3,20141104180000
462,Cangzhou,,38.305035,116.844625,173,97,21,15,15,10,11,1,1016,50,3,20141104180000
463,"Environmental Monitoring Supervision Center, Langfang",,39.558157,116.720995,329,197,4,50,18,27,11,1,1016,50,3,20141104180000
464,"TCM Medical Material Company, Langfang",,39.519096,116.689914,225,151,4,46,26,26,11,1,1016,50,3,20141104180000
465,"BDA, Langfang",,39.576175,116.779041,244,161,2,44,21,26,11,1,1016,50,3,20141104180000
466,"North China Institute of Aerospace, Langfang",,39.53517,116.743027,280,134,3,41,14,39,11,1,1016,50,3,20141104180000
1170,"Guan Party School, Langfang",,39.446185,116.311026,231,174,5,45,12,25,10,1,1016,54,2,20141104180000
1171,"Xianghe EPA, Langfang",,39.76725,117.015252,244,177,2,44,25,49,11,1,1016,50,3,20141104180000
1172,"Wenan County EPA, Langfang",,38.880927,116.47001,165,101,32,19,17,7,11,1,1016,50,3,20141104180000
1173,"Three Rivers Department of Transportation, Langfang",,39.989419,117.091528,202,171,4,29,9,20,11,1,1016,50,3,20141104180000
1278,"Yongqing EPA , Langfang",,39.329071,116.510917,194,151,3,40,13,15,11,1,1016,50,3,20141104180000
1279,"Dacheng EPA, Langfang",,38.712628,116.665751,161,113,17,52,43,15,11,1,1016,50,3,20141104180000
467,Langfang,,39.539148,116.689668,225,151,4,46,26,26,11,1,1016,50,3,20141104180000
468,"Hengshui City EPB, Hengshui",,37.739679,115.695929,163,108,34,16,9,6,10,-1,0,41,3,20141104180000
469,"Environmental Monitoring Station, Hengshui",,37.738593,115.648837,305,197,29,50,18,6,10,-1,0,41,3,20141104180000
470,"Electrical Machine North Factory, Hengshui",,37.758686,115.70094,172,113,34,14,12,5,10,-1,0,41,3,20141104180000
1174,"Anping EPA, Hengshui",,38.238559,115.537988,167,96,24,27,15,7,10,-1,0,41,3,20141104180000
1175,"Jizhou EPA, Hengshui",,37.548552,115.58679,172,96,33,14,15,6,10,-1,0,41,3,20141104180000
1280,"Zaoqiang EPA, Hengshui",,37.520698,115.714936,164,103,47,14,14,7,10,-1,0,41,3,20141104180000
1281,"Wuyi EPA, Hengshui",,37.801554,115.898697,163,101,31,13,23,5,10,-1,0,41,3,20141104180000
1282,"Wuqiang EPA , Hengshui",,38.03557,115.959767,164,94,23,1,10,11,10,-1,0,41,3,20141104180000
1283,"Raoyang EPA , Hengshui",,38.230652,115.741041,177,114,24,1,22,10,10,-1,0,41,3,20141104180000
1284,"Gucheng County , Hengshui",,37.347569,115.966707,161,78,23,1,14,1,10,-1,0,41,3,20141104180000
471,Hengshui,,37.739562,115.676066,172,113,34,14,12,5,10,-1,0,41,3,20141104180000
1176,"Xinji City Hall, Xinji",,37.949711,115.230084,165,107,22,22,18,10,10,-1,0,41,3,20141104180000
474,"Qinjian street, Tianjin",,39.166588,117.15104,168,97,13,29,36,10,11,1,1016,50,3,20141104180000
475,"Nanjing Road, Tianjin",,39.120958,117.195112,170,96,15,30,32,13,11,1,1016,50,3,20141104180000
476,"Dazhigu No.8 road, Tianjin",,39.111811,117.25147,164,106,16,25,36,25,11,1,1016,50,3,20141104180000
477,"Qianjin street, Tianjin",,39.09371,117.207981,171,95,28,32,41,7,11,1,1016,50,3,20141104180000
478,"Huaihe street, Tianjin",,39.227167,117.191293,230,111,8,42,14,7,12,0,1016,44,4,20141104180000
479,"Xiangshan street, Tianjin",,39.134752,117.275125,163,73,10,20,20,10,11,1,1016,50,3,20141104180000
480,"Yuejin Road, Tianjin",,39.088177,117.320884,154,91,17,29,27,9,11,1,1016,50,3,20141104180000
481,"Zhujiang street, Tianjin",,39.064463,117.231268,-,-,-,-,-,-,-,-,0,-,-,20141104180000
482,"No.4 street, Tianjin",,39.035228,117.713424,155,80,23,17,14,7,11,1,1016,50,3,20141104180000
483,"Yongming road, Tianjin",,38.840392,117.463805,158,73,15,24,14,11,11,1,1016,50,3,20141104180000
484,"Xinhua street, Tianjin",,39.138671,117.010083,-,-,-,-,-,-,-,-,0,-,-,20141104180000
485,"Jingu Road, Tianjin",,38.985659,117.381254,-,-,-,-,-,-,-,-,0,-,-,20141104180000
486,"Tanggu Yingkou street, Tianjin",,39.021768,117.656454,-,-,-,-,-,-,-,-,0,-,-,20141104180000
487,"Hexi Yijing road, Tianjin",,39.248392,117.798043,-,-,-,-,-,-,-,-,0,-,-,20141104180000
488,"Jianshe Road, Tianjin",,39.720075,117.310588,-,-,-,-,-,-,-,-,0,-,-,20141104180000
489,"Quanzhou South road, Tianjin",,39.373857,117.050329,-,-,-,-,-,-,-,-,0,-,-,20141104180000
490,"Donghuan road, Tianjin",,40.043144,117.451062,-,-,-,-,-,-,-,-,0,-,-,20141104180000
491,"Tuanpowa, Tianjin",,38.920418,117.16299,-,101,14,17,18,7,11,1,1016,50,3,20141104180000
493,"Beiwei No.2 road, Tianjin",,38.943857,116.920624,-,-,-,-,-,-,-,-,0,-,-,20141104180000
494,"Haitai fazhan No.2 road, Tianjin",,39.079608,117.096583,-,-,-,-,-,-,-,-,0,-,-,20141104180000
495,"Hangtian road, Tianjin",,39.152244,117.381309,168,87,14,29,32,9,11,1,1016,50,3,20141104180000
496,"Hanbei road, Tianjin",,39.159768,117.770477,157,84,23,24,30,8,11,1,1016,50,3,20141104180000
497,"Baobai highway, Tianjin",,39.51757,117.349635,-,-,-,-,-,-,-,-,0,-,-,20141104180000
498,Tianjin,,39.085164,117.207281,171,95,15,32,41,13,11,1,1016,50,3,20141104180000
499,"Wolong bridge, Hangzhou",,30.24371,120.132762,157,66,21,39,5,7,11,9,1021,88,1,20141104180000
500,"Hemu primary school, Hangzhou",,30.309669,120.124507,169,92,26,43,5,9,11,9,1021,88,1,20141104180000
501,"Zhejiang Agricultural University, Hangzhou",,30.265601,120.197583,165,88,15,48,6,9,11,9,1021,88,1,20141104180000
502,"Xiasha, Hangzhou",,30.303516,120.352618,159,73,22,40,7,4,11,9,1021,88,1,20141104180000
503,"Yunqi, Hangzhou",,30.178555,120.093142,161,61,16,17,4,6,11,9,1021,88,1,20141104180000
504,"Xixi, Hangzhou",,30.272425,120.068144,163,69,13,35,5,9,11,9,1021,88,1,20141104180000
505,"Chengxiang town, Hangzhou",,30.179493,120.274184,173,86,16,49,15,7,11,9,1021,88,1,20141104180000
506,"Qiandao lake, Hangzhou",,29.638139,119.031092,109,50,39,6,6,5,11,9,1021,88,1,20141104180000
507,"Linping town, Hangzhou",,30.415948,120.305059,158,63,28,30,13,9,11,9,1021,88,1,20141104180000
509,"No.2 Middle School, Hangzhou",,30.044303,119.956356,168,108,14,24,9,10,11,9,1021,88,1,20141104180000
510,"City Hall, Hangzhou",,30.234185,119.723503,162,79,35,17,11,10,11,8,1020,82,2,20141104180000
511,"No. 4 middle school, Hangzhou",,30.229428,119.699591,156,71,11,17,7,11,11,8,1020,82,2,20141104180000
512,Hangzhou,,30.271756,120.159765,169,88,12,53,4,8,11,9,1021,88,1,20141104180000
513,"City Station, Wenzhou",,28.009715,120.679129,107,55,20,20,9,7,10,8,0,88,1,20141104180000
514,"Ouhai, Wenzhou",,28.001846,120.641982,155,67,6,41,14,11,10,8,0,88,1,20141104180000
515,"Longwan, Wenzhou",,27.968122,120.768393,162,108,18,48,14,8,10,8,0,88,1,20141104180000
516,"Nanpu, Wenzhou",,27.981763,120.683685,142,73,11,36,11,8,10,8,0,88,1,20141104180000
517,Wenzhou,,27.990985,120.703425,142,73,11,36,11,8,10,8,0,88,1,20141104180000
518,"Monitoring station, Jiaxing",,30.75437,120.767373,176,108,25,25,12,8,14,9,1020,72,2,20141104180000
519,"Jiaxing University, Jiaxing",,30.745099,120.735004,102,45,25,14,6,7,14,9,1020,72,2,20141104180000
520,"Qinghe Primary School, Jiaxing",,30.775685,120.747969,124,67,20,31,9,7,14,9,1020,72,2,20141104180000
521,Jiaxing,,30.751627,120.762862,176,108,25,25,12,8,14,9,1020,72,2,20141104180000
522,"Chengbei water plant, Huzhou",,30.891155,120.096593,153,72,23,38,6,9,14,9,1020,72,2,20141104180000
523,"Jishan new village, Huzhou",,30.859939,120.120168,167,72,20,45,10,10,14,9,1020,72,2,20141104180000
524,"Town west water plant, Huzhou",,30.862371,120.084577,157,75,13,44,6,9,14,9,1020,72,2,20141104180000
525,Huzhou,,30.892304,120.091694,153,72,23,38,6,9,14,9,1020,72,3,20141104180000
526,"Donghu middle school, Shaoxing",,29.990447,120.647547,129,60,12,13,11,11,11,8,1020,82,2,20141104180000
527,"City EPA station, Shaoxing",,30.001695,120.584318,181,107,14,35,26,8,11,8,1020,82,2,20141104180000
528,"Chengdong BDA committee, Shaoxing",,29.986643,120.613578,162,75,22,17,12,6,11,8,1020,82,2,20141104180000
529,"Paojiang station, Shaoxing",,30.07574,120.62154,177,103,27,28,14,8,11,9,1021,88,1,20141104180000
530,"Shaoxing technical school, Shaoxing",,29.930983,120.577131,152,72,22,24,10,5,11,8,1020,82,2,20141104180000
531,"Library, Shaoxing",,29.706266,120.253183,155,67,7,17,4,10,11,8,1020,82,2,20141104180000
532,"Transporation management station, Shaoxing",,29.726405,120.221602,160,0,6,22,6,11,11,8,1020,82,2,20141104180000
533,"Dongpu Town Governement, Shaoxing",,30.049601,120.539893,212,146,24,31,28,5,11,8,1020,82,2,20141104180000
534,Shaoxing,,29.993122,120.590182,181,107,14,35,26,8,-,-,0,-,-,20141104180000
535,"City Monitoring Station, Jinhua",,29.100031,119.690373,173,86,18,43,16,11,9,6,0,81,1,20141104180000
536,"No.15 middle school, Jinhua",,29.074022,119.652121,178,89,13,36,10,10,9,6,0,83,1,20141104180000
537,"No.4 middle school, Jinhua",,29.110109,119.653654,181,91,15,35,24,13,9,6,0,81,1,20141104180000
538,"Beiyuan, Jinhua",,29.332898,120.083351,-,-,-,-,-,-,-,-,0,-,-,20141104180000
539,"Jiangdong, Jinhua",,29.302486,120.095291,161,87,3,38,25,17,9,6,0,83,1,20141104180000
540,Jinhua,,29.076083,119.65215,178,89,13,36,10,10,9,6,0,83,1,20141104180000
541,"EPA building, Quzhou",,28.937291,118.876081,152,84,24,28,14,11,12,10,1021,89,2,20141104180000
542,"Experimental school, Quzhou",,28.961502,118.880916,153,72,19,38,12,8,12,10,1021,89,2,20141104180000
543,"Quzhou University, Quzhou",,28.971452,118.860052,155,71,12,34,3,10,12,10,1021,89,2,20141104180000
544,Quzhou,,28.966994,118.864252,155,71,12,34,3,10,12,10,1021,89,2,20141104180000
545,"Putuo east port, Zhoushan",,29.951412,122.317679,53,18,35,4,1,3,10,9,1021,94,1,20141104180000
546,"Dinghai tanfeng, Zhoushan",,30.018014,122.126566,59,17,18,9,3,12,10,9,1021,94,1,20141104180000
547,Zhoushan,,29.983049,122.210763,50,30,19,9,2,4,10,9,1021,94,1,20141104180000
548,"Taizhou EPA building, Taizhou",,28.651216,121.42331,154,73,14,19,5,6,10,9,0,91,1,20141104180000
549,"Luqiao Tian Yang Wang, Taizhou",,28.574364,121.381194,124,61,8,25,4,9,10,9,0,91,1,20141104180000
550,"Huangyan EPA building, Taizhou",,28.656151,121.285064,85,43,17,12,3,5,10,9,0,91,1,20141104180000
551,"Yu Zhuang Qian, Lishui",,28.419638,119.883884,104,59,16,28,4,6,13,10,1021,73,0,20141104180000
552,"Monitoring station building, Lishui",,28.444379,119.923103,156,71,15,24,4,11,13,10,1021,73,0,20141104180000
553,"Liandu primary school, Lishui",,28.450912,119.939332,137,67,26,17,2,7,13,10,1021,73,0,20141104180000
554,Lishui,,28.464224,119.927201,156,71,15,24,4,11,13,10,1021,73,0,20141104180000
1248,Jingningxian,,27.977454,119.634837,151,77,4,16,2,8,,,,,,20141104180000
555,Taigu Primary School,,29.864178,121.60022,129,75,7,39,128,8,10,9,1021,94,1,20141104180000
556,Qianhu shuihan,,29.862459,121.5328,157,92,8,44,11,9,10,9,1021,94,1,20141104180000
557,Sanjiang secondary schools,,29.891563,121.568427,156,71,13,49,135,8,10,9,1021,94,1,20141104180000
558,Longsai Hospital,,29.957301,121.726734,122,54,23,46,133,6,11,10,1021,94,1,20141104180000
559,Beilun District EPB,,29.911633,121.850773,85,40,17,27,3,6,11,10,1021,94,1,20141104180000
560,Wanli University,,29.821314,121.574364,155,77,18,40,135,6,10,9,1021,94,1,20141104180000
561,Qianhu water plant,,29.774416,121.648136,93,42,32,12,4,4,10,9,1021,94,1,20141104180000
562,Municipal management station,,29.899182,121.626691,112,64,14,46,133,12,10,9,1021,94,1,20141104180000
1177,Daxie Literary Museum,,29.9027,121.986447,57,13,23,8,1,3,10,9,1021,94,1,20141104180000
1178,Cixi EPB,,30.165807,121.248991,102,42,27,14,7,6,10,9,1021,94,1,20141104180000
1179,Cixi Experimently Primary School,,30.179808,121.268672,147,46,33,10,7,6,10,9,1021,94,1,20141104180000
1180,"Yongsan Park, Yuyao",,30.050842,121.162477,156,69,31,31,132,8,10,9,1021,94,1,20141104180000
1181,"Qilupu Water Company, Yuyao",,30.039112,121.133416,151,63,29,36,12,7,10,9,1021,94,1,20141104180000
1182,Fenghua EPB,,29.666557,121.42069,72,30,27,8,130,9,10,9,1021,94,1,20141104180000
1183,"Yuelong station, Ninghai",,29.296505,121.445872,87,40,18,15,6,6,10,9,1021,94,1,20141104180000
1184,"Wenfeng Primary School, Xiangshan",,29.470908,121.889544,61,40,19,9,3,5,10,9,1021,94,1,20141104180000
1185,"Chengnan Primary School, Ninghai",,29.293812,121.43666,91,46,23,14,5,5,10,9,1021,94,1,20141104180000
1186,"Xingang Primary School, Xiangshan",,29.203878,121.952514,65,23,28,12,3,2,10,9,1021,94,1,20141104180000
1356,Haishu City Monitoring Center,,29.86835,121.539341,168,113,11,47,14,8,11,10,1021,94,1,20141104180000
1357,Fenghua Xikou government,,29.693164,121.29331,74,30,10,27,136,9,10,9,1021,94,1,20141104180000
1294,Ningbo,,29.865766,121.548164,112,64,14,46,133,12,10,9,1021,94,1,20141104180000
1187,Fuyang,,30.046157,119.96468,168,110,12,22,10,10,-,-,0,-,-,20141104180000
1188,Yiwu,,29.304353,120.079794,161,87,3,38,25,17,-,-,0,-,-,20141104180000
1189,Zhuji,,29.711185,120.240748,160,67,7,22,6,11,11,8,1020,82,2,20141104180000
563,"Shanxi Road , Nanjing",,32.06795,118.779216,241,145,23,38,25,0,8,7,1019,93,2,20141104180000
564,"Ruijin Road , Nanjing",,32.029321,118.80817,212,126,3,49,12,0,8,7,1019,93,2,20141104180000
565,"Xuanwu Lake, Nanjing",,32.075423,118.800188,197,119,14,38,17,0,8,7,1019,93,2,20141104180000
566,"Olympic Center, Nanjing",,32.007171,118.742217,231,150,5,27,7,0,8,7,1019,93,2,20141104180000
567,"Xianlin University Town , Nanjing",,32.106958,118.919882,248,152,20,45,18,0,8,7,1019,93,2,20141104180000
568,Nanjing,,32.058179,118.802061,232,146,10,49,18,0,8,7,1019,93,2,20141104180000
569,"Shangfang hill , Suzhou",,31.24502,120.565211,149,57,18,33,6,0,14,9,1020,72,2,20141104180000
570,"Wuzhong District , Suzhou",,31.268105,120.61717,-,-,-,-,-,-,-,-,0,-,-,20141104180000
571,"Suzhou New District , Suzhou",,31.297277,120.547262,139,60,20,38,18,0,14,9,1020,72,2,20141104180000
572,"Suzhou Industrial Area, Suzhou",,31.307603,120.673257,129,52,25,28,9,0,14,9,1020,72,2,20141104180000
573,"Xiangcheng district, Suzhou",,31.368674,120.645209,132,53,12,46,6,0,14,9,1020,72,2,20141104180000
574,Suzhou,,31.296701,120.589493,149,64,25,46,18,0,14,8,1021,67,2,20141104180000
575,"South suburb , Nantong",,31.957836,120.917218,155,63,20,37,27,0,12,9,0,86,3,20141104180000
576,"Xinghu park, Nantong",,31.927873,120.944254,139,70,21,43,20,0,12,9,0,86,3,20141104180000
577,"Zilang school, Nantong",,32.039638,120.814358,109,64,26,37,18,0,12,9,0,86,3,20141104180000
578,Nantong,,31.978005,120.898555,155,70,26,43,27,0,12,9,0,86,3,20141104180000
579,Lianyungang,,34.595509,119.226814,152,84,21,27,10,7,8,8,1016,96,0,20141104180000
580,"Hongmen police substation, Lianyungang",,34.588692,119.146693,159,78,21,14,15,0,10,4,1021,58,1,20141104180000
581,"Xugou Nuclear Expert Village , Lianyungang",,34.749957,119.373707,144,91,24,16,15,0,10,4,1021,58,1,20141104180000
582,"Hengrui pharmaceutical company, BDA, Lianyungang",,34.697574,119.353668,156,88,23,17,12,0,10,4,1021,58,1,20141104180000
583,"City Monitoring Station, Lianyungang",,34.586791,119.186929,162,97,13,23,20,0,10,4,1021,58,1,20141104180000
584,"Yellow river new village , Xuzhou",,34.271542,117.177241,165,91,4,40,22,0,6,5,1019,86,1,20141104180000
585,"Tongshan Veterinary Hospital , Xuzhou",,34.307086,117.197766,178,96,4,47,5,0,7,5,1020,84,0,20141104180000
586,"New Town , Xuzhou",,34.213992,117.261718,205,131,4,29,8,0,7,5,1020,84,0,20141104180000
587,"Taoyuan road, Xuzhou",,34.289822,117.249721,154,101,5,27,12,0,6,5,1019,86,1,20141104180000
588,"Agricultural Science Academy , Xuzhou",,34.27655,117.299079,180,101,7,7,28,0,6,5,1019,86,1,20141104180000
589,"Tongshan EPA, Xuzhou",,34.179384,117.171798,175,147,2,8,11,0,6,5,1019,86,1,20141104180000
590,Xuzhou,,34.20346,117.289825,237,131,8,47,24,0,7,5,1020,84,0,20141104180000
591,Yangzhou,,32.39233,119.418446,159,69,10,19,10,5,11,9,0,90,6,20141104180000
592,"Hanjiang Monitoring Station, Yangzhou",,32.374218,119.394484,167,97,14,25,20,0,11,7,0,76,3,20141104180000
593,"No. 4 Hospital, Yangzhou",,32.401394,119.44444,164,90,17,16,27,0,11,7,0,76,3,20141104180000
594,"City Monitoring Station, Yangzhou",,32.406588,119.41591,167,75,3,12,31,0,11,7,0,76,3,20141104180000
595,"University Town , Wuxi",,31.484752,120.273571,142,67,23,22,14,0,14,9,1020,72,2,20141104180000
596,"Shibei High School , Wuxi",,31.619969,120.279584,154,80,8,40,14,0,14,9,1020,72,2,20141104180000
597,"Yuhong Elementary School , Wuxi",,31.561155,120.249588,139,70,12,37,18,0,14,9,1020,72,2,20141104180000
598,Wuxi,,31.488746,120.31575,158,80,23,43,24,0,-,-,0,-,-,20141104180000
599,Changzhou,,31.808037,119.979205,172,86,6,22,36,13,11,9,0,88,5,20141104180000
600,"Chengjian School, Changzhou",,31.776476,119.937681,151,66,16,22,15,0,12,10,0,89,3,20141104180000
601,"Changzhou Engineering Institute , Changzhou",,31.806828,119.966724,173,98,8,48,37,0,12,10,0,89,3,20141104180000
602,"Wujin Monitoring Station, Changzhou",,31.701788,119.939676,153,66,31,12,11,0,12,10,0,89,3,20141104180000
603,"City Monitoring Station, Changzhou",,31.777201,119.979426,156,76,11,31,16,0,12,10,0,89,3,20141104180000
604,Zhenjiang,,32.18597,119.431281,170,79,4,39,15,13,9,8,0,93,5,20141104180000
605,"New District Administrative office , Zhenjiang",,32.186174,119.685021,180,116,13,61,12,0,7,7,1019,100,1,20141104180000
606,"Vocational Education Center , Zhenjiang",,32.212973,119.496253,174,97,28,44,16,0,7,7,1019,100,1,20141104180000
607,"Dantu Monitoring Station , Zhenjiang",,32.130026,119.435432,175,107,22,38,16,0,7,7,1019,100,1,20141104180000
608,"City Monitoring Station, Zhenjiang",,32.202178,119.439766,174,83,17,42,24,0,7,7,1019,100,1,20141104180000
609,"Gaogang Adminstrative office , Taizhoushi",,32.300768,119.886757,184,127,17,15,16,0,11,7,0,76,3,20141104180000
610,"Students Innovation Park , Taizhoushi",,32.461672,119.892761,192,-,20,18,43,0,11,7,0,76,3,20141104180000
611,Taizhoushi,,32.453555,119.927852,242,160,20,37,43,0,11,7,0,76,3,20141104180000
612,"Yancheng power station , Yancheng",,33.400859,120.123067,153,68,33,20,15,0,,,0,,,20141104180000
613,Yancheng,,33.345939,120.168504,144,52,30,5,3,7,11,10,1016,95,4,20141104180000
614,"Wenfeng Middle School , Yancheng",,33.370531,120.134041,154,72,47,17,18,0,,,0,,,20141104180000
615,"BDA Management Committe, Yancheng",,33.393191,120.22978,102,44,30,12,6,0,,,0,,,20141104180000
616,"City Monitoring Station, Yancheng",,33.390623,120.164423,151,66,31,12,10,0,,,0,,,20141104180000
617,Suqian,,33.960666,118.281004,160,87,24,7,5,7,11,10,0,91,6,20141104180000
618,"Suqian College , Suqian",,33.951472,118.298523,161,95,15,60,25,0,10,3,0,61,2,20141104180000
619,"Suqian Middle School , Suqian",,33.95784,118.249505,158,119,14,48,18,0,10,3,0,61,2,20141104180000
620,"Suyu District Environmental Protection Agency , Suqian",,33.94932,118.326569,179,108,26,32,32,0,10,3,0,61,2,20141104180000
621,"City Monitoring Station, Suqian",,33.956982,118.277022,180,123,17,44,36,0,10,3,0,61,2,20141104180000
622,Taizhou,,28.653436,121.425185,154,73,14,19,5,6,10,9,0,91,1,20141104180000
623,Donghu Liyuan,,30.572324,114.377844,157,75,16,44,16,6,11,7,1018,76,2,20141104180000
624,Yuehu Lake,,30.554662,114.256937,152,73,17,56,10,8,11,7,1018,76,2,20141104180000
625,Hankou Huaqiao ,,30.61724,114.287652,153,78,10,50,23,10,11,7,1018,76,2,20141104180000
626,Wuchang Ziyang ,,30.530801,114.309438,151,77,16,53,27,8,11,7,1018,76,2,20141104180000
627,Qingshan Ganghua,,30.622435,114.375599,187,101,11,54,44,15,11,7,1018,76,2,20141104180000
628,Dunkou Xinou,,30.480091,114.162176,168,95,11,47,24,10,11,7,1018,76,2,20141104180000
629,Donghu Gaoxin,,30.48095,114.40724,159,91,15,51,16,8,11,7,1018,76,2,20141104180000
630,Wujianshan,,30.63114,114.135907,163,98,10,42,9,22,11,7,1018,76,2,20141104180000
631,Yuanshun Road,,30.297142,113.858587,114,58,36,19,10,3,11,7,1018,76,2,20141104180000
632,Wuhan,,30.590689,114.310838,139,77,13,27,26,7,11,7,1018,76,2,20141104180000
1190,"Silingsan Factory, Yichang",,30.713288,111.306585,152,81,5,25,13,9,13,10,1018,74,2,20141104180000
633,Yichang,,30.689528,111.292131,175,110,9,28,37,12,13,10,1018,74,2,20141104180000
633,Yichang,,30.689528,111.292131,175,110,9,28,37,12,13,10,1018,74,2,20141104180000
1191,"City Library , Jingzhou",,30.31494,112.260844,142,73,19,22,46,9,14,7,1018,54,1,20141104180000
1192,"City committee communist party school, Jingzhou",,30.35054,112.20743,152,86,8,30,26,12,14,7,1018,54,1,20141104180000
1193,"kerong EPA, Jingzhou",,30.302965,112.29443,152,79,27,14,53,9,14,7,1018,54,1,20141104180000
634,Jingzhou,,30.332608,112.245451,152,86,27,30,53,12,14,7,1018,54,1,20141104180000
634,Jingzhou,,30.332608,112.245451,152,86,27,30,53,12,14,7,1018,54,1,20141104180000
635,Huangshi,,30.19723,115.043908,153,77,11,37,20,22,10,,1022,100,2,20141104180000
635,Huangshi,,30.19723,115.043908,153,77,11,37,20,22,10,,1022,100,2,20141104180000
1194,"Chenjiaying, Huangshi",,30.232823,115.067923,153,86,3,29,5,21,10,,1022,100,2,20141104180000
1195,"Chenjiawan , Huangshi",,30.200422,115.082138,152,88,18,33,24,20,10,,1022,100,2,20141104180000
1196,"Xinxialu, Huangshi",,30.17332,114.954357,151,79,14,34,24,20,10,,1022,100,2,20141104180000
1197,"Tie montian, Huangshi",,30.203885,114.906439,157,65,11,41,17,23,10,,1022,100,2,20141104180000
1198,"BDA, Huangshi",,30.207491,115.031739,153,79,10,41,33,25,10,,1022,100,2,20141104180000
636,Shiyan,,32.627208,110.803311,129,65,9,11,11,5,6,,0,95,1,20141104180000
636,Shiyan,,32.627208,110.803311,129,65,9,11,11,5,6,,0,95,1,20141104180000
1199,"Wudang Mountain , Shiyan",,32.392921,111.047655,109,63,24,3,7,5,6,,0,95,1,20141104180000
1200,"Riverside Village , Shiyan",,32.647286,110.785335,147,69,7,18,12,7,6,,0,95,1,20141104190000
1201,"Liujiagou , Shiyan",,32.636732,110.731129,132,69,5,7,16,1,6,,0,95,1,20141104190000
637,Xiangyang,,32.007029,112.128496,153,76,24,12,17,6,7,,1020,86,1,20141104190000
638,Ezhou,,30.389244,114.899884,155,76,12,23,26,15,12,,1029,100,4,20141104190000
638,Ezhou,,30.389244,114.899884,155,76,12,23,26,15,12,,1029,100,4,20141104190000
1203,"City government, Ezhou",,30.391836,114.892822,152,64,12,28,26,13,12,,1029,100,4,20141104190000
1204,"Zhaojiaba, Ezhou",,30.368966,114.90365,152,77,14,9,8,13,12,,1029,100,4,20141104190000
1205,"Fankou BDA, Ezhou",,30.410759,114.818225,162,88,9,31,43,18,12,,1029,100,4,20141104190000
639,Jingmen,,31.033208,112.205093,155,86,12,25,22,8,6,,1013,88,1,20141104190000
639,Jingmen,,31.033208,112.205093,155,86,12,25,22,8,6,,1013,88,1,20141104190000
640,Xiaogan,,30.922089,113.922387,139,72,18,1,8,9,7,,1029,84,1,20141104190000
640,Xiaogan,,30.922089,113.922387,139,72,18,1,8,9,7,,1029,84,1,20141104190000
1206,"wenhua street, Shenyang , Xiaogan",,30.925856,113.92104,127,71,22,28,5,13,7,,1029,84,1,20141104190000
1207,"Dongcheng District , Huludao , Xiaogan",,30.917963,113.943904,139,72,19,1,8,7,7,,1029,84,1,20141104190000
641,Huanggang,,30.45124,114.877378,154,78,8,20,6,17,12,,1029,100,4,20141104190000
641,Huanggang,,30.45124,114.877378,154,78,8,20,6,17,12,,1029,100,4,20141104190000
1208,"Dazhou Island, Huanggang",,30.446205,114.900323,154,93,7,28,6,15,12,,1029,100,4,20141104190000
1209,"Workers Center , Huanggang",,30.469244,114.912504,154,63,9,12,6,19,12,,1029,100,4,20141104190000
642,Xianning,,29.838978,114.327898,117,70,13,14,13,19,5,,993,85,1,20141104190000
642,Xianning,,29.838978,114.327898,117,70,13,14,13,19,5,,993,85,1,20141104190000
1210,"Municipal Development and Reform Commission , Xianning",,29.818645,114.328461,124,74,10,17,15,27,5,,993,85,1,20141104190000
1211,"Xianan District Governement, Xianning",,29.51107,114.181864,104,68,10,15,2,18,7,,1002,85,1,20141104190000
1212,"Yangtze River Industrial Park , Xianning",,29.883098,114.32909,127,70,15,15,28,14,5,,993,85,1,20141104190000
1213,"Qianshan Park, Xianning",,29.815351,114.328689,114,66,15,10,6,17,5,,993,85,1,20141104190000
643,Suizhou,,31.688342,113.388675,153,82,17,6,10,19,5,,1015,83,1,20141104190000
643,Suizhou,,31.688342,113.388675,153,82,17,6,10,19,5,,1015,83,1,20141104190000
1338,"City committee communist party school, Suizhou",,31.725316,113.3648,157,91,10,8,5,12,5,,1015,83,1,20141104190000
1339,"Forestry Bureau, Suizhou",,31.690065,113.383157,149,79,24,5,14,16,5,,1015,83,1,20141104190000
645,Xiantao,,30.360228,113.460616,147,77,11,28,29,14,7,,1029,84,1,20141104190000
645,Xiantao,,30.360228,113.460616,147,77,11,28,29,14,7,,1029,84,1,20141104190000
1214,"Xiangcheng Yundong Street, Xiangfan",,32.017716,112.16102,152,75,17,11,18,3,7,,1020,86,1,20141104190000
1359,"Fancheng Xinhua Road , Xiangfan",,32.0544,112.145224,154,76,30,13,17,10,7,,1020,86,1,20141104190000
655,"City Environmental Monitoring Station, Baotou",,40.657201,109.886738,104,69,13,21,7,10,,,0,,,20141104190000
656,"Donghe EPB, Baotou",,40.586213,110.002224,154,133,6,32,17,15,,,0,,,20141104190000
657,"Baotou shopping mall, Baotou",,40.508334,109.819085,139,82,13,25,11,15,,,0,,,20141104190000
658,"Huilong logistics, Baotou",,40.633436,109.879821,142,84,11,36,23,18,,,0,,,20141104190000
659,Baotou,,40.658597,109.846051,165,133,13,36,23,18,,,0,,,20141104190000
660,"Huatai Automobile Mall, Eerduosi",,39.837048,109.972209,76,54,47,6,1,4,4,-10,1021,22,2,20141104190000
661,"Olympus Garden, Eerduosi",,39.789171,109.987742,65,70,38,8,4,5,4,-10,1021,22,2,20141104190000
662,Eerduosi,,39.609284,109.78704,85,81,47,8,4,6,4,-10,1021,22,2,20141104190000
663,"Tianyi Road, Chifeng",,42.275552,118.88507,114,54,27,6,12,7,8,-8,1013,18,4,20141104190000
664,"Songshan No.1 Middle School, Chifeng",,42.329307,118.793045,144,75,24,9,22,9,8,-8,1013,18,4,20141104190000
665,"Hada Street, Chifeng",,42.280714,118.988235,129,63,14,7,15,10,8,-8,1013,18,4,20141104190000
666,"Songshan Road, Chifeng",,42.171487,118.89501,154,85,42,7,23,7,8,-8,1013,18,4,20141104190000
667,Chifeng,,42.259752,118.893027,154,85,42,9,23,10,8,-8,1013,18,4,20141104190000
674,Fuzhou,,26.071406,119.301294,85,47,69,16,3,6,18,13,1020,73,2,20141104190000
675,"Xidong, Xiamen",,24.815345,118.161848,80,32,39,4,2,5,19,13,1019,68,2,20141104190000
676,"Hongwen, Xiamen",,24.473969,118.156281,80,37,43,12,5,5,19,13,1019,68,2,20141104190000
677,"Gulangyu, Xiamen",,24.443168,118.068571,70,36,42,10,4,4,19,13,1019,68,2,20141104190000
678,"Huli, Xiamen",,24.51235,118.099146,70,35,50,6,4,5,19,13,1019,68,2,20141104190000
679,Xiamen,,24.477187,118.094402,70,35,50,6,4,5,-,-,0,-,-,20141104190000
680,"Qingyuan Montain, Quanzhou",,24.939503,118.598337,59,20,31,1,2,4,19,13,1019,68,2,20141104190000
681,"Tushan Street, Quanzhou",,24.90867,118.586397,70,25,49,8,3,3,19,13,1019,68,2,20141104190000
682,"Wanan, Quanzhou",,24.304154,118.070903,63,25,25,9,2,5,19,13,1019,68,2,20141104190000
683,Quanzhou,,24.87179,118.68001,70,27,56,13,5,5,19,13,1019,68,2,20141104190000
687,"Jiancaoping, Taiyuan",,37.887889,112.528383,212,166,2,27,63,31,4,-3,1019,61,1,20141104190000
688,"Jianhe, Taiyuan",,37.910779,112.579258,173,173,2,7,75,30,4,-3,1019,61,1,20141104190000
689,"Shanglan, Taiyuan",,38.011589,112.440679,144,70,9,31,50,10,5,-3,1019,57,1,20141104190000
690,"Jinyuan, Taiyuan",,37.713164,112.475552,277,189,5,25,78,18,5,-3,1019,57,1,20141104190000
691,"Xiaodian, Taiyuan",,37.782137,112.483533,202,151,15,26,107,29,5,-3,1019,57,1,20141104190000
692,"Taoyuan, Taiyuan",,37.869752,112.543332,222,159,2,46,62,29,5,-3,1019,57,1,20141104190000
693,"Wucheng, Taiyuan",,37.819998,112.576252,293,385,2,21,154,19,4,-3,1019,61,1,20141104190000
694,"Nanzhai, Taiyuan",,37.985902,112.555312,194,114,4,18,35,9,4,-3,1019,61,1,20141104190000
695,"Jinsheng, Taiyuan",,37.781205,112.494494,187,121,4,17,108,22,4,-3,1019,61,1,20141104190000
696,Taiyuan,,37.871115,112.555178,222,159,2,46,62,30,-,-,0,-,-,20141104190000
697,"Monitoring station, Changzhi",,36.194062,113.10389,179,120,17,28,16,25,,,0,,,20141104190000
698,"Auditing bureau, Changzhi",,36.212787,113.095221,184,98,14,35,14,24,,,0,,,20141104190000
699,"Qinghua station, Changzhi",,36.154328,113.116385,164,105,17,37,27,26,,,0,,,20141104190000
700,"No.8 middle school, Changzhi",,36.185451,113.099481,172,105,16,25,26,35,,,0,,,20141104190000
701,Changzhi,,36.195553,113.12292,184,120,20,37,27,35,,,0,,,20141104190000
702,"Yungang Hotel, Datong",,40.076997,113.278079,82,62,21,7,43,15,4,-6,1020,37,3,20141104190000
703,"college of education, Datong",,40.085608,113.27808,107,54,9,4,5,12,4,-6,1020,37,3,20141104190000
704,Datong,,40.078016,113.307143,107,79,21,16,48,15,4,-6,1020,37,3,20141104190000
705,"Technical Schools, Linfen",,36.07131,111.509046,172,122,8,59,43,63,6,-6,0,36,3,20141104190000
706,"Municipal party committee, Linfen",,36.087425,111.508771,173,75,10,1,20,37,6,-7,0,37,3,20141104190000
1073,"City Monitoring Station, Linfen",,36.097676,111.518739,190,94,8,46,50,38,6,-7,0,37,3,20141104190000
707,"South Airport, Linfen",,36.041614,111.497968,179,88,23,25,36,28,6,-7,0,37,3,20141104190000
708,Linfen,,36.087944,111.525098,190,122,24,59,54,63,6,-6,0,36,3,20141104190000
709,"City center, Yangquan",,37.848012,113.578636,192,118,3,25,74,15,5,-3,1019,57,1,20141104190000
710,Yangquan,,37.857475,113.586921,192,118,12,25,90,19,5,-3,1019,57,1,20141104190000
711,"Water Company, Jincheng",,35.504787,112.857245,180,94,8,14,64,24,9,-4,1020,37,3,20141104190000
712,"Baiyun shopping mall, Jincheng",,35.492858,112.841566,170,119,4,33,73,21,9,-4,1020,37,3,20141104190000
713,"City EPA, Jincheng",,35.488422,112.858528,185,147,7,25,30,27,9,-4,1020,37,3,20141104190000
714,"Institute of Technology, Jincheng",,35.484844,112.878073,200,140,5,12,21,19,9,-4,1020,37,3,20141104190000
715,"No.1 middle school, Jincheng",,35.478725,112.838636,191,117,4,20,65,13,9,-4,1020,37,3,20141104190000
716,Jincheng,,35.490287,112.85794,200,147,5,33,73,27,9,-4,1020,37,3,20141104190000
718,"District Government, Shuozhou",,39.320857,112.430641,91,74,8,21,51,12,8,-7,1020,22,4,20141104190000
719,"City EPA, Shuozhou",,39.331495,112.407997,-,57,-,17,28,-,8,-7,1020,22,4,20141104190000
720,"No.2 middle school, Shuozhou",,39.377963,112.432877,109,62,21,28,35,10,8,-7,1020,22,4,20141104190000
721,Shuozhou,,39.332756,112.439672,147,105,21,30,55,14,8,-7,1020,22,4,20141104190000
722,"Jinlun compound, Jinzhong",,37.697891,112.771017,169,97,5,10,57,15,5,-3,1019,57,1,20141104190000
723,"Hydraulic Component Factory, Jinzhong",,37.688355,112.725844,182,124,4,37,67,28,5,-3,1019,57,1,20141104190000
724,"Nandu compound, Jinzhong",,37.713148,112.732036,173,118,3,4,29,22,5,-3,1019,57,1,20141104190000
725,"Yuci district government, Jinzhong",,37.698228,112.714167,183,104,3,5,47,41,5,-3,1019,57,1,20141104190000
726,Jinzhong,,37.687705,112.759187,183,124,5,37,67,41,5,-3,1019,57,1,20141104190000
727,"Yuncheng Middle School, Yuncheng",,35.012345,111.003215,-,-,-,-,-,-,-,-,0,-,-,20141104190000
728,"Yudou BDA, Yuncheng",,35.05065,111.029571,190,157,10,10,2,22,11,2,1021,46,0,20141104190000
730,"Regional Technical School, Yuncheng",,35.028727,110.974076,180,118,10,6,17,28,11,2,1021,46,0,20141104190000
731,"Airport new district, Yuncheng",,35.084515,111.05339,158,121,14,18,34,28,11,2,1021,46,0,20141104190000
732,Yuncheng,,35.025675,111.013344,190,157,14,18,34,28,-,-,0,-,-,20141104190000
733,"Jiyin, Xinzhou",,38.413292,112.742432,160,83,9,35,45,17,5,-3,1019,57,1,20141104190000
734,"BDA, Xinzhou",,38.450069,112.736723,156,59,2,6,62,18,5,-3,1019,57,1,20141104190000
735,"Convention Center, Xinzhou",,38.492043,112.709772,170,73,8,25,47,37,5,-3,1019,57,1,20141104190000
736,Xinzhou,,38.417244,112.740742,170,83,9,35,62,37,5,-3,1019,57,1,20141104190000
737,"City EPA, Luliang",,37.522189,111.144365,97,66,5,19,52,26,14,12,0,86,3,20141104190000
738,"Soybean factory, Luliang",,37.51689,111.135101,117,67,4,63,62,33,14,12,0,86,3,20141104190000
739,"Water Company, Luliang",,37.53394,111.138834,163,105,6,19,89,36,14,12,0,86,3,20141104190000
740,Luliang,,25.027007,103.668566,163,105,6,63,89,36,14,12,0,86,3,20141104190000
741,"City government, Sanmenxia",,34.776251,111.198781,127,85,4,25,22,24,10,2,1018,50,3,20141104190000
743,"BDA, Sanmenxia",,34.800434,111.204332,163,79,5,33,20,14,10,2,1018,50,3,20141104190000
744,Sanmenxia,,34.771506,111.206129,163,91,5,33,31,24,10,2,1018,50,3,20141104190000
745,"Food Factory, Changchun",,43.919094,125.329521,160,119,34,16,41,6,9,-2,1011,46,9,20141104190000
746,"Bus Factory, Changchun",,43.912337,125.293431,162,100,29,16,26,8,9,-2,1011,46,9,20141104190000
747,"Institute of Posts and Telecommunications, Changchun",,43.842368,125.285005,161,127,22,21,25,11,9,-2,1011,46,9,20141104190000
748,"Laodong Park, Changchun",,43.877293,125.371519,153,98,25,15,30,6,9,-2,1011,46,9,20141104190000
749,"Forest area, Changchun",,43.871825,125.331519,163,120,25,15,25,16,9,-2,1011,46,9,20141104190000
750,"Jinyuetan, Changchun",,43.79031,125.460561,154,72,35,11,12,18,9,-2,1011,46,9,20141104190000
751,"Shuaiwanzi, Changchun",,43.552321,125.639086,119,58,27,6,10,4,9,-2,1011,46,9,20141104190000
752,"Economic Development Zone Sanitation Department, Changchun",,43.869221,125.42365,170,117,42,13,22,5,9,-2,1011,46,9,20141104190000
753,"High-tech Zone Administrative Committee, Changchun",,43.819064,125.256375,160,98,38,13,21,16,9,-2,1011,46,9,20141104190000
754,"Daishan Park, Changchun",,43.852365,125.223399,158,119,36,17,26,6,9,-2,1011,46,9,20141104190000
755,Changchun,,43.819415,125.329977,161,127,22,21,25,11,-,-,0,-,-,20141104190000
756,"Hadawan, Jilin",,43.888081,126.545727,142,76,19,11,30,14,4,1,0,83,5,20141104190000
757,"Fengman, Jilin",,43.768169,126.678802,119,57,41,5,11,7,4,1,0,83,5,20141104190000
758,"Electric Power College, Jilin",,43.827403,126.502281,109,56,26,12,17,7,4,1,0,83,5,20141104190000
759,"Jiangnan Park, Jilin",,43.83531,126.556519,109,42,20,6,12,6,4,1,0,83,5,20141104190000
760,"Dongjuzi, Jilin",,43.838597,126.590068,99,56,23,6,9,6,4,1,0,83,5,20141104190000
763,Jilin,,43.840137,126.555262,142,76,42,12,30,14,4,1,0,83,5,20141104190000
764,"Lingbei, Haerbin",,45.756979,126.548008,197,139,43,76,28,6,8,3,1008,71,7,20141104190000
765,"Songbei Commercial University, Haerbin",,45.818624,126.566963,202,129,43,14,29,10,8,3,1008,71,7,20141104190000
766,"Acheng huining, Haerbin",,45.544286,126.985183,175,107,39,6,11,12,8,3,1008,71,7,20141104190000
767,"Nangang College Street, Haerbin",,45.724121,126.604906,189,157,45,12,28,16,8,3,1008,71,7,20141104190000
768,"Taiping Hongwei Park, Haerbin",,45.775332,126.695101,197,144,40,22,43,17,8,3,1008,71,7,20141104190000
769,"Daowai Chengde Square, Haerbin",,45.768637,126.640955,198,152,30,20,35,17,8,3,1008,71,7,20141104190000
770,"Xiangfang Hongqi Street, Haerbin",,45.733936,126.691083,186,124,34,4,30,18,8,3,1008,71,7,20141104190000
771,"Dongli Heping Road, Haerbin",,45.727765,126.651974,205,157,37,21,30,14,8,3,1008,71,7,20141104190000
772,"Daoli Jianguo Road, Haerbin",,45.749715,126.59891,194,148,37,25,49,15,8,3,1008,71,7,20141104190000
773,"Pingfang Light Factory, Haerbin",,45.611951,126.620898,186,127,10,16,22,20,8,3,1008,71,7,20141104190000
774,"Hulan Normal College, Haerbin",,45.983745,126.616553,271,387,29,20,2,12,8,3,1008,71,7,20141104190000
775,"Provincial Academy of Agricultural Sciences, Haerbin",,45.686141,126.626517,181,105,27,16,49,10,8,3,1008,71,7,20141104190000
776,Haerbin,,45.805757,126.541007,202,129,43,14,29,10,-,-,0,-,-,20141104190000
777,"Anju Compound, Qiqihaer",,47.365672,123.937016,192,96,27,23,6,17,-2,-3,1006,83,0,20141104190000
778,"Farming Vehicule Factory, Qiqihaer",,47.326793,123.961427,185,76,21,25,5,15,-2,-3,1006,83,0,20141104190000
779,"Fuqu EPA, Qiqihaer",,47.1853,123.62322,275,91,40,-,4,23,-2,-3,1006,83,0,20141104190000
780,"City Center Square, Qiqihaer",,47.343096,123.96192,182,87,17,5,31,12,-2,-3,1006,83,0,20141104190000
1217,"City Environmental Monitoring Station, Qiqihaer",,47.303639,123.957551,199,125,23,28,18,10,-2,-3,1006,83,0,20141104190000
781,Qiqihaer,,47.356387,123.924736,275,125,40,28,31,23,-2,-3,1006,83,0,20141104190000
782,"Saertu District, Daqing",,46.582368,125.152904,190,114,28,4,12,9,2,-5,1008,49,1,20141104190000
783,"Datong District, Daqing",,46.036786,124.842115,107,65,49,6,10,12,2,-5,1008,49,1,20141104190000
784,"Honggang District, Daqing",,46.418381,124.88973,164,76,75,12,9,11,2,-5,1008,49,1,20141104190000
785,"Longfeng District, Daqing",,46.535426,125.107043,190,100,46,25,13,17,2,-5,1008,49,1,20141104190000
786,"Ranghulu District, Daqing",,46.635123,124.85648,162,77,40,20,10,9,2,-5,1008,49,1,20141104190000
787,Daqing,,46.591414,125.110838,190,114,75,25,13,17,2,-5,1008,49,1,20141104190000
788,"Locomotive Factory, Mudanjiang",,44.610589,129.652672,207,139,32,15,11,27,9,-3,1013,31,4,20141104190000
789,"No. 1 hospital, Mudanjiang",,44.567775,129.617043,189,109,34,17,13,22,9,-3,1013,31,4,20141104190000
1220,"EPA building, Mudanjiang",,44.567777,129.620658,180,91,7,13,10,17,9,-3,1013,31,4,20141104190000
1221,"Cultural Square, Mudanjiang",,44.586388,129.623164,171,93,3,23,11,27,9,-3,1013,31,4,20141104190000
790,Mudanjiang,,44.553619,129.640246,207,139,40,23,14,27,9,-3,1013,31,4,20141104190000
791,"Mingzhu Plaza, Hefei",,31.782847,117.201512,137,74,40,21,15,13,11,7,1019,76,2,20141104190000
792,"Sanli Street, Hefei",,31.874637,117.312573,168,77,26,33,9,20,11,7,1019,76,2,20141104190000
793,"Hupo Compound, Hefei",,31.868583,117.264491,158,92,30,20,5,18,11,7,1019,76,2,20141104190000
794,"Dongpu Reservoir, Hefei",,31.90319,117.165584,157,98,36,18,8,8,11,7,1019,76,2,20141104190000
795,"Changjiang middle road, Hefei",,31.855185,117.255484,151,96,5,21,8,17,11,7,1019,76,2,20141104190000
796,"Luyang District, Hefei",,31.941771,117.271504,161,102,11,3,16,9,11,7,1019,76,2,20141104190000
797,"Yaohai District, Hefei",,31.856595,117.341644,164,126,16,16,28,16,11,7,1019,76,2,20141104190000
798,"Baohe District, Hefei",,31.793644,117.307554,162,102,3,8,11,11,11,7,1019,76,2,20141104190000
799,"Lake district, Hefei",,31.736619,117.283501,139,69,14,12,3,5,11,7,1019,76,2,20141104190000
800,"High-tech zone, Hefei",,31.849755,117.129624,151,84,12,17,9,6,11,7,1019,76,2,20141104190000
801,Hefei,,31.819449,117.232753,151,96,5,21,8,17,-,-,0,-,-,20141104190000
802,"Hudong Road No.4 Elementary School, Maanshan",,31.684121,118.511017,166,85,32,31,15,10,7,7,1019,100,1,20141104190000
803,"Tianping Garment Factory, Maanshan",,31.64197,118.488043,173,109,49,33,18,15,7,7,1019,100,1,20141104190000
804,"City education base, Maanshan",,31.711216,118.648913,161,76,16,11,4,5,7,7,1019,100,1,20141104190000
805,"Cihu No.2 elementary school, Maanshan",,31.748546,118.515729,-,-,-,-,-,-,-,-,0,-,-,20141104190000
806,"Maanshan steel factory power plant, Maanshan",,31.690864,118.48528,157,73,19,36,14,10,7,7,1019,100,1,20141104190000
807,Maanshan,,31.668461,118.511939,173,109,49,36,18,15,7,7,1019,100,1,20141104190000
808,"Science Innovation Center, Wuhu",,31.417056,118.375406,89,30,11,17,4,10,8,7,1019,93,2,20141104190000
809,"No.4 Water Plant, Wuhu",,31.315914,118.376231,82,30,28,21,15,15,7,7,1019,100,1,20141104190000
810,"Monitoring station, Wuhu",,31.348955,118.358154,95,32,13,18,17,13,7,7,1019,100,1,20141104190000
811,"Wuqierling Factory, Wuhu",,31.382068,118.407639,127,44,31,11,8,4,7,7,1019,100,1,20141104190000
812,Wuhu,,31.351007,118.438322,127,44,31,21,17,15,7,7,1019,100,1,20141104190000
813,"Jiangxi Foreign Affairs Office, Nanchang",,28.678027,115.903436,182,99,6,5,1,19,14,9,1020,66,1,20141104190000
814,"Provincial forestry company, Nanchang",,28.69065,115.898546,180,103,7,15,1,9,14,9,1020,66,1,20141104190000
815,"Institute of Forestry, Nanchang",,28.731518,115.82478,144,73,21,1,1,5,14,9,1020,66,1,20141104190000
816,"Jingdong town government, Nanchang",,28.680659,115.972736,178,89,16,1,11,7,14,9,1020,66,1,20141104190000
817,"Contruction Industry College, Nanchang",,28.684018,115.865891,173,120,4,46,12,11,14,9,1020,66,1,20141104190000
818,"Xianghu, Nanchang",,28.637831,115.9033,181,182,3,69,11,18,13,10,1019,71,1,20141104190000
819,"Martial Arts School, Nanchang",,28.794538,115.752876,119,45,11,6,5,8,14,9,1020,66,1,20141104190000
820,"Petrifaction Company, Nanchang",,28.608634,115.912999,186,129,10,19,1,13,14,9,1020,66,1,20141104190000
821,"Provincial Station, Nanchang",,28.677155,115.941896,178,111,10,3,3,12,13,10,1019,71,1,20141104190000
822,Nanchang,,28.679883,115.863022,186,181,21,69,12,19,14,9,1020,66,1,20141104190000
939,Sanya,,18.251142,109.515993,82,52,24,15,1,9,24,22,1015,89,3,20141104190000
823,"Lushan Mountain Observatory, Jiujiang",,29.5751,115.998926,34,15,43,28,101,3,11,-7,1020,17,3,20141104190000
824,"Shili, Jiujiang",,29.668119,115.992381,151,82,2,24,13,12,10,-1,1021,34,1,20141104190000
825,"Maoshantou, Jiujiang",,29.700819,115.967192,109,71,3,35,129,10,11,-7,1020,17,3,20141104190000
826,"Xiyuan, Jiujiang",,29.723929,115.998206,134,115,7,33,23,13,10,-1,1021,34,1,20141104190000
827,"Wuqierling Factory, Jiujiang",,29.640802,116.022713,80,45,33,18,133,5,11,-7,1020,17,3,20141104190000
828,"Water Scientific Research Institute, Jiujiang",,29.679179,116.068081,134,75,14,18,25,6,10,-1,1021,34,1,20141104190000
829,"Zonghe Industrial Park, Jiujiang",,29.592047,115.916335,82,52,23,31,110,3,11,-7,1020,17,3,20141104190000
830,"Petrochemical General Plant, Jiujiang",,29.738832,116.09463,152,70,19,17,46,9,10,-1,1021,34,1,20141104190000
831,Jiujiang,,29.70254,116.007025,152,115,43,33,46,13,10,-1,1021,34,1,20141104190000
1332,"Feiyu, Xinyu",,27.844697,115.000136,156,-,30,18,59,,18,,1022,47,1,20141104190000
1333,"Beigang, Xinyu",,27.932491,115.103767,154,82,23,26,60,,18,,1022,47,1,20141104190000
1334,"No.2 water factory, Xinyu",,27.839577,114.933915,155,81,9,21,19,,18,,1022,47,1,20141104190000
1335,"Bureau of Meteorology, Xinyu",,27.81048,114.936507,151,86,15,22,29,,18,,1022,47,1,20141104190000
1336,Xinyu,,27.814351,114.922194,156,86,30,26,60,,18,,1022,47,1,20141104190000
832,"Tobacco Factory, Zhengzhou",,34.753419,113.687131,168,143,12,42,23,30,10,6,1018,76,1,20141104190000
833,"Textile Machinery Factory, Zhengzhou",,34.773366,113.647067,167,132,7,33,25,25,10,6,1018,76,1,20141104190000
834,"Banking College, Zhengzhou",,34.800856,113.681126,163,134,6,29,24,11,10,6,1018,76,1,20141104190000
835,"Water Supply Company, Zhengzhou",,34.807188,113.571089,175,115,8,38,43,10,10,6,1018,76,1,20141104190000
836,"Economic Development Zone Management Committee, Zhengzhou",,34.717652,113.733182,180,149,3,17,18,16,10,6,1018,76,1,20141104190000
837,"No. 47 middle school, Zhengzhou",,34.772211,113.74009,173,121,9,36,19,12,10,6,1018,76,1,20141104190000
838,"City Monitoring Station, Zhengzhou",,34.748404,113.60514,166,117,14,42,22,34,10,6,1018,76,1,20141104190000
839,"Henan Medical University, Zhengzhou",,34.752637,113.641658,166,156,20,28,23,21,10,6,1018,76,1,20141104190000
840,"Gangli Reservoir, Zhengzhou",,34.952652,113.64248,166,102,4,18,11,12,10,6,1018,76,1,20141104190000
841,Zhengzhou,,34.745417,113.631415,166,156,20,28,23,21,-,-,0,-,-,20141104190000
842,"Henan University No.1 Hospital, Kaifeng",,34.799302,114.352706,139,75,11,18,13,8,9,5,1017,76,1,20141104190000
843,"Maternity And Child Hospital, Kaifeng",,34.795803,114.386103,158,73,11,25,11,9,9,5,1017,76,1,20141104190000
844,"Cancer Hospital, Kaifeng",,34.775428,114.350292,152,78,9,14,9,8,9,5,1017,76,1,20141104190000
845,"Yellow River Conservancy Institute, Kaifeng",,34.826066,114.324772,82,69,35,9,33,6,9,5,1017,76,1,20141104190000
846,"Shijixing Kindergarden, Kaifeng",,34.793606,114.302744,134,96,5,23,13,4,9,5,1017,76,1,20141104190000
847,Kaifeng,,34.796346,114.313426,139,75,11,18,13,8,9,5,1017,76,1,20141104190000
852,Jiaozuo,,35.215381,113.248188,127,64,30,37,38,14,10,6,1018,76,1,20141104190000
853,"Cotton Research Institute, Anyang",,36.081435,114.486451,109,78,14,17,10,5,11,0,1017,35,2,20141104190000
854,"Hongmiao Street, Anyang",,36.086733,114.326,13,6,-,-,-,-,11,0,1017,35,2,20141104190000
855,"Yinxing Compound, Anyang",,36.056519,114.36495,153,109,5,35,28,18,11,0,1017,35,2,20141104190000
856,"Tiefo Temple, Anyang",,36.110041,114.309309,132,101,3,37,34,12,11,0,1017,35,2,20141104190000
857,Anyang,,36.097767,114.398846,153,109,14,44,86,18,11,0,1017,35,2,20141104190000
858,"City Monitoring Station, Luoyang",,34.669055,112.439633,172,93,9,31,43,35,12,,1018,65,3,20141104190000
859,"BDA Management Committee, Luoyang",,34.622084,112.390759,161,98,14,61,24,14,12,,1018,65,3,20141104190000
860,"New municipal office, Luoyang",,34.623745,112.432973,168,86,12,21,36,38,12,,1018,65,3,20141104190000
861,"City committee communist party school, Luoyang",,34.650169,112.400212,171,108,7,33,33,17,12,,1018,65,3,20141104190000
862,"Henan Forestry College, Luoyang",,34.685566,112.509429,174,123,9,41,26,19,12,,1018,65,3,20141104190000
863,"CITIC No.2 Elementary School, Luoyang",,34.668212,112.36907,179,108,6,24,41,16,12,,1018,65,3,20141104190000
864,"Yuxi Hotel, Luoyang",,34.685949,112.472611,144,123,3,19,27,26,12,,1018,65,3,20141104190000
865,Luoyang,,34.617424,112.46054,179,123,14,61,43,38,12,,1018,65,3,20141104190000
866,"City Planning Design Institute, Pingdingshan",,33.7352,113.297916,166,95,6,32,14,15,9,5,1017,76,1,20141104190000
867,"Xinhua Hotel, Pingdingshan",,33.737754,113.328814,159,97,6,35,15,15,9,5,1017,76,1,20141104190000
868,"Engineering College, Pingdingshan",,33.772474,113.188235,152,80,16,38,37,8,9,5,1017,76,1,20141104190000
869,"High Voltage Switchgear Factory, Pingdingshan",,33.719941,113.312665,165,127,12,33,13,9,9,5,1017,76,1,20141104190000
