locationid,stationname,chinesename,latitude,longitude,pm25,pm10,o3,no2,so2,co,temperature,dewpoint,pressure,humidity,wind,est_time
1,Dongcheng Dongsi,,39.9304,116.423239,66,461,28,5,2,2,-4,-25,1030,19,11,20141130170000
2,"Temple of Heaven, Dongcheng",,39.887403,116.41324,110,414,25,4,2,1,-4,-25,1030,19,11,20141130170000
3,West Park officials,,39.930333,116.345162,117,232,24,4,2,2,-4,-25,1030,19,11,20141130170000
4,West Wanshou Nishinomiya,,39.879354,116.358183,76,363,26,3,2,4,-4,-25,1030,19,11,20141130170000
5,Chaoyang Olympic Sports Center,,39.983406,116.403253,117,434,22,4,2,3,-4,-25,1030,19,11,20141130170000
6,Chaoyang Agricultural Exhibition Hall,,39.938331,116.46715,108,438,31,5,2,2,-4,-25,1030,19,11,20141130170000
7,Haidian Wanliu,,39.988245,116.293062,96,357,17,4,2,2,-4,-25,1030,19,11,20141130170000
8,The Haidian northern New Area,,40.091313,116.180194,104,315,18,1,2,2,-4,-25,1030,19,11,20141130170000
9,Haidian Beijing Botanical Garden,,40.003252,116.213097,92,260,28,3,2,4,-4,-25,1030,19,11,20141130170000
10,Fengtai garden,,39.86423,116.285037,113,304,19,8,2,2,-4,-25,1030,19,11,20141130170000
11,Fengtai Yungang,,39.82535,116.152237,99,216,24,20,2,2,-4,-25,1030,19,11,20141130170000
12,Shijingshan city,,39.915286,116.190144,108,326,2,2,3,3,-4,-25,1030,19,11,20141130170000
13,"Fangshan, Liangxiang",,39.743357,116.14225,101,314,16,3,2,4,-4,-25,1030,19,11,20141130170000
14,"Huangcunzhen, Daxing",,39.719389,116.410219,81,304,23,4,5,2,-4,-25,1030,19,11,20141130170000
15,BDA,,39.796197,116.51197,98,412,31,4,2,4,-4,-25,1030,19,11,20141130170000
16,Tongzhou New Town,,39.887113,116.6689,144,520,29,3,2,3,-4,-25,1030,19,11,20141130170000
17,Shunyi New Town ,,40.128111,116.660908,153,798,24,2,2,1,-4,-25,1030,19,11,20141130170000
18,Changping Town,,40.218245,116.236084,117,379,27,3,2,3,-4,-25,1030,19,11,20141130170000
19,"Mentougou, Longquan Town",,39.938397,116.112323,144,192,24,1,3,2,-4,-25,1030,19,11,20141130170000
20,Pinggu town,,40.144433,117.106563,157,895,29,3,2,2,-4,-25,1030,19,11,20141130170000
21,Huairou town,,40.329104,116.63387,153,844,29,1,2,2,-4,-25,1030,19,11,20141130170000
22,The town of Miyun,,40.371186,116.838053,151,852,27,2,2,2,-4,-25,1030,19,11,20141130170000
23,Yanqing town,,40.454217,115.978106,93,286,29,1,2,2,-4,-25,1030,19,11,20141130170000
24,Changping Dingling,,40.293269,116.226108,134,378,30,1,2,8,-4,-25,1030,19,11,20141130170000
25,Badaling Northwest,,40.36623,115.994146,108,402,26,1,2,3,-4,-25,1030,19,11,20141130170000
26,Miyun Reservoir,,40.500157,116.91701,91,594,29,1,2,2,-4,-25,1030,19,11,20141130170000
27,"Donggaocun Zhen, Pinggu",,40.10142,117.126556,164,895,25,1,2,3,-4,-25,1030,19,11,20141130170000
28,"Yongledianzhen, Tongzhou",,39.713192,116.78905,104,546,12,17,5,4,-4,-25,1030,19,11,20141130170000
29,"Yufazhen, Daxing",,39.521203,116.306026,65,198,21,1,2,3,-4,-25,1030,19,11,20141130170000
30,"Liulihezhen, Fangshan",,39.581169,116.006089,25,93,24,5,2,3,-4,-25,1030,19,11,20141130170000
31,"Qianmen E St, Dongcheng",,39.900402,116.401242,114,361,25,4,2,3,-4,-25,1030,19,11,20141130170000
32,Yongdingmen Inner St,,39.877401,116.400238,116,329,26,9,2,2,-4,-25,1030,19,11,20141130170000
33,Xizhimen N St,,39.955352,116.355187,146,387,21,3,2,3,-4,-25,1030,19,11,20141130170000
34,South Ring Road,,39.857377,116.37421,138,339,18,1,2,3,-4,-25,1030,19,11,20141130170000
35,East Fourth Ring Road,,39.940273,116.489075,155,414,24,5,2,1,-4,-25,1030,19,11,20141130170000
36,Beijing,,39.955906,116.474246,132,461,25,5,2,2,-4,-25,1030,19,11,20141130170000
37,Putuo,,31.232979,121.415378,130,48,17,14,6,6,12,9,1021,82,8,20141130170000
38,Yangpu Sipiao,,31.263795,121.540311,117,42,27,17,7,15,11,8,1022,82,7,20141130170000
39,Shanghai Normal College Primary Division,,31.199031,121.487719,122,45,23,14,6,10,12,9,1021,82,8,20141130170000
40,Dianshan Lake,,31.091338,120.982293,140,51,18,15,10,10,12,9,1021,82,8,20141130170000
41,Hongkou Liangcheng,,31.298906,121.47155,125,46,29,14,9,9,12,9,1021,82,8,20141130170000
42,Jingan,,31.224251,121.429637,146,52,63,16,9,9,12,9,1021,82,8,20141130170000
43,Shanghai Normal University,,31.163531,121.416643,150,53,30,15,10,7,12,9,1021,82,8,20141130170000
44,Chuansha,,31.188626,121.707342,109,36,33,8,7,6,12,9,1021,82,8,20141130170000
45,Zhangjiang,,31.204896,121.581215,137,46,33,13,7,7,12,9,1021,82,8,20141130170000
46,Lingshan Road,,31.226286,121.537317,131,50,33,13,9,7,12,9,1021,82,8,20141130170000
1080,City average,,31.228451,121.478227,130,47,20,14,8,8,12,9,1021,82,8,20141130170000
47,Shanghai,,31.202842,121.453493,151,30,18,18,5,8,12,9,1021,82,8,20141130170000
48,Guangzhou,,23.138517,113.263701,160,89,19,31,9,15,21,14,1015,64,7,20141130170000
49,"Huadu town, Guangzhou",,23.389121,113.220062,91,60,44,11,6,13,21,14,1015,64,7,20141130170000
50,"Luogang Zhenlong, Guangzhou",,23.308027,113.567032,80,41,29,14,9,10,20,14,1016,68,7,20141130170000
51,"LuHu, Guangzhou",,23.151743,113.281842,107,53,17,12,5,11,20,14,1016,68,7,20141130170000
52,"Tianhu, Guangzhou",,23.647433,113.629715,114,40,23,13,5,6,21,14,1015,64,7,20141130170000
53,"Zhudong, Guangzhou",,23.418406,113.078552,70,60,45,10,5,14,20,14,1016,68,7,20141130170000
54,"Modiesha station, Guangzhou",,23.103814,113.338238,-,-,-,-,-,-,-,-,0,-,-,20141130170000
55,Zhuhai,,22.2677,113.581765,72,26,17,18,2,10,23,22,1013,94,1,20141130170000
1075,"Huicai technical school, Foshan",,23.039667,113.105492,76,40,40,23,11,11,21,14,1015,64,7,20141130170000
56,"Sanshuiyun donghai, Foshan",,23.185788,112.865368,74,31,21,4,7,11,20,13,1016,64,8,20141130170000
57,"Nanhai Bureau of Meteorology, Foshan",,23.046836,113.145764,82,55,38,15,7,12,21,14,1015,64,7,20141130170000
58,"Sanshui Monitoring Station, Foshan",,23.163551,112.890843,78,32,33,6,13,14,20,13,1016,64,8,20141130170000
1087,Foshan,,23.018995,113.126899,82,55,38,15,7,12,22,15,1015,64,9,20141130170000
59,"Ronggui street committee, Shunde",,22.762729,113.258356,129,59,34,29,-,13,20,14,1016,68,7,20141130170000
60,Shunde,,22.80246,113.298701,91,61,24,26,15,8,-,-,0,-,-,20141130170000
61,"Donghu, Jiangmen",,22.590411,113.087351,95,45,31,24,7,5,24,23,1013,94,2,20141130170000
62,"Taoyuan Atmosphere Premier Station, Jiangmen",,22.72489,112.93404,-,-,-,-,-,-,-,-,0,-,-,20141130170000
63,Jiangmen,,22.576047,113.087351,144,71,31,33,13,17,23,22,1013,94,0,20141130170000
64,"Kengkouzi station, Zhaoqing",,23.158865,112.570287,139,63,31,9,8,7,20,14,1016,68,7,20141130170000
65,"Mugangzi station, Zhaoqing",,23.067961,112.431934,124,61,46,8,6,12,20,14,1016,68,7,20141130170000
67,Zhaoqing,,23.044571,112.470346,127,36,42,6,5,6,20,14,1016,68,7,20141130170000
68,"Jinguo Bay, Huizhou",,22.937223,114.385567,-,-,-,-,-,-,-,-,0,-,-,20141130170000
1091,"Xiabu, Huizhou",,23.077493,114.410275,122,70,29,17,5,10,24,23,1014,94,0,20141130170000
69,"Xijiao, Huizhou",,23.338178,114.112867,-,-,-,-,-,-,-,-,0,-,-,20141130170000
70,"Jiangbei, Huizhou",,23.111706,114.415274,151,101,28,29,7,5,24,23,1014,94,0,20141130170000
71,"Huiyang chuanhu, Huizhou",,22.814485,114.329292,78,30,24,6,3,8,24,23,1014,94,0,20141130170000
72,"Daya bay management committee, Huizhou",,22.739283,114.53631,80,35,31,10,8,4,24,23,1014,94,0,20141130170000
73,Huizhou,,23.109349,114.421164,151,101,28,29,7,5,24,23,1014,94,0,20141130170000
74,"Guancheng No.2 water plant, Dongguan",,23.057294,113.753254,151,67,53,18,12,14,24,23,1014,94,0,20141130170000
75,"Dongcheng Shijing, Dongguan",,23.010039,113.799529,155,65,73,29,8,9,24,23,1014,94,0,20141130170000
76,"Nancheng Xiping, Dongguan",,22.963051,113.743494,151,75,44,39,9,12,24,23,1014,94,0,20141130170000
77,"Nancheng Yuanling, Dongguan",,23.025058,113.751308,149,65,89,28,15,11,24,23,1014,94,0,20141130170000
78,Dongguan,,23.017813,113.756958,149,65,89,28,15,11,24,23,1014,94,0,20141130170000
79,"Zimaling, Zhongshan",,22.505112,113.407183,97,42,8,11,9,11,23,22,1013,94,1,20141130170000
80,"Yangtze River tourist area, Zhongshan",,22.48589,113.439054,87,29,11,15,3,2,23,22,1013,94,1,20141130170000
81,"Huabai Park, Zhongshan",,22.51839,113.374362,151,65,11,15,8,16,23,22,1013,94,1,20141130170000
82,Zhongshan,,22.513997,113.398277,97,42,8,11,9,11,23,22,1013,94,1,20141130170000
83,"No.8 middle school, Shaoguan",,24.767777,113.583537,25,13,28,8,6,14,16,8,1021,49,5,20141130170000
83,"No.8 middle school, Shaoguan",,24.767777,113.583537,25,13,28,8,6,14,16,8,1021,49,5,20141130170000
84,"Forest area, Shaoguan",,24.796106,113.612131,72,23,34,8,6,13,16,8,1021,49,5,20141130170000
84,"Forest area, Shaoguan",,24.796107,113.612131,72,23,34,8,6,13,16,8,1021,49,5,20141130170000
86,"Shaoguan University, Shaoguan",,24.790864,113.646598,55,17,33,11,8,13,16,8,1021,49,5,20141130170000
86,"Shaoguan University, Shaoguan",,24.790864,113.646599,55,17,33,11,8,13,16,8,1021,49,5,20141130170000
88,"Qujiang Monitoring Station, Shaoguan",,24.683042,113.60157,9,17,28,13,6,11,16,8,1021,49,5,20141130170000
88,"Qujiang Monitoring Station, Shaoguan",,24.683042,113.60157,9,17,28,13,6,11,16,8,1021,49,5,20141130170000
89,Shaoguan,,24.807342,113.602712,72,25,34,8,6,13,16,8,1021,49,5,20141130170000
90,"Chaonanzi Station, Shantou",,23.251174,116.406606,139,59,32,12,4,10,23,22,1014,94,1,20141130170000
90,"Chaonanzi Station, Shantou",,23.251213,116.406762,139,59,32,12,4,10,23,22,1014,94,1,20141130170000
91,Shantou,,23.350642,116.686306,102,42,190,26,5,16,23,22,1014,94,1,20141130170000
92,"City Environmental Monitoring Station, Zhanjiang",,21.220431,110.397317,57,17,27,5,-,11,24,23,1013,87,2,20141130170000
93,"EPB Dormitory, Zhanjiang",,21.197376,110.406487,57,24,24,4,4,4,24,23,1013,87,2,20141130170000
94,"Xiashan Swimming Park, Zhanjiang",,21.200431,110.415655,42,28,23,1,7,12,24,23,1013,87,2,20141130170000
95,"Zhanjiang Theatre, Zhanjiang",,21.268177,110.366445,59,29,25,6,4,5,24,23,1013,87,2,20141130170000
96,"Mazhang EPA, Zhanjiang",,21.265486,110.335993,80,33,11,6,5,12,24,23,1013,87,2,20141130170000
97,"Potou District EPB, Zhanjiang",,21.247604,110.454508,42,29,27,-,1,13,24,23,1013,87,2,20141130170000
98,Zhanjiang,,21.26832,110.363883,59,29,25,6,4,5,24,23,1013,87,2,20141130170000
99,"Maogang sub-office EPB, Maoming",,21.466435,111.033462,61,24,28,1,1,4,24,22,0,87,3,20141130170000
100,"Petrochemical No. 7 elementaty school, Maoming",,21.648905,110.937861,91,42,35,5,4,8,24,22,0,87,3,20141130170000
101,"Jiankang road, Maoming",,21.662211,110.909482,80,41,31,5,4,8,24,22,0,87,3,20141130170000
102,"Gaoling, Maoming",,21.690558,110.871146,70,40,32,9,16,9,24,22,0,87,3,20141130170000
1094,Maoming,,21.660223,110.929968,80,41,31,5,4,9,24,22,0,87,3,20141130170000
103,"Jiaying University, Meizhou",,24.325415,116.12816,93,33,26,6,5,7,23,22,1014,94,1,20141130170000
104,"Mexian new town, Meizhou",,24.269283,116.084546,99,46,24,6,5,8,23,22,1014,94,1,20141130170000
105,"Environmental Monitoring Center, Meizhou",,24.262778,116.129621,95,40,23,6,5,8,23,22,1014,94,1,20141130170000
1095,Meizhou,,24.285988,116.127065,95,40,23,6,5,8,23,22,1014,94,1,20141130170000
106,"City EPA, Shanwei",,22.772349,115.370227,76,30,40,6,7,8,24,23,1014,92,2,20141130170000
107,"City government, Shanwei",,22.787161,115.375536,74,30,42,4,7,8,24,23,1014,92,2,20141130170000
108,"Xincheng Middle School, Shanwei",,22.789851,115.367124,85,39,18,7,4,7,24,23,1014,92,2,20141130170000
1099,Shanwei,,22.783576,115.38022,85,39,18,7,4,7,24,23,1014,92,2,20141130170000
109,"No.3 elementary school, Heyuan",,23.755946,114.699091,42,23,24,7,5,11,23,17,1015,62,4,20141130170000
109,"No.3 elementary school, Heyuan",,23.75435,114.703514,42,23,24,7,5,11,23,17,1015,62,4,20141130170000
111,"City water company, Heyuan",,23.754246,114.682459,76,33,26,10,7,10,23,17,1015,62,4,20141130170000
111,"City water company, Heyuan",,23.688709,114.954652,76,33,26,10,7,10,23,17,1015,62,4,20141130170000
113,"Heyuan high school, Heyuan",,23.720666,114.693879,70,20,26,7,6,8,23,17,1015,62,4,20141130170000
113,"Heyuan high school, Heyuan",,23.720037,114.699563,70,20,26,7,6,8,23,17,1015,62,4,20141130170000
115,Heyuan,,23.740888,114.705147,70,20,26,7,6,8,23,17,1015,62,4,20141130170000
116,"Yuanyang Lake, Yangjiang",,21.855869,111.983676,72,22,31,2,1,8,24,23,1014,95,1,20141130170000
1100,Yangjiang,,21.855227,111.987308,72,22,31,2,1,8,24,23,1014,95,1,20141130170000
118,"Town governement, Qingyuan",,23.708005,113.026215,68,44,35,11,9,16,20,14,1016,68,7,20141130170000
119,"Fupin district, Qingyuan",,23.624781,113.067713,61,24,38,9,7,18,20,14,1016,68,7,20141130170000
121,"Environment protection office, Qingyuan",,23.691109,113.047948,9,5,30,6,7,21,20,14,1016,68,7,20141130170000
121,"Environment protection office, Qingyuan",,23.685931,113.053239,9,5,30,6,7,21,20,14,1016,68,7,20141130170000
123,"Fengcheng Subdistrict, Qingyuan",,23.695447,113.068189,68,44,35,11,9,16,20,14,1016,68,7,20141130170000
124,Qingyuan,,23.679304,113.061513,9,5,30,6,7,21,20,14,1016,68,7,20141130170000
125,"Xiyuan Road, Chaozhou",,23.668654,116.638272,152,69,87,10,8,15,23,22,1014,94,1,20141130170000
126,"Archives Bureau, Chaozhou",,23.667881,116.649104,147,64,123,13,7,10,23,22,1014,94,1,20141130170000
127,"Municipal Corporation, Chaozhou",,23.65035,116.621859,161,66,95,16,10,19,23,22,1014,94,1,20141130170000
1101,Chaozhou,,23.654204,116.626969,161,66,95,16,10,19,23,22,1014,94,1,20141130170000
128,"Donghu Park, Jieyang",,23.532877,116.374427,95,50,44,22,17,16,23,22,1014,94,1,20141130170000
129,"Yuhu Middle School, Jieyang",,23.52682,116.414123,129,54,48,22,18,13,23,22,1014,94,1,20141130170000
130,"Experimental Primary School, Jieyang",,23.571473,116.364137,149,55,36,24,14,15,23,22,1014,94,1,20141130170000
1102,Jieyang,,23.547596,116.37754,95,50,44,22,17,16,23,22,1014,94,1,20141130170000
131,"City Environmental Monitoring Station, Yunfu",,22.936779,112.042248,109,74,24,1,16,14,20,14,1016,68,7,20141130170000
132,"The new city government headquarters, Yunfu",,22.914275,112.044475,119,55,23,1,14,23,20,14,1016,68,7,20141130170000
133,"Muyang police sub-station, Yunfu",,22.951267,112.05923,80,41,28,8,17,17,20,14,1016,68,7,20141130170000
1103,Yunfu,,22.912436,112.049811,119,55,23,1,14,23,20,14,1016,68,7,20141130170000
134,Yantian,,22.587949,114.266899,109,35,35,36,12,20,24,23,1014,94,0,20141130170000
135,Kwai Chung,,22.572837,113.867166,114,55,22,36,17,13,24,23,1014,94,0,20141130170000
135,Kwai Chung,,22.354168,114.134558,114,55,22,36,17,13,24,23,1014,94,0,20141130170000
137,Nanyou,,22.513802,113.928051,114,94,33,27,10,16,24,23,1014,94,0,20141130170000
138,Meisha,,22.59611,114.318345,78,40,28,18,11,8,24,23,1014,94,0,20141130170000
139,Xi xiang,,22.717524,114.252304,85,50,31,29,3,13,24,23,1014,94,0,20141130170000
140,Liyuan,,22.54732,114.101205,68,26,16,23,6,12,24,23,1014,94,0,20141130170000
1072,Kwai Chung,,22.627947,114.428875,85,36,25,15,3,7,24,23,1014,94,0,20141130170000
1072,Kwai Chung,,22.354168,114.134558,85,36,25,15,3,7,24,23,1014,94,0,20141130170000
141,OCT,,22.539549,113.992458,93,38,11,34,2,14,24,23,1014,94,0,20141130170000
142,Honghu,,22.559647,114.121976,74,30,22,34,4,7,24,23,1014,94,0,20141130170000
143,Mission Hills,,22.694131,114.050496,152,77,44,26,3,9,24,23,1014,94,0,20141130170000
144,Shenzhen,,22.540382,114.062982,152,94,44,36,17,20,-,-,0,-,-,20141130170000
145,Chengdu,,30.622581,104.069564,142,73,29,28,8,6,12,0,1025,44,3,20141130170000
146,"Jinquan lianghe, Chengdu",,30.710359,103.974209,139,79,23,20,10,10,12,3,1026,54,2,20141130170000
147,"Shilidian, Chengdu",,30.684718,104.17845,132,76,24,22,8,8,12,3,1026,54,2,20141130170000
148,"Sanwayao, Chengdu",,30.568159,104.081524,102,62,,,,9,12,3,1026,54,2,20141130170000
149,"Shahepu, Chengdu",,30.633685,104.120536,127,68,20,25,10,7,12,3,1026,54,2,20141130170000
150,"Liang Lane, Chengdu",,30.682601,104.076522,132,71,25,23,3,6,12,3,1026,54,2,20141130170000
151,"Caotang Temple, Chengdu",,30.651891,104.0284,139,73,26,28,8,6,12,3,1026,54,2,20141130170000
152,"Lingyansi, Chengdu",,31.025729,103.615022,99,58,32,11,4,5,12,3,1026,54,2,20141130170000
153,"Fuleshan, Mianyang",,31.472493,104.7806,74,40,28,3,5,2,12,-1,1026,27,4,20141130170000
154,"High-tech Zone Water Company, Mianyang",,31.463309,104.674293,70,41,23,12,5,4,12,-1,1026,27,4,20141130170000
155,"No.3 water company, Mianyang",,31.505002,104.731054,68,40,29,11,6,2,12,-1,1026,27,4,20141130170000
156,Mianyang,,31.465174,104.681731,74,48,29,13,6,4,12,-1,1026,27,4,20141130170000
157,"Dongshan Park, Deyang",,31.118648,104.424587,53,30,12,12,6,5,12,3,1026,54,2,20141130170000
158,"Xixiaoqu, Deyang",,31.131159,104.390972,57,24,9,11,1,7,12,3,1026,54,2,20141130170000
159,"City Procuratorate, Deyang",,31.114554,104.407986,72,30,18,18,4,6,12,3,1026,54,2,20141130170000
160,"Refractory Factory, Deyang",,31.108606,104.356506,53,42,27,12,2,4,12,3,1026,54,2,20141130170000
161,Deyang,,31.124715,104.400703,72,42,27,18,6,7,12,3,1026,54,2,20141130170000
162,"Nongnongping, Panzhihua",,26.566698,101.695438,85,48,30,17,5,6,13,4,0,42,2,20141130170000
163,"Hemenkou, Panzhihua",,26.589072,101.578312,117,62,30,15,11,15,13,4,0,42,2,20141130170000
164,"Bingcaogang, Panzhihua",,26.58143,101.718473,104,67,26,31,6,19,13,4,0,42,2,20141130170000
165,"Renhe, Panzhihua",,26.498166,101.746887,65,30,31,21,4,15,13,4,0,42,2,20141130170000
918,Beihai,,21.478867,109.12422,157,75,38,16,8,15,24,22,1014,89,1,20141130170000
166,"Jinjina, Panzhihua",,26.553226,101.84862,129,107,35,17,33,8,13,4,0,42,2,20141130170000
167,Panzhihua,,26.578779,101.720211,129,107,35,31,33,19,13,4,0,42,2,20141130170000
168,"Shima Middle School, Yibin",,28.815979,104.599199,93,44,17,14,7,11,14,12,1026,83,0,20141130170000
169,"Municipal party committee, Yibin",,28.762654,104.624834,93,47,15,14,8,15,14,12,1026,83,0,20141130170000
170,"No. 4 middle school, Yibin",,28.783257,104.608407,114,50,19,13,6,10,14,12,1026,83,0,20141130170000
171,"City government, Yibin",,28.760477,104.644079,109,53,21,17,6,15,14,12,1026,83,0,20141130170000
172,"Huangjinzui, Yibin",,28.712319,104.578389,102,56,16,13,7,11,14,12,1026,83,0,20141130170000
173,"Shaping Middle School, Yibin",,28.795569,104.681393,114,45,29,12,6,11,14,12,1026,83,0,20141130170000
174,Yibin,,28.748384,104.645766,114,56,29,17,8,15,14,12,1026,83,0,20141130170000
175,"Datang Hill, Zigong",,29.359969,104.757388,149,78,28,15,7,7,12,4,1001,61,3,20141130170000
176,"Yanma Road, Zigong",,29.355752,104.724036,144,59,27,13,9,6,12,4,1001,61,3,20141130170000
177,"Tanmulin Street, Zigong",,29.353555,104.777397,89,42,23,8,8,6,12,4,1001,61,3,20141130170000
178,"Chunhua Road, Zigong",,29.33825,104.771895,102,54,16,15,12,10,12,4,1001,61,3,20141130170000
179,Zigong,,29.33617,104.781138,149,78,28,15,12,10,12,4,1001,61,3,20141130170000
180,"Jiushi Hill, Luzhou",,28.955347,105.434207,102,51,22,8,2,4,13,9,0,80,2,20141130170000
181,"Xiaoshishang Port, Luzhou",,28.899583,105.447192,147,55,86,17,24,11,13,9,0,80,2,20141130170000
182,"Lantianxian Bridge, Luzhou",,28.852766,105.4358,151,90,20,17,5,5,13,9,0,80,2,20141130170000
183,"City Environment Monitoring Station, Luzhou",,28.895898,105.435802,149,75,12,24,19,8,13,9,0,80,2,20141130170000
184,Luzhou,,28.868782,105.445938,151,90,86,24,24,11,13,9,0,80,2,20141130170000
185,"City Committee, Nanchong",,30.799993,106.082906,89,59,46,6,3,2,13,3,1025,37,2,20141130170000
186,"Refinery Factory, Nanchong",,30.819412,106.10712,147,60,10,17,13,2,13,3,1025,37,2,20141130170000
187,"Gaoping District Monitoring Station, Nanchong",,30.783291,106.110417,91,40,17,16,3,13,13,3,1025,37,2,20141130170000
188,"Jialing District EPB, Nanchong",,30.761255,106.06818,95,53,16,18,3,5,13,3,1025,37,2,20141130170000
189,"City Environmental Monitoring Station, Nanchong",,30.836519,106.11272,107,52,13,4,11,6,13,3,1025,37,2,20141130170000
190,Nanchong,,30.835511,106.114717,147,60,46,18,13,13,13,3,1025,37,2,20141130170000
1249,"City Monitoring Station, Neijiang",,29.592673,105.036234,119,50,14,6,17,8,12,4,0,58,3,20141130170000
1250,"Dongxing District Government , Neijiang",,29.592148,105.074966,122,51,10,6,5,6,12,4,0,58,3,20141130170000
1251,"No 2 middle school, Neijiang",,29.579135,105.068548,134,55,11,6,6,5,12,4,0,58,3,20141130170000
1252,Neijiang,,29.577653,105.06166,134,56,14,8,17,8,12,4,0,58,3,20141130170000
1253,"City Monitoring Station, Suining",,30.610641,105.683583,132,59,23,12,18,-,10,0,0,50,3,20141130170000
1254,"Administrative center , Suining",,30.63206,105.819747,-,-,,-,-,,-,-,0,-,-,20141130170000
1255,Suining,,30.530053,105.596307,132,75,23,13,18,9,10,0,0,50,3,20141130170000
1256,"City Monitoring Station, Leshan",,29.560651,103.759211,87,40,18,10,5,7,11,2,0,52,2,20141130170000
1257,"Leshan Giant Buddha Scenic Area , Leshan",,29.543938,103.772706,74,33,21,6,4,7,11,2,0,52,2,20141130170000
1258,Leshan,,29.54935,103.767777,87,40,21,11,5,11,11,2,0,52,2,20141130170000
1259,"Heilongtan , Meishan",,30.047726,103.900649,85,52,24,3,1,1,12,3,1026,54,2,20141130170000
1260,"Bureau of Meteorology, Meishan",,30.084591,103.843715,102,46,-,21,4,6,12,3,1026,54,2,20141130170000
1261,"Xuguang Community , Meishan",,30.066277,103.8516,78,43,15,22,3,3,12,3,1026,54,2,20141130170000
1262,"City Monitoring Station, Meishan",,30.059205,103.836229,97,52,15,18,3,2,12,3,1026,54,2,20141130170000
1263,Meishan,,30.072618,103.85064,102,52,24,22,4,6,12,3,1026,54,2,20141130170000
1264,"Ziyang middle school, Ziyang",,30.147763,104.638024,-,-,-,-,-,-,-,-,0,-,-,20141130170000
1265,Ziyang,,30.126054,104.63004,57,58,23,8,15,6,12,4,0,58,3,20141130170000
191,Shenyang US Consulate,,41.785668,123.432865,142,97,,28,53,,-4,-5,1015,93,3,20141130170000
192,"Huishan, Shenyang",,41.835421,123.647773,155,64,24,10,6,6,-4,-5,1015,93,3,20141130170000
193,"Hunnan, Shenyang",,41.758263,123.540809,164,78,13,29,53,7,-4,-5,1015,93,1,20141130170000
194,"Zhangshi, Shenyang",,41.771679,123.289859,117,82,10,17,58,7,-4,-5,1015,93,3,20141130170000
195,"Artillery College, Shenyang",,41.835749,123.547799,102,67,18,17,19,6,-4,-5,1015,93,1,20141130170000
196,"Beiling, Shenyang",,41.849633,123.434146,164,85,10,20,16,7,-4,-5,1015,93,1,20141130170000
197,"Wenyi Road, Shenyang",,41.767444,123.416144,177,97,19,28,53,7,-4,-5,1015,93,1,20141130170000
198,"Xiaoheyan, Shenyang",,41.779828,123.484015,156,74,13,26,56,7,-4,-5,1015,93,1,20141130170000
199,"Taiyuan Street, Shenyang",,41.799646,123.406146,127,57,8,17,29,7,-4,-5,1015,93,3,20141130170000
200,"Ermao, Shenyang",,41.783011,123.366679,169,97,19,27,54,7,-4,-5,1015,93,1,20141130170000
201,"Liaoning University, Shenyang",,41.830704,123.361071,159,64,17,11,10,5,-4,-5,1015,93,1,20141130170000
202,Shenyang,,41.808126,123.437611,127,57,8,17,29,7,-4,-5,1015,93,3,20141130170000
1104,"wenhua street, Shenyang , Shenyang",,41.774139,123.441839,149,96,10,18,54,7,-4,-5,1015,93,3,20141130170000
1105,"Tanglin Road , Shenyang , Shenyang",,41.823665,123.562317,76,55,13,10,12,6,-4,-5,1015,93,3,20141130170000
203,"Ganjingzi, Dalian",,38.9747,121.616893,74,57,21,5,2,2,2,-10,1018,41,8,20141130170000
204,"Zhoushuizi, Dalian",,38.951928,121.569981,55,51,22,4,4,4,2,-10,1018,41,8,20141130170000
205,"Xinghai No 3 station, Dalian",,38.885779,121.568864,76,51,16,5,6,2,2,-10,1018,41,8,20141130170000
206,"Qingniwa Bridge, Dalian",,38.91274,121.638018,68,42,20,10,8,4,2,-10,1018,41,8,20141130170000
207,"Fujiazhuang, Dalian",,38.864647,121.629947,65,46,6,8,14,2,2,-10,1018,41,8,20141130170000
208,"Qixianling, Dalian",,38.856978,121.523169,59,40,26,10,4,1,2,-10,1018,41,8,20141130170000
209,"Lushun, Dalian",,38.808946,121.264063,63,40,23,4,3,2,2,-10,1018,41,8,20141130170000
210,"Jinzhou, Dalian",,39.132192,121.753259,65,57,18,3,3,2,2,-10,1018,41,8,20141130170000
211,"BDA, Dalian",,39.05213,121.782022,74,57,13,1,8,1,2,-10,1018,41,8,20141130170000
212,"D&D Port, Dalian",,39.064087,121.981874,65,45,8,3,10,3,2,-10,1018,41,8,20141130170000
213,Dalian,,38.91478,121.619625,68,42,20,10,8,4,-,-,0,-,-,20141130170000
214,"Bearing Factory, Dandong",,40.068929,124.345703,70,31,17,4,16,14,0,-7,1014,51,5,20141130170000
215,"Financial school, Dandong",,40.158723,124.432593,85,37,16,8,13,16,0,-7,1014,51,5,20141130170000
216,"Yuanbaoshan water, Dandong",,40.149431,124.391698,80,24,18,6,18,17,0,-7,1014,51,5,20141130170000
217,"Experimental Primary School, Dandong",,39.887343,124.158056,85,49,15,7,11,6,0,-7,1014,51,5,20141130170000
218,Dandong,,40.002046,124.360479,78,47,19,6,14,13,0,-7,1014,51,5,20141130170000
1106,"minzhu bridge, Dandong , Dandong",,40.112974,124.373604,78,47,17,6,9,5,0,-7,1014,51,5,20141130170000
1107,"yuanbaoshan, Dandong , Dandong",,40.146298,124.399081,74,22,19,5,18,16,0,-7,1014,51,5,20141130170000
1108,"linjiang houjie, Dandong , Dandong",,40.152757,124.431745,72,34,17,6,13,15,0,-7,1014,51,5,20141130170000
219,"BDA, Panjin",,41.157144,122.06645,76,106,17,3,10,5,-3,-18,0,29,9,20141130170000
220,"Xinglongtai, Panjin",,41.140948,122.111343,82,103,16,3,4,6,-3,-18,0,29,9,20141130170000
221,"Dingxiang, Panjin",,41.16139,121.928781,65,110,32,5,4,2,-3,-20,0,24,9,20141130170000
222,Panjin,,41.122089,122.076206,82,123,20,4,4,6,-3,-18,0,29,9,20141130170000
223,"No.3 water company, Yingkou",,40.682052,122.385352,46,36,28,4,16,5,-2,-5,1018,69,5,20141130170000
224,"Yingkou University, Yingkou",,40.683689,122.388285,21,32,27,5,16,3,-2,-5,1018,69,5,20141130170000
225,"Botanical garden, Yingkou",,40.711674,122.281568,46,24,27,6,13,6,-2,-5,1018,69,5,20141130170000
226,Yingkou,,40.668578,122.24059,34,36,21,3,20,4,-2,-5,1018,69,5,20141130170000
1109,"jinghu west street, Yingkou , Yingkou",,40.653831,122.221943,34,36,21,3,20,4,-2,-5,1018,69,5,20141130170000
1110,"Daqing Road , Yingkou , Yingkou",,40.709181,122.28243,34,23,19,5,11,6,-2,-5,1018,69,5,20141130170000
227,"Xishanpo, Huludao",,40.724078,120.921974,59,58,24,1,4,18,,,0,,,20141130170000
228,"Huagong hospital, Huludao",,40.755662,120.848435,25,14,30,5,8,16,,,0,,,20141130170000
229,"New district park, Huludao",,40.723415,120.853801,46,15,21,2,1,14,,,0,,,20141130170000
230,"Lianshan district governement, Huludao",,40.775488,120.872292,21,10,21,1,2,14,,,0,,,20141130170000
231,Huludao,,40.712501,120.842107,324,15,22,4,9,16,,,0,,,20141130170000
1111,"Dongcheng District , Huludao , Huludao",,40.775362,120.871706,21,14,15,1,2,13,,,0,,,20141130170000
1112,"huagong street, Huludao , Huludao",,40.758901,120.842935,324,14,22,4,9,16,,,0,,,20141130170000
232,Anshan,,41.110466,123.000147,85,55,23,17,50,25,-5,-6,1015,93,2,20141130170000
233,"Qianshan Park, Anshan",,41.033486,123.143897,144,61,21,24,25,4,-5,-6,1015,93,2,20141130170000
234,"Tiexi, Anshan",,41.121636,122.97506,149,69,12,10,14,10,-5,-6,1015,93,2,20141130170000
235,"Taiping Station, Anshan",,41.153322,123.052433,139,69,14,11,36,18,-5,-6,1015,93,2,20141130170000
236,"Central Station, Anshan",,41.106731,123.002736,134,61,22,13,39,24,-5,-6,1015,93,2,20141130170000
237,"Shengou Temple, Anshan",,41.137157,123.031901,70,52,23,17,28,15,-5,-6,1015,93,2,20141130170000
1113,"Qianshan , Anshan , Anshan",,41.014521,123.122538,80,50,18,12,18,4,-5,-6,1015,93,2,20141130170000
1114,"Tiexi Sandao jie, Anshan",,41.103264,122.978613,72,52,7,5,13,9,-5,-6,1015,93,2,20141130170000
1115,"Taiyang, Anshan",,41.094946,123.019037,85,55,11,11,34,25,-5,-6,1015,93,2,20141130170000
238,Fushun,,41.883028,123.962984,158,70,18,11,8,19,-4,-5,1015,93,3,20141130170000
239,"Shenfu new town, Fushun",,41.804638,123.631684,158,67,14,5,7,8,-4,-5,1015,93,3,20141130170000
240,"Reservoir, Fushun",,41.8464,123.802857,151,76,21,9,3,20,-4,-5,1015,93,1,20141130170000
241,"Train Station, Fushun",,41.89726,124.017604,137,62,14,11,8,8,-4,-5,1015,93,1,20141130170000
242,"Dongzhou, Fushun",,41.855578,124.044738,158,73,18,11,5,11,-4,-5,1015,93,1,20141130170000
243,"Xinhua, Fushun",,41.888598,123.932932,134,68,16,7,7,19,-4,-5,1015,93,1,20141130170000
244,"Wanghua, Fushun",,41.888825,123.093723,157,64,14,10,8,10,-4,-5,1015,93,1,20141130170000
1367,"Dongzhou district, Fushun , Fushun",,41.864885,124.044353,153,70,15,8,5,11,-4,-5,1015,93,3,20141130170000
1368,"Wanghua district, Fushun , Fushun",,41.849112,123.815882,153,66,10,11,8,10,-4,-5,1015,93,3,20141130170000
245,Benxi,,41.296267,123.772371,127,61,17,23,43,35,-4,-5,1015,93,3,20141130170000
246,"Weining, Benxi",,41.349663,123.826071,119,58,48,17,5,21,-4,-5,1015,93,3,20141130170000
247,"Occupational disease hospital, Benxi",,41.305432,123.74645,109,54,34,18,35,13,-4,-5,1015,93,1,20141130170000
248,"Dongming, Benxi",,41.292369,123.765058,127,54,17,23,36,35,-4,-5,1015,93,3,20141130170000
249,"Caitun, Benxi",,41.301591,123.746039,127,59,11,9,15,22,-4,-5,1015,93,3,20141130170000
250,"Xihu, Benxi",,41.331332,123.773537,127,63,19,9,14,21,-4,-5,1015,93,3,20141130170000
251,"Dayu, Benxi",,41.308091,123.818442,122,51,23,9,39,16,-4,-5,1015,93,3,20141130170000
1116,"Xinlitun , Benxi , Benxi",,41.264104,123.811523,117,61,16,16,43,13,-4,-5,1015,93,3,20141130170000
252,Jinzhou,,41.097169,121.132647,91,21,25,4,7,19,-2,-22,1020,10,8,20141130170000
253,"Beihu Park, Jinzhou",,41.141447,121.137339,21,27,23,2,6,12,-2,-22,1020,10,8,20141130170000
254,"Monitoring station, Jinzhou",,41.113441,121.140911,42,14,28,7,9,3,-2,-22,1020,10,8,20141130170000
1369,"Baigu Water Plant, Jinzhou",,41.123847,121.206296,9,11,34,2,6,19,-2,-22,1020,10,8,20141130170000
255,"Nanshan, Jinzhou",,41.570689,122.046753,17,10,31,3,6,15,-2,-22,1020,10,8,20141130170000
1118,"BDA, Jinzhou",,40.853915,121.061756,91,8,22,4,4,6,-2,-22,1020,10,8,20141130170000
1119,"tianan street, Jinzhou , Jinzhou",,41.124468,121.126119,34,22,18,6,7,3,-2,-22,1020,10,8,20141130170000
1120,"baigu street, Jinzhou, Jinzhou",,41.12214,121.21027,9,21,25,2,7,19,-2,-22,1020,10,8,20141130170000
1121,Chaoyang,,41.576022,120.456053,78,423,16,2,7,21,-,-,0,-,-,20141130170000
1122,"Agricultural Area, Chaoyang",,43.93968,125.247371,74,95,17,1,2,18,-2,-22,1020,9,4,20141130170000
1123,Tieling,,42.225197,123.732174,134,76,19,16,22,7,-,-,0,-,-,20141130170000
260,"Waterpark, Tieling",,42.297031,123.880748,122,68,13,8,22,5,-5,-6,1015,93,2,20141130170000
1124,"Huigong Street West , Tieling , Tieling",,42.311115,123.845614,99,67,13,5,6,5,-5,-6,1015,93,2,20141130170000
1125,Liaoyang,,41.269312,123.24268,70,75,13,6,19,17,-,-,0,-,-,20141130170000
1126,"Riverside Road , Liaoyang , Liaoyang",,41.176884,123.419859,61,49,12,3,12,16,-4,-5,1015,93,3,20141130170000
1127,Fuxin,,42.02373,121.675733,72,856,15,3,3,10,-,-,0,-,-,20141130170000
266,"Agricultural Area, Fuxin",,42.071291,121.696445,46,168,18,1,6,9,-6,-20,0,32,10,20141130170000
267,"Industrial Area, Fuxin",,42.041052,121.715554,72,856,15,3,3,10,-6,-20,0,32,10,20141130170000
1128,"Yulong Metro , Fuxin , Fuxin",,42.035091,121.666531,9,19,21,2,8,12,-6,-20,0,32,10,20141130170000
1129,"Dongyuan , Fuxin , Fuxin",,42.029119,121.681553,9,10,25,1,2,2,-6,-20,0,32,10,20141130170000
268,"City Monitoring Station, Jinan",,36.662614,117.054645,170,141,7,13,11,10,2,-12,1028,22,4,20141130170000
269,"Shandong Institute of Economics, Jinan",,36.63819,117.074975,164,178,11,15,20,9,2,-12,1028,22,4,20141130170000
270,"Quancheng Plaza, Jinan",,36.661711,117.027043,158,145,11,16,25,9,2,-12,1028,22,4,20141130170000
271,"Kegansuo, Jinan",,36.611582,116.99384,154,141,16,14,17,12,2,-12,1028,22,4,20141130170000
272,"Agriculture Science Institute, Jinan",,36.663115,116.95063,155,176,14,24,17,11,2,-12,1028,22,4,20141130170000
273,"Lanxiang technical school, Jinan",,36.700421,116.95342,158,146,13,17,37,9,2,-12,1028,22,4,20141130170000
274,"Chemical factory, Jinan",,36.687463,116.994406,157,157,9,13,12,9,2,-12,1028,22,4,20141130170000
275,"Provincial Seed Warehouse, Jinan",,36.685706,117.066348,159,158,14,20,28,11,2,-12,1028,22,4,20141130170000
276,"Shandong Architecture University, Jinan",,36.681732,117.191868,160,126,8,12,35,13,2,-12,1028,22,4,20141130170000
277,"Baosheng cable company, Jinan",,36.724638,117.130855,153,138,10,6,25,11,2,-12,1028,22,4,20141130170000
278,"Paomaling, Jinan",,36.47869,117.219027,122,128,21,6,22,9,2,-12,1028,22,4,20141130170000
279,"Changqing District Communist Party School, Jinan",,36.548797,116.770859,164,259,12,23,23,11,2,-12,1028,22,4,20141130170000
280,"BDA, Jinan",,36.685835,117.130851,153,137,18,17,31,10,2,-12,1028,22,4,20141130170000
281,Jinan,,36.651426,117.126625,170,141,7,13,11,10,2,-12,1028,22,4,20141130170000
282,"Shinan district No. 1, Qingdao",,36.065534,120.40839,85,64,14,13,11,6,3,-7,1023,48,6,20141130170000
283,"Shibei district No. 1, Qingdao",,36.069919,120.341264,109,160,9,1,10,8,3,-7,1023,48,6,20141130170000
284,"Shibei district No. 2, Qingdao",,36.104146,120.36637,109,104,19,8,10,10,3,-7,1023,48,6,20141130170000
285,"Huangdao District No. 1, Qingdao",,35.958935,120.191041,74,78,15,9,16,5,3,-7,1023,48,6,20141130170000
286,"Huangdao District No. 2, Qingdao",,35.970487,120.160339,129,92,17,12,9,7,3,-7,1023,48,6,20141130170000
287,"Laoshan District No. 1, Qingdao",,36.085881,120.451839,107,94,16,13,16,13,3,-7,1023,48,6,20141130170000
288,"Laoshan District No. 2, Qingdao",,36.091075,120.490388,91,107,6,12,11,7,3,-7,1023,48,6,20141130170000
289,"Licang District No. 1, Qingdao",,36.184872,120.38533,93,113,13,10,9,6,3,-7,1023,48,6,20141130170000
290,"Licang District No. 2, Qingdao",,36.154369,120.432287,107,30,18,4,1,2,3,-7,1023,48,6,20141130170000
291,"Chengyang District No. 1, Qingdao",,36.308502,120.40008,78,86,17,10,18,5,4,-7,1023,45,6,20141130170000
292,"Chengyang District No. 2, Qingdao",,36.308429,120.465806,97,97,21,4,11,8,3,-7,1023,48,6,20141130170000
293,Qingdao,,36.067358,120.387773,85,64,14,13,11,6,3,-7,1023,48,6,20141130170000
294,"Zichuan Meteo. Stations, Zibo",,36.637916,117.960222,-,-,-,-,-,-,-,-,0,-,-,20141130170000
295,"Dongfeng Chemical factory, Zibo",,36.838576,118.050785,153,100,7,13,21,13,-3,-17,0,32,6,20141130170000
296,"Boshan shuangshan, Zibo",,36.497278,117.853581,134,128,8,27,32,16,-3,-17,0,32,6,20141130170000
297,"Linzi Putian Park, Zibo",,36.820171,118.315022,82,121,10,14,30,15,-3,-17,0,32,6,20141130170000
298,"Qilu Petrochemical, Zibo",,36.765907,118.254967,87,86,10,15,29,16,-3,-17,0,32,6,20141130170000
299,"Zhoucun sanjin Group, Zibo",,36.8044,117.85694,114,109,16,11,18,17,-3,-17,0,32,6,20141130170000
300,"Vocational College, Zibo",,36.825208,117.926305,74,101,8,14,16,17,-3,-17,0,32,6,20141130170000
301,"BDA, Zibo",,36.905214,118.021824,89,104,8,8,16,7,-3,-17,0,32,6,20141130170000
302,Zibo,,36.813618,118.060948,153,128,12,28,50,16,-3,-17,0,32,6,20141130170000
303,"Shizhong District Government, Zaozhuang",,34.850397,117.569545,159,142,24,17,25,16,6,3,1027,76,3,20141130170000
304,"Sewage treatment plant, Zaozhuang",,34.818951,117.595345,163,135,8,18,34,17,6,3,1027,76,3,20141130170000
305,"Xuecheng EPA, Zaozhuang",,34.790214,117.272455,168,84,14,22,46,14,6,3,1027,76,3,20141130170000
306,"Yicheng District government, Zaozhuang",,34.772806,117.57647,170,148,26,19,44,18,6,3,1027,76,3,20141130170000
307,"Taierzhuang EPA, Zaozhuang",,34.579462,117.741067,160,78,17,26,57,18,6,3,1027,76,3,20141130170000
308,"Shanting EPA, Zaozhuang",,35.070373,117.457691,137,97,19,4,15,7,6,3,1027,76,3,20141130170000
309,"City EPA, Zaozhuang",,34.809466,117.320608,169,171,16,18,30,9,6,3,1027,76,3,20141130170000
310,"High-tech zone, Zaozhuang",,34.821779,117.363495,155,89,10,12,24,17,6,3,1027,76,3,20141130170000
311,Zaozhuang,,34.809693,117.329634,159,142,24,17,25,16,6,3,1027,76,3,20141130170000
312,"City EPA, Dongying",,37.432052,118.672871,72,131,21,7,16,4,0,-12,0,41,14,20141130170000
313,"Vocational College, Dongying",,37.438653,118.630567,65,176,20,6,10,5,0,-12,0,41,14,20141130170000
314,"Xianhe Oil Production Plant, Dongying",,37.442419,118.510222,82,160,21,8,9,4,0,-12,0,41,14,20141130170000
315,"Gengjin village, Dongying",,37.445072,118.55839,109,174,24,7,4,9,0,-12,0,41,14,20141130170000
316,"City environmental company, Dongying",,37.466599,118.508012,78,104,23,7,5,3,0,-12,0,41,14,20141130170000
317,"Hekou  district, Dongying",,37.883786,118.522171,107,362,27,3,6,4,0,-12,0,41,14,20141130170000
318,"BDA, Dongying",,37.435162,118.701827,72,151,24,2,8,6,0,-12,0,41,14,20141130170000
319,Dongying,,37.435429,118.680434,72,131,21,7,16,4,0,-12,0,41,14,20141130170000
320,"Bearing Factory, Yantai",,37.544126,121.376956,70,99,22,6,8,5,,,0,,,20141130170000
321,"Xijiao Chemical Station, Yantai",,37.547148,121.323695,78,20,28,6,46,2,,,0,,,20141130170000
322,"Fushan Monitoring Stations, Yantai",,37.472245,121.260116,38,70,20,4,5,7,,,0,,,20141130170000
323,"Mouping EPA, Yantai",,37.376681,121.586509,55,95,28,10,10,6,,,0,,,20141130170000
324,"Laishan EPA, Yantai",,37.478422,121.44829,65,76,23,3,10,5,,,0,,,20141130170000
325,"Laishan Shengquan Industrial Park, Yantai",,37.4271,121.408386,70,83,21,6,10,6,,,0,,,20141130170000
326,"China Agricultural University, Yantai",,37.423568,121.511838,70,62,27,7,6,6,,,0,,,20141130170000
327,"BDA EPA, Yantai",,37.560827,121.257954,114,90,23,6,4,5,,,0,,,20141130170000
329,"Dajijia, Yantai",,37.673849,121.071465,50,119,-,6,10,5,,,0,,,20141130170000
330,Yantai,,37.464793,121.453142,70,99,28,6,55,5,,,0,,,20141130170000
331,"BDA, Weifang",,36.720022,119.054064,87,96,10,20,24,9,,,0,,,20141130170000
332,"Business School, Weifang",,36.682442,119.105909,93,104,11,17,21,8,,,0,,,20141130170000
333,"Hanting District, Weifang",,36.773484,119.199705,134,105,17,11,23,6,,,0,,,20141130170000
334,"Gongda Company, Weifang",,36.657635,119.167266,97,117,24,18,26,7,,,0,,,20141130170000
335,"City EPA, Weifang",,36.701272,119.16838,85,101,14,17,24,5,,,0,,,20141130170000
336,"City Arbitration Committee, Weifang",,36.702422,119.145927,82,108,20,17,22,9,,,0,,,20141130170000
337,"Xinhui Group, Weifang",,36.641581,119.11679,68,93,12,20,23,9,,,0,,,20141130170000
338,"Jincheng Middle School, Weifang",,36.773611,119.115539,93,92,24,12,20,6,,,0,,,20141130170000
339,Weifang,,36.707217,119.167638,82,100,28,22,24,10,,,0,,,20141130170000
340,"City Monitoring Station, Jining",,35.408443,116.623917,157,175,10,19,53,14,6,-1,1026,46,3,20141130170000
1090,"Shengdi Hollidays Resort, Jining",,35.424746,116.699093,162,171,9,21,36,10,6,-1,1026,46,3,20141130170000
341,"Sewage treatment plant, Jining",,35.364286,116.609177,160,154,8,13,35,13,6,-1,1026,46,3,20141130170000
342,"Electrochemical Factory, Jining",,35.390473,116.552956,164,193,10,20,51,20,6,-1,1026,46,3,20141130170000
343,"Rencheng BDA, Jining",,35.390484,116.662995,155,141,15,23,40,20,6,-1,1026,46,3,20141130170000
344,"Agricultural School, Jining",,35.44235,116.601682,119,252,6,22,52,15,6,-1,1026,46,3,20141130170000
345,"BDA Huojucheng, Jining",,35.436377,116.642953,147,172,9,17,40,13,6,-1,1026,46,3,20141130170000
346,Jining,,35.414473,116.59239,157,175,10,19,53,14,6,-1,1026,46,3,20141130170000
347,"Taishan monitoring station, Taian",,36.194362,117.159648,78,95,20,2,5,6,-8,-9,0,94,7,20141130170000
348,"Shandong Electric Power School, Taian",,36.176071,117.12413,61,72,13,6,6,13,-8,-9,0,94,7,20141130170000
349,"Population Education school, Taian",,36.194417,117.104131,53,117,21,2,7,11,-8,-9,0,94,7,20141130170000
350,"Houfeng company, Taian",,36.204863,117.19015,72,135,8,5,6,12,-8,-9,0,94,7,20141130170000
351,"Nongda new campus, Taian",,36.170179,117.165191,82,112,9,5,9,10,-8,-9,0,94,7,20141130170000
352,"Transportation technical school, Taian",,36.202126,117.047068,76,97,9,7,7,13,-8,-9,0,94,7,20141130170000
353,"ICT Technology, Taian",,36.116621,117.107458,59,104,8,4,7,17,-8,-9,0,94,7,20141130170000
354,Taian,,36.200502,117.093682,78,95,20,2,5,6,-8,-9,0,94,7,20141130170000
355,"City Environmental Monitoring Station, Weihai",,37.513939,122.067058,46,69,29,6,6,3,3,-3,0,61,16,20141130170000
356,"Woodworking Factory, Weihai",,37.325455,122.160777,53,59,27,7,7,5,3,-3,0,61,16,20141130170000
357,"Lantian Hotel, Weihai",,37.514641,122.146276,72,68,35,8,5,6,3,-3,0,61,16,20141130170000
358,"Zhang village government, Weihai",,37.485561,122.049436,65,64,27,2,7,6,3,-3,0,61,16,20141130170000
359,"Gao District Bank, Weihai",,37.534919,122.056294,63,50,25,8,4,4,4,-3,0,58,15,20141130170000
360,"Huxia technical school, Weihai",,37.427951,122.130811,63,65,29,6,4,7,3,-3,0,61,16,20141130170000
361,Weihai,,37.5141,122.125477,46,69,29,6,6,3,3,-3,0,61,16,20141130170000
362,"City governement square, Rizhao",,35.4075,119.526008,153,88,35,12,24,8,6,-2,1025,47,5,20141130170000
364,"City Monitoring Station, Rizhao",,35.388683,119.496405,134,91,12,18,18,9,6,-2,1025,47,5,20141130170000
365,"Professor Garden, Rizhao",,35.462161,119.574193,127,103,16,17,26,8,6,-2,1025,47,5,20141130170000
366,"Vocational and Technical College, Rizhao",,35.441939,119.538187,153,94,18,14,22,11,6,-2,1025,47,5,20141130170000
367,"Lanshan EPA branch, Rizhao",,35.293405,119.345716,167,98,10,28,24,10,6,-2,1025,47,5,20141130170000
368,"Jinma Industrial Park, Rizhao",,35.373339,119.514108,153,125,10,26,23,9,6,-2,1025,47,5,20141130170000
369,Rizhao,,35.416089,119.532316,153,88,35,12,24,8,6,-2,1025,47,5,20141130170000
370,"Vegetable oil factory, Laiwu",,36.205028,117.700917,152,119,24,9,1,9,2,-9,1026,30,3,20141130170000
371,"Nursing home, Laiwu",,36.266067,117.652769,159,137,12,10,23,16,2,-9,1026,30,3,20141130170000
372,"Xinyi middle school, Laiwu",,36.245086,117.739025,139,110,16,8,8,14,2,-9,1026,30,3,20141130170000
373,"Risheng International School, Laiwu",,36.208125,117.730959,151,115,7,8,13,13,2,-9,1026,30,3,20141130170000
374,"Gangcheng EPA, Laiwu",,36.066836,117.871823,153,159,4,9,33,27,2,-9,1026,30,3,20141130170000
375,"City EPA, Laiwu",,36.228913,117.694797,117,1,12,11,14,20,2,-9,1026,30,3,20141130170000
376,Laiwu,,36.213688,117.682612,152,119,24,9,1,9,-,-,0,-,-,20141130170000
377,"Lunan Pharmaceutical Factory, Linyi",,35.061671,118.299527,159,113,32,42,25,13,0,-9,0,47,5,20141130170000
378,"Yihe compound, Linyi",,35.056752,118.34739,157,107,38,33,26,14,0,-9,0,47,5,20141130170000
379,"Linyi University, Linyi",,35.114777,118.293414,156,122,5,30,28,16,0,-9,0,47,5,20141130170000
380,City EPA,Nanfang,35.104871,118.353518,157,85,8,30,36,14,0,-9,0,47,5,20141130170000
381,"Xinguang woolen factory, Linyi",,34.981004,118.282,165,106,99,29,22,14,0,-9,0,47,5,20141130170000
382,"Hongfu Baijiu Factory, Linyi",,34.998788,118.257275,174,124,3,27,22,16,0,-9,0,47,5,20141130170000
384,"Hedong insurance company, Linyi",,35.089354,118.40812,153,98,14,28,16,14,0,-9,0,47,5,20141130170000
385,"Jianghua vehicule center, Linyi",,35.010082,118.435749,151,90,4,29,20,16,0,-9,0,47,5,20141130170000
386,Linyi,,35.10428,118.362202,159,113,32,42,62,13,0,-9,0,47,5,20141130170000
387,"Heima group, Dezhou",,37.466063,116.314134,102,106,13,10,33,13,4,-9,1027,27,1,20141130170000
388,"Monitoring station, Dezhou",,37.433107,116.377312,109,119,16,6,8,10,4,-9,1027,27,1,20141130170000
389,"Supervision Station, Dezhou",,37.449689,116.324709,97,107,19,5,7,7,4,-9,1027,27,1,20141130170000
390,"Huayu technical school, Dezhou",,37.462809,116.357559,89,102,17,5,11,6,4,-9,1027,27,1,20141130170000
391,"Shuangyi group, Dezhou",,37.478848,116.316362,117,118,9,13,1,5,4,-9,1027,27,1,20141130180000
392,Dezhou,,37.434959,116.363366,102,106,13,10,33,13,4,-9,1027,27,1,20141130180000
393,"Dongchang District Government, Liaocheng",,36.444473,115.971733,93,100,16,7,9,11,4,-9,1028,24,3,20141130180000
394,"Light Machinery Factory No. 2, Liaocheng",,36.456788,116.002383,114,120,22,10,11,19,4,-9,1028,24,3,20141130180000
395,"City committee communist party school, Liaocheng",,36.479537,115.989288,102,98,16,11,14,10,4,-9,1028,24,3,20141130180000
396,"Customs, Liaocheng",,36.431933,115.956974,97,128,14,9,12,8,4,-9,1028,24,3,20141130180000
397,"Hongshun Garden, Liaocheng",,36.471124,115.960319,95,110,12,9,9,9,4,-9,1028,24,3,20141130180000
398,"BDA, Liaocheng",,36.459407,116.043621,124,106,13,1,5,3,4,-9,1028,24,3,20141130180000
399,Liaocheng,,36.456792,115.991051,93,100,16,7,9,11,4,-9,1028,24,3,20141130180000
400,"City EPA, Binzhou",,37.38024,118.026895,68,105,14,2,1,11,3,-9,1026,29,3,20141130180000
401,"Beizhong new school, Binzhou",,37.38374,117.988996,78,115,5,12,1,20,3,-9,1026,29,3,20141130180000
402,"No.2 water factory, Binzhou",,37.36155,118.002648,63,137,9,9,5,16,3,-9,1026,29,3,20141130180000
403,"Keling Chemical factory, Binzhou",,37.396138,117.943609,102,37,7,6,8,18,3,-9,1026,29,3,20141130180000
404,"Yinhe logistics company, Binzhou",,37.356122,117.943326,91,138,9,3,2,9,3,-9,1026,29,3,20141130180000
405,"Bilin compond, Binzhou",,37.36815,117.978964,78,125,10,2,1,10,3,-9,1026,29,3,20141130180000
406,Binzhou,,37.382639,117.976606,68,105,14,2,1,11,3,-9,1026,29,3,20141130180000
407,"Bureau of Meteorology, Heze",,35.248625,115.428775,151,152,15,12,17,13,0,-21,0,18,6,20141130180000
408,"Sewage treatment plant, Heze",,35.222517,115.531511,164,289,20,17,28,17,0,-21,0,18,6,20141130180000
409,"Municipal CPPCC, Heze",,35.237125,115.480591,159,197,20,13,18,14,0,-21,0,18,6,20141130180000
410,"Huarun Pharmaceutical Company, Heze",,35.261463,115.524873,158,197,12,10,17,17,0,-21,0,18,6,20141130180000
411,"Heze University, Heze",,35.269706,115.460934,142,178,33,13,17,15,0,-21,0,18,6,20141130180000
412,Heze,,35.233354,115.486503,151,152,15,12,17,13,0,-21,0,18,6,20141130180000
413,"Shiji Park, Shijiazhuang",,38.03155,114.547873,70,102,19,8,5,3,-1,-24,1031,16,12,20141130180000
414,"Xinan College, Shijiazhuang",,38.012764,114.473163,68,110,22,6,8,0,-1,-24,1031,16,12,20141130180000
415,"Chemical College, Shijiazhuang",,38.055503,114.569816,70,86,32,14,1,3,-1,-24,1031,16,12,20141130180000
416,"Worker hospital, Shijiazhuang",,38.051784,114.461209,112,105,105,7,4,1,-1,-24,1031,16,12,20141130180000
417,"Northwest Water Company, Shijiazhuang",,38.140638,114.508038,97,89,27,8,4,1,-1,-24,1031,16,12,20141130180000
418,"High-tech zone, Shijiazhuang",,38.040482,114.610775,42,110,16,6,4,2,-1,-24,1031,16,12,20141130180000
419,"Fenglong Montain, Shijiazhuang",,37.910829,114.360264,181,108,33,1,17,3,-1,-24,1031,16,12,20141130180000
1130,"Zhengding Unicom, Shijiazhuang",,38.159458,114.59879,112,153,13,13,15,3,-1,-24,1031,16,12,20141130180000
1131,"Luancheng Communications, Shijiazhuang",,37.906534,114.638785,102,106,21,1,6,2,-1,-24,1031,16,12,20141130180000
1132,"Gaocheng Experimental School, Shijiazhuang",,38.039518,114.867812,109,362,9,11,14,5,-1,-24,1031,16,12,20141130180000
1133,"Wuji EPA, Shijiazhuang",,38.17862,114.997012,114,157,19,2,1,5,-1,-24,1031,16,12,20141130180000
1134,"Shenze Power Supply Bureau, Shijiazhuang",,38.197674,115.219126,117,143,20,5,5,5,-1,-24,1031,16,12,20141130180000
1135,"Zhaoxian EPA, Shijiazhuang",,37.77171,114.775957,99,104,15,9,8,4,-1,-24,1031,16,12,20141130180000
1136,"Gaoyi County City Hall, Shijiazhuang",,37.623535,114.612729,129,107,6,10,41,9,-1,-24,1031,16,12,20141130180000
1137,"Zanhuang County City Hall, Shijiazhuang",,37.672898,114.398269,74,75,27,1,5,3,-1,-24,1031,16,12,20141130180000
1138,"Jingxing Bureau of Meteorology, Shijiazhuang",,38.038788,114.158406,89,55,22,12,50,2,-1,-24,1031,16,12,20141130180000
1139,"Pingshan Ye River, Shijiazhuang",,38.266657,114.210275,93,79,26,1,5,3,-1,-24,1031,16,12,20141130180000
420,Shijiazhuang,,38.042926,114.520834,80,83,6,1,3,1,-1,-24,1031,16,12,20141130180000
421,"No. 12 middle school, Tangshan",,39.659306,118.190271,,,,,,,-,-,0,-,-,20141130180000
422,"Ceramics Company, Tangshan",,39.669255,118.225185,82,541,32,1,2,6,-3,-25,1029,17,11,20141130180000
423,"Commodities Bureau, Tangshan",,39.642301,118.191265,109,471,19,20,5,3,-3,-25,1029,17,11,20141130180000
424,"Leidazhanzi Station, Tangshan",,39.644375,118.150383,154,459,29,6,1,4,-3,-25,1029,17,11,20141130180000
425,"Supply and marketing cooperatives, Tangshan",,39.632334,118.17232,104,493,26,3,2,4,-3,-25,1029,17,11,20141130180000
1140,"Guye District City Hall, Tangshan",,39.741379,118.460246,104,181,23,6,4,4,-3,-25,1029,17,11,20141130180000
1141,"Kaiping Stations, Tangshan",,39.675246,118.275149,93,118,26,6,8,4,-3,-25,1029,17,11,20141130180000
1142,"Fengnan District City Hall, Tangshan",,39.5834,118.097454,137,549,24,1,5,2,-3,-25,1029,17,11,20141130180000
1143,"Fengrun City Hall, Tangshan",,39.840355,118.175338,142,415,26,3,3,7,-3,-25,1029,17,11,20141130180000
1144,"Qianxi EPA, Tangshan",,40.153339,118.317265,114,844,29,5,5,9,-3,-25,1029,17,11,20141130180000
1145,"Caofeidian Xinli  Primary School, Tangshan",,39.291232,118.462182,91,286,23,5,4,8,-3,-25,1029,17,11,20141130180000
1146,"Zunhua EPA, Tangshan",,40.206249,117.997315,161,909,29,1,1,1,-3,-25,1029,17,11,20141130180000
1147,"Qianan No.1 middle school, Tangshan",,40.004248,118.717055,144,577,27,3,3,2,-3,-25,1029,17,11,20141130180000
1266,"Luannan County , Tangshan",,39.511132,118.686928,102,608,24,6,6,2,-3,-25,1029,17,11,20141130180000
1267,"Yutian County , Tangshan",,39.908249,117.751417,119,465,26,1,1,1,-3,-25,1029,17,11,20141130180000
426,Tangshan,,39.632175,118.186472,109,471,19,20,5,3,-,-,0,-,-,20141130180000
427,"City Monitoring Station, Qinhuangdao",,39.958109,119.607773,68,143,5,16,16,9,,,0,,,20141130180000
428,"Beidaihe, Qinhuangdao",,39.829209,119.53194,50,156,10,6,9,25,,,0,,,20141130180000
429,"Shanhai Pass, Qinhuangdao",,40.019298,119.767898,78,335,20,2,3,9,,,0,,,20141130180000
430,"Contruction Plazz, Qinhuangdao",,39.943187,119.542912,63,160,17,4,12,3,,,0,,,20141130180000
431,"City government, Qinhuangdao",,39.93711,119.612769,-,-,-,-,-,-,,,0,,,20141130180000
1148,"Qinglong EPA, Qinhuangdao",,40.419223,118.958002,74,372,27,1,1,1,,,0,,,20141130180000
1149,"Changli EPA, Qinhuangdao",,39.714369,119.173237,80,173,16,6,4,4,,,0,,,20141130180000
1268,"Lulong County Bureau of Meteorology , Qinhuangdao",,39.901091,118.904857,112,481,20,4,10,3,,,0,,,20141130180000
432,Qinhuangdao,,39.936485,119.606263,63,160,17,16,12,9,,,0,,,20141130180000
433,"CongTai Park, Handan",,36.620197,114.501891,78,49,25,8,15,2,,,0,,,20141130180000
434,"City EPA, Handan",,36.618145,114.518822,89,41,27,15,13,9,,,0,,,20141130180000
435,"East Sewage Factory, Handan",,36.616064,114.548714,80,55,22,4,13,3,,,0,,,20141130180000
436,"Mine Hospital, Handan",,36.578149,114.509854,95,55,26,6,11,9,,,0,,,20141130180000
1150,"Fengfeng mine Inland Revenue Department, Handan",,36.423085,114.245994,97,69,20,9,41,11,,,0,,,20141130180000
1151,"Shexian EPA, Handan",,36.589084,113.692341,-,-,-,-,-,-,,,0,,,20141130180000
1152,"Ci County Vocational Education Center, Handan",,36.380247,114.390119,151,84,19,20,13,3,,,0,,,20141130180000
1153,"Yongnian government guesthouse, Handan",,36.783297,114.502905,102,57,18,15,4,0,,,0,,,20141130180000
1154,"Wuan BDA, Handan",,36.686223,114.269009,124,62,15,10,49,10,,,0,,,20141130180000
1085,Handan,,36.625683,114.544812,80,55,22,4,13,3,,,0,,,20141130180000
437,"Road and Bridge Corporation, Xingtai",,37.096415,114.538799,78,61,31,9,9,4,3,-24,1031,4,2,20141130180000
438,"Dahuo fontain, Xingtai",,37.097563,114.488001,76,57,34,7,3,1,3,-24,1031,4,2,20141130180000
439,"Xingtai Normal College, Xingtai",,37.053404,114.531819,55,67,20,11,15,5,3,-24,1031,4,2,20141130180000
440,"Environment protection office, Xingtai",,37.06253,114.490985,50,57,33,6,7,1,3,-24,1031,4,2,20141130180000
1155,"Cultural centers within the mound, Xingtai",,37.293569,114.524873,85,66,22,1,6,0,3,-24,1031,4,2,20141130180000
383,Xingtai,,37.071066,114.510749,50,57,33,6,7,1,3,-24,1031,4,2,20141130180000
441,"City Monitoring Station, Baoding",,38.871737,115.527103,61,122,21,2,5,4,1,-16,1028,13,5,20141130180000
442,"Surface water Company, Baoding",,38.842891,115.467326,132,194,19,12,8,9,1,-16,1028,13,5,20141130180000
443,"Huadian II, Baoding",,38.896748,115.528102,80,144,24,3,15,24,1,-16,1028,13,5,20141130180000
444,"Reception Center, Baoding",,38.911905,115.477301,99,162,21,4,7,1,1,-16,1028,13,5,20141130180000
445,"Film Factory, Baoding",,38.876949,115.448383,102,194,27,1,4,11,1,-16,1028,13,5,20141130180000
446,"Natatorium, Baoding",,38.863815,115.499212,76,269,31,3,21,6,1,-16,1028,13,5,20141130180000
1156,"Qingyuan City Hall, Baoding",,38.771758,115.502189,132,108,17,1,3,6,1,-16,1028,13,5,20141130180000
1157,"Xushui EPA, Baoding",,39.025781,115.668023,87,102,26,1,3,4,1,-16,1028,13,5,20141130180000
1158,"Zhouzhou Monitoring Stations, Baoding",,39.493241,116.040187,53,60,20,1,24,2,1,-16,1028,13,5,20141130180000
1159,"Gaobeidian EPA, Baoding",,39.3329,115.885891,117,276,13,1,3,5,1,-16,1028,13,5,20141130180000
447,Baoding,,38.874791,115.471124,102,194,27,1,4,11,1,-16,1028,13,5,20141130180000
448,"Century Compound, Zhangjiakou",,40.770279,114.909106,104,16,34,1,2,3,-12,-27,1036,14,11,20141130180000
449,"North Pumping Station, Zhangjiakou",,40.874362,114.910119,30,6,31,1,5,7,-12,-27,1036,14,11,20141130180000
450,"Hardware Warehouse, Zhangjiakou",,40.81232,114.887119,42,122,32,8,1,16,-12,-27,1036,14,11,20141130180000
451,"Tanji Chang, Zhangjiakou",,40.796301,114.89811,127,18,30,1,10,1,-12,-27,1036,14,11,20141130180000
1160,"Xiahuayuan EPA, Zhangjiakou",,40.509345,115.302442,134,378,25,1,2,0,-12,-27,1036,14,11,20141130180000
1161,"Huaian EPA, Zhangjiakou",,40.68157,114.398646,91,119,27,1,1,6,-12,-27,1036,14,11,20141130180000
1162,"Huailai Fuqian Primary School, Zhangjiakou",,40.422204,115.530285,95,152,20,4,3,2,-12,-27,1036,14,11,20141130180000
1269,"Zhangbei EPA , Zhangjiakou",,41.166775,114.732369,97,97,24,1,8,1,-12,-27,1036,14,11,20141130180000
1270,"Kangbao County Environmental Protection Agency , Zhangjiakou",,41.837866,114.591246,99,124,24,1,4,1,-12,-27,1036,14,11,20141130180000
1271,"Guyuan County welfare , Zhangjiakou",,41.669984,115.687401,87,42,20,1,4,3,-12,-27,1036,14,11,20141130180000
1272,"Shangyi County Environmental Protection Bureau , Zhangjiakou",,41.086638,113.984688,132,97,25,1,12,11,-12,-27,1036,14,11,20141130180000
1273,"Yuxian Secondary School , Zhangjiakou",,39.84699,114.601986,74,74,26,1,9,1,-12,-27,1036,14,11,20141130180000
1274,"Yang County Vocational Education Center , Zhangjiakou",,40.106343,114.134732,97,79,43,1,2,6,-12,-27,1036,14,11,20141130180000
1275,"Wan county Environmental Protection Agency , Zhangjiakou",,40.770459,114.75033,102,107,28,1,3,1,-12,-27,1036,14,11,20141130180000
472,"Fukang road, Tianjin",,39.098136,117.157621,68,622,25,4,7,4,-3,-25,1029,17,11,20141130180000
1276,"Zhuolu County Environmental Protection Agency , Zhangjiakou",,40.374273,115.221393,104,151,26,2,2,1,-12,-27,1036,14,11,20141130180000
452,Zhangjiakou,,40.825744,114.893659,13,52,32,1,9,0,-12,-27,1036,14,11,20141130180000
453,"Railway, Chengde",,40.917557,117.972331,139,743,33,2,4,2,-9,-31,1029,5,9,20141130180000
454,"Cultural Center, Chengde",,40.974625,117.824437,109,357,31,2,1,2,-9,-31,1029,5,9,20141130180000
455,"Bank of China, Chengde",,40.985582,117.958304,144,999,29,1,10,2,-9,-31,1029,5,9,20141130180000
456,"BDA, Chengde",,40.937567,117.969325,78,999,3,3,1,1,-9,-31,1029,5,9,20141130180000
457,"Ligong, Chengde",,41.012579,117.94428,162,659,19,1,2,2,-9,-31,1029,5,9,20141130180000
1163,"Chengde County EPA, Chengde",,40.776643,118.17646,117,931,27,4,1,2,-9,-31,1029,5,9,20141130180000
1164,"Xinglong County City Hall, Chengde",,40.424301,117.513488,78,412,31,1,1,1,-9,-31,1029,5,9,20141130180000
1165,"Luanping EPA, Chengde",,40.950792,117.350715,127,478,29,1,1,0,-9,-31,1029,5,9,20141130180000
1166,"Fengning County City Hall, Chengde",,41.216739,116.658037,155,342,25,1,6,2,-9,-31,1029,5,9,20141130180000
1277,"Longhua EPA , Chengde",,41.311956,117.739605,124,149,30,5,9,4,-9,-31,1029,5,9,20141130180000
458,Chengde,,40.955652,117.968737,78,999,3,3,1,1,-9,-31,1029,5,9,20141130180000
459,"Municipal EPB, Cangzhou",,38.323507,116.876746,74,195,23,6,4,4,-3,-25,1029,17,11,20141130180000
460,"Cangxian Urban Construction Bureau, Cangzhou",,38.299495,116.890734,97,186,22,6,2,11,-3,-25,1029,17,11,20141130180000
461,"TV Broadcast Station, Cangzhou",,38.325525,116.863761,70,238,22,5,6,6,-3,-25,1029,17,11,20141130180000
1167,"Qing County City Hall, Cangzhou",,38.589643,116.815876,137,193,15,6,25,7,-3,-25,1029,17,11,20141130180000
1168,"Poyoushi City Hall, Cangzhou",,38.089516,116.590575,102,188,13,10,1,8,-3,-25,1029,17,11,20141130180000
1169,"Huanghua Finance Bureau Training Center, Cangzhou",,38.377793,117.343356,132,308,18,2,2,14,-3,-25,1029,17,11,20141130180000
462,Cangzhou,,38.305035,116.844625,70,238,22,5,6,6,-3,-25,1029,17,11,20141130180000
463,"Environmental Monitoring Supervision Center, Langfang",,39.558157,116.720995,109,275,26,3,1,3,-3,-25,1029,17,11,20141130180000
464,"TCM Medical Material Company, Langfang",,39.519096,116.689914,89,282,22,1,4,1,-3,-25,1029,17,11,20141130180000
465,"BDA, Langfang",,39.576175,116.779041,107,388,19,2,9,2,-3,-25,1029,17,11,20141130180000
466,"North China Institute of Aerospace, Langfang",,39.53517,116.743027,89,255,19,1,1,2,-3,-25,1029,17,11,20141130180000
1170,"Guan Party School, Langfang",,39.446185,116.311026,119,151,24,3,2,2,-3,-25,1029,17,11,20141130180000
1171,"Xianghe EPA, Langfang",,39.76725,117.015252,134,701,27,3,1,6,-3,-25,1029,17,11,20141130180000
1172,"Wenan County EPA, Langfang",,38.880927,116.47001,82,145,25,6,2,3,-3,-25,1029,17,11,20141130180000
1173,"Three Rivers Department of Transportation, Langfang",,39.989419,117.091528,122,642,27,2,8,1,-3,-25,1029,17,11,20141130180000
1278,"Yongqing EPA , Langfang",,39.329071,116.510917,99,168,27,6,1,1,-3,-25,1029,17,11,20141130180000
1279,"Dacheng EPA, Langfang",,38.712628,116.665751,124,233,21,12,2,5,-3,-25,1029,17,11,20141130180000
467,Langfang,,39.539148,116.689668,89,282,22,1,4,1,-3,-25,1029,17,11,20141130180000
468,"Hengshui City EPB, Hengshui",,37.739679,115.695929,102,147,27,7,4,6,-1,-24,0,15,5,20141130180000
469,"Environmental Monitoring Station, Hengshui",,37.738593,115.648837,97,263,26,3,2,5,-1,-24,0,15,5,20141130180000
470,"Electrical Machine North Factory, Hengshui",,37.758686,115.70094,87,138,17,3,7,3,-1,-24,0,15,5,20141130180000
1174,"Anping EPA, Hengshui",,38.238559,115.537988,87,175,22,1,17,4,-1,-24,0,15,5,20141130180000
1175,"Jizhou EPA, Hengshui",,37.548552,115.58679,137,112,25,8,12,5,-1,-24,0,15,5,20141130180000
1280,"Zaoqiang EPA, Hengshui",,37.520698,115.714936,134,123,30,10,9,2,-1,-24,0,15,5,20141130180000
1281,"Wuyi EPA, Hengshui",,37.801554,115.898697,122,140,16,8,15,2,-1,-24,0,15,5,20141130180000
1282,"Wuqiang EPA , Hengshui",,38.03557,115.959767,107,128,36,6,6,15,-1,-24,0,15,5,20141130180000
1283,"Raoyang EPA , Hengshui",,38.230652,115.741041,95,122,20,4,5,3,-1,-24,0,15,5,20141130180000
1284,"Gucheng County , Hengshui",,37.347569,115.966707,134,107,24,5,13,25,-1,-24,0,15,5,20141130180000
471,Hengshui,,37.739562,115.676066,87,138,17,3,7,3,-1,-24,0,15,5,20141130180000
1176,"Xinji City Hall, Xinji",,37.949711,115.230084,114,128,16,1,14,5,-1,-24,0,15,5,20141130180000
473,"Nankou road, Tianjin",,39.174022,117.199688,153,848,26,4,7,3,-3,-25,1029,17,11,20141130180000
474,"Qinjian street, Tianjin",,39.166588,117.15104,137,435,21,7,33,15,-3,-25,1029,17,10,20141130180000
475,"Nanjing Road, Tianjin",,39.120958,117.195112,122,541,25,3,5,6,-3,-25,1029,17,10,20141130180000
476,"Dazhigu No.8 road, Tianjin",,39.111811,117.25147,158,531,25,8,9,14,-3,-25,1029,17,11,20141130180000
477,"Qianjin street, Tianjin",,39.09371,117.207981,95,467,42,6,7,4,-3,-25,1029,17,10,20141130180000
478,"Huaihe street, Tianjin",,39.227167,117.191293,119,576,22,1,1,2,-3,-25,1029,17,11,20141130180000
479,"Xiangshan street, Tianjin",,39.134752,117.275125,124,369,22,4,7,10,-3,-25,1029,17,10,20141130180000
480,"Yuejin Road, Tianjin",,39.088177,117.320884,78,513,22,6,20,3,-3,-25,1029,17,11,20141130180000
481,"Zhujiang street, Tianjin",,39.064463,117.231268,-,-,-,-,-,-,-,-,0,-,-,20141130180000
482,"No.4 street, Tianjin",,39.035228,117.713424,117,639,27,4,1,11,-3,-25,1029,17,10,20141130180000
483,"Yongming road, Tianjin",,38.840392,117.463805,114,540,25,8,16,11,-3,-25,1029,17,11,20141130180000
484,"Xinhua street, Tianjin",,39.138671,117.010083,70,253,16,5,6,15,-3,-25,1029,17,10,20141130180000
485,"Jingu Road, Tianjin",,38.985659,117.381254,102,564,22,6,9,13,-3,-25,1029,17,10,20141130180000
486,"Tanggu Yingkou street, Tianjin",,39.021768,117.656454,134,489,22,2,5,13,-3,-25,1029,17,11,20141130180000
487,"Hexi Yijing road, Tianjin",,39.248392,117.798043,112,605,33,4,2,7,-3,-25,1029,17,10,20141130180000
488,"Jianshe Road, Tianjin",,39.720075,117.310588,144,671,19,3,2,16,-3,-25,1029,17,10,20141130180000
489,"Quanzhou South road, Tianjin",,39.373857,117.050329,114,303,20,4,2,7,-3,-25,1029,17,10,20141130180000
490,"Donghuan road, Tianjin",,40.043144,117.451062,129,604,22,3,2,13,-3,-25,1029,17,10,20141130180000
491,"Tuanpowa, Tianjin",,38.920418,117.16299,87,566,25,4,2,7,-3,-25,1029,17,11,20141130180000
493,"Beiwei No.2 road, Tianjin",,38.943857,116.920624,151,233,16,5,2,11,-3,-25,1029,17,10,20141130180000
494,"Haitai fazhan No.2 road, Tianjin",,39.079608,117.096583,102,329,9,4,2,6,-3,-25,1029,17,10,20141130180000
495,"Hangtian road, Tianjin",,39.152244,117.381309,132,630,28,4,2,20,-3,-25,1029,17,10,20141130180000
496,"Hanbei road, Tianjin",,39.159768,117.770477,55,565,27,4,2,21,-3,-25,1029,17,11,20141130180000
497,"Baobai highway, Tianjin",,39.51757,117.349635,154,198,25,3,3,10,-3,-25,1029,17,10,20141130180000
498,Tianjin,,39.085164,117.207281,95,467,42,6,7,4,-3,-25,1029,17,10,20141130180000
499,"Wolong bridge, Hangzhou",,30.24371,120.132762,134,48,12,12,5,12,12,7,1023,72,5,20141130180000
500,"Hemu primary school, Hangzhou",,30.309669,120.124507,156,54,19,9,7,12,12,7,1023,72,5,20141130180000
501,"Zhejiang Agricultural University, Hangzhou",,30.265601,120.197583,154,51,15,9,7,13,12,7,1023,72,5,20141130180000
502,"Xiasha, Hangzhou",,30.303516,120.352618,137,29,13,11,4,12,12,7,1023,72,5,20141130180000
503,"Yunqi, Hangzhou",,30.178555,120.093142,109,35,12,11,5,10,12,7,1023,72,5,20141130180000
504,"Xixi, Hangzhou",,30.272425,120.068144,139,33,14,12,5,9,12,7,1023,72,5,20141130180000
505,"Chengxiang town, Hangzhou",,30.179493,120.274184,153,40,8,9,4,13,12,7,1023,72,5,20141130180000
506,"Qiandao lake, Hangzhou",,29.638139,119.031092,25,21,18,6,3,10,12,7,1023,72,5,20141130180000
507,"Linping town, Hangzhou",,30.415948,120.305059,124,50,15,11,9,12,12,7,1023,72,5,20141130180000
508,"Fuyang monitoring station, Hangzhou",,30.048419,119.963469,53,17,24,12,4,15,12,7,1023,72,5,20141130180000
509,"No.2 Middle School, Hangzhou",,30.044303,119.956356,78,24,14,6,4,17,12,6,1024,67,7,20141130180000
510,"City Hall, Hangzhou",,30.234185,119.723503,82,22,36,17,6,16,12,6,1024,67,7,20141130180000
511,"No. 4 middle school, Hangzhou",,30.229428,119.699591,68,20,3,26,5,15,12,6,1024,67,7,20141130180000
512,Hangzhou,,30.271756,120.159765,132,16,8,12,4,14,12,7,1023,72,4,20141130180000
513,"City Station, Wenzhou",,28.009715,120.679129,25,7,37,6,2,13,12,10,0,85,4,20141130180000
514,"Ouhai, Wenzhou",,28.001846,120.641982,17,6,48,10,3,9,12,10,0,85,4,20141130180000
515,"Longwan, Wenzhou",,27.968122,120.768393,17,7,26,14,3,12,12,10,0,85,4,20141130180000
516,"Nanpu, Wenzhou",,27.981763,120.683685,21,9,47,7,4,18,12,10,0,85,4,20141130180000
517,Wenzhou,,27.990985,120.703425,21,9,47,7,4,18,12,10,0,85,4,20141130180000
518,"Monitoring station, Jiaxing",,30.75437,120.767373,155,40,19,17,25,12,11,9,1022,88,6,20141130180000
519,"Jiaxing University, Jiaxing",,30.745099,120.735004,154,0,15,11,12,11,11,7,1022,76,8,20141130180000
520,"Qinghe Primary School, Jiaxing",,30.775685,120.747969,159,0,12,18,18,10,11,7,1022,76,8,20141130180000
521,Jiaxing,,30.751627,120.762862,155,40,19,17,25,12,11,9,1022,88,6,20141130180000
522,"Chengbei water plant, Huzhou",,30.891155,120.096593,122,46,9,16,9,14,11,7,1022,76,8,20141130180000
523,"Jishan new village, Huzhou",,30.859939,120.120168,144,55,10,15,8,15,11,7,1022,76,8,20141130180000
524,"Town west water plant, Huzhou",,30.862371,120.084577,112,54,7,29,11,13,11,7,1022,76,8,20141130180000
525,Huzhou,,30.892304,120.091694,122,46,9,16,9,14,11,7,1022,76,8,20141130180000
526,"Donghu middle school, Shaoxing",,29.990447,120.647547,85,35,10,16,14,13,11,5,1024,67,6,20141130180000
527,"City EPA station, Shaoxing",,30.001695,120.584318,42,10,9,20,9,8,12,7,1023,72,4,20141130180000
528,"Chengdong BDA committee, Shaoxing",,29.986643,120.613578,95,32,9,19,12,12,11,5,1024,67,6,20141130180000
529,"Paojiang station, Shaoxing",,30.07574,120.62154,99,40,7,20,14,11,11,5,1024,67,6,20141130180000
530,"Shaoxing technical school, Shaoxing",,29.930983,120.577131,85,34,8,15,15,13,11,5,1024,67,6,20141130180000
531,"Library, Shaoxing",,29.706266,120.253183,70,0,4,11,2,20,11,5,1024,67,6,20141130180000
532,"Transporation management station, Shaoxing",,29.726405,120.221602,72,0,8,19,3,14,11,5,1024,67,6,20141130180000
533,"Dongpu Town Governement, Shaoxing",,30.049601,120.539893,-,-,-,-,-,-,-,-,0,-,-,20141130180000
534,Shaoxing,,29.993122,120.590182,42,10,9,20,9,8,-,-,0,-,-,20141130180000
535,"City Monitoring Station, Jinhua",,29.100031,119.690373,42,10,12,17,6,12,11,10,0,90,2,20141130180000
536,"No.15 middle school, Jinhua",,29.074022,119.652121,38,10,5,15,5,13,11,10,0,90,2,20141130180000
537,"No.4 middle school, Jinhua",,29.110109,119.653654,50,12,6,18,8,15,11,10,0,90,2,20141130180000
538,"Beiyuan, Jinhua",,29.332898,120.083351,68,23,9,15,3,10,11,10,0,90,2,20141130180000
539,"Jiangdong, Jinhua",,29.302486,120.095291,70,18,10,13,5,15,11,10,0,90,2,20141130180000
540,Jinhua,,29.076083,119.65215,38,10,5,15,5,13,11,10,0,90,2,20141130180000
541,"EPA building, Quzhou",,28.937291,118.876081,30,12,11,11,4,12,13,13,1023,98,3,20141130180000
542,"Experimental school, Quzhou",,28.961502,118.880916,34,11,28,19,4,15,13,13,1023,98,3,20141130180000
543,"Quzhou University, Quzhou",,28.971452,118.860052,42,12,15,7,5,16,13,13,1023,98,3,20141130180000
544,Quzhou,,28.966994,118.864252,42,12,15,7,5,16,13,13,1023,98,3,20141130180000
545,"Putuo east port, Zhoushan",,29.951412,122.317679,63,20,35,4,2,8,13,11,1021,88,8,20141130180000
546,"Dinghai tanfeng, Zhoushan",,30.018014,122.126566,50,18,35,6,2,8,13,11,1021,88,8,20141130180000
547,Zhoushan,,29.983049,122.210763,70,25,32,7,2,9,12,9,1022,82,8,20141130180000
548,"Taizhou EPA building, Taizhou",,28.651216,121.42331,25,9,40,10,2,10,12,10,0,88,5,20141130180000
549,"Luqiao Tian Yang Wang, Taizhou",,28.574364,121.381194,57,18,41,10,2,13,12,10,0,88,5,20141130180000
550,"Huangyan EPA building, Taizhou",,28.656151,121.285064,63,19,12,10,2,11,11,9,0,87,5,20141130180000
551,"Yu Zhuang Qian, Lishui",,28.419638,119.883884,42,11,38,17,5,10,15,10,1022,66,2,20141130180000
552,"Monitoring station building, Lishui",,28.444379,119.923103,17,7,33,7,1,9,15,10,1022,66,2,20141130180000
553,"Liandu primary school, Lishui",,28.450912,119.939332,46,10,36,6,2,11,15,10,1022,66,2,20141130180000
554,Lishui,,28.464224,119.927201,17,7,33,7,1,9,15,10,1022,66,2,20141130180000
1248,Jingningxian,,27.977454,119.634837,25,0,10,6,2,7,,,,,,20141130180000
555,Taigu Primary School,,29.864178,121.60022,85,36,9,17,6,11,12,9,1022,82,8,20141130180000
556,Qianhu shuihan,,29.862459,121.5328,74,34,5,9,103,14,12,9,1022,82,7,20141130180000
557,Sanjiang secondary schools,,29.891563,121.568427,97,35,11,22,7,12,12,9,1022,82,8,20141130180000
558,Longsai Hospital,,29.957301,121.726734,122,43,9,16,19,15,12,9,1022,82,8,20141130180000
559,Beilun District EPB,,29.911633,121.850773,87,40,13,13,6,11,12,9,1022,82,8,20141130180000
560,Wanli University,,29.821314,121.574364,93,34,13,7,15,13,12,9,1022,82,8,20141130180000
561,Qianhu water plant,,29.774416,121.648136,78,27,14,14,7,11,12,9,1022,82,8,20141130180000
562,Municipal management station,,29.899182,121.626691,114,40,13,10,7,14,12,9,1022,82,8,20141130180000
1177,Daxie Literary Museum,,29.9027,121.986447,104,34,20,60,8,10,12,9,1022,82,8,20141130180000
1178,Cixi EPB,,30.165807,121.248991,127,47,13,7,9,11,12,9,1022,82,8,20141130180000
1179,Cixi Experimently Primary School,,30.179808,121.268672,117,54,14,11,8,12,12,9,1022,82,8,20141130180000
1180,"Yongsan Park, Yuyao",,30.050842,121.162477,122,44,11,28,6,13,12,9,1022,82,8,20141130180000
1181,"Qilupu Water Company, Yuyao",,30.039112,121.133416,107,52,10,13,8,13,12,9,1022,82,8,20141130180000
1182,Fenghua EPB,,29.666557,121.42069,122,30,15,32,6,12,12,9,1022,82,8,20141130180000
1183,"Yuelong station, Ninghai",,29.296505,121.445872,38,11,6,13,5,10,12,9,1022,82,8,20141130180000
1184,"Wenfeng Primary School, Xiangshan",,29.470908,121.889544,63,23,8,7,3,10,12,9,1022,82,8,20141130180000
1185,"Chengnan Primary School, Ninghai",,29.293812,121.43666,46,13,10,12,5,11,12,9,1022,82,8,20141130180000
1186,"Xingang Primary School, Xiangshan",,29.203878,121.952514,42,7,15,7,4,10,12,9,1022,82,8,20141130180000
1356,Haishu City Monitoring Center,,29.86835,121.539341,99,50,7,9,6,13,12,9,1022,82,8,20141130180000
1357,Fenghua Xikou government,,29.693164,121.29331,80,24,13,16,4,12,12,9,1022,82,8,20141130180000
1294,Ningbo,,29.865766,121.548164,114,40,13,10,7,14,12,9,1022,82,8,20141130180000
1187,Fuyang,,30.046157,119.96468,78,24,24,12,4,17,-,-,0,-,-,20141130180000
1188,Yiwu,,29.304353,120.079794,70,23,10,15,5,15,-,-,0,-,-,20141130180000
1189,Zhuji,,29.711185,120.240748,72,0,8,19,3,20,11,5,1024,67,6,20141130180000
563,"Shanxi Road , Nanjing",,32.06795,118.779216,161,104,14,18,16,0,9,6,1026,82,5,20141130180000
564,"Ruijin Road , Nanjing",,32.029321,118.80817,158,92,5,21,17,0,9,6,1026,82,5,20141130180000
565,"Xuanwu Lake, Nanjing",,32.075423,118.800188,160,88,12,18,17,0,9,6,1026,82,5,20141130180000
566,"Olympic Center, Nanjing",,32.007171,118.742217,155,97,12,9,7,0,9,6,1026,82,5,20141130180000
567,"Xianlin University Town , Nanjing",,32.106958,118.919882,166,109,9,20,18,0,9,6,1026,82,5,20141130180000
568,Nanjing,,32.058179,118.802061,160,97,14,19,17,0,9,6,1026,82,5,20141130180000
569,"Shangfang hill , Suzhou",,31.24502,120.565211,152,40,18,13,7,0,11,9,1022,88,6,20141130180000
570,"Wuzhong District , Suzhou",,31.268105,120.61717,142,46,23,16,10,0,11,9,1022,88,6,20141130180000
571,"Suzhou New District , Suzhou",,31.297277,120.547262,153,56,15,18,14,0,11,9,1022,88,6,20141130180000
572,"Suzhou Industrial Area, Suzhou",,31.307603,120.673257,149,53,22,20,7,0,11,9,1022,88,6,20141130180000
573,"Xiangcheng district, Suzhou",,31.368674,120.645209,139,55,21,22,14,0,11,9,1022,88,6,20141130180000
574,Suzhou,,31.296701,120.589493,156,55,23,22,14,0,11,9,1022,88,6,20141130180000
575,"South suburb , Nantong",,31.957836,120.917218,157,43,32,12,11,0,10,4,0,73,6,20141130180000
576,"Xinghu park, Nantong",,31.927873,120.944254,153,61,32,13,10,0,10,4,0,73,6,20141130180000
577,"Zilang school, Nantong",,32.039638,120.814358,153,63,32,17,14,0,10,4,0,73,6,20141130180000
578,Nantong,,31.978005,120.898555,157,58,32,17,11,0,10,4,0,73,6,20141130180000
579,Lianyungang,,34.595509,119.226814,152,84,21,27,10,7,8,8,1016,96,0,20141130180000
580,"Hongmen police substation, Lianyungang",,34.588692,119.146693,93,54,37,15,16,0,5,2,1025,68,2,20141130180000
581,"Xugou Nuclear Expert Village , Lianyungang",,34.749957,119.373707,87,62,42,16,17,0,5,2,1025,68,2,20141130180000
582,"Hengrui pharmaceutical company, BDA, Lianyungang",,34.697574,119.353668,89,57,43,28,15,0,5,2,1025,68,2,20141130180000
583,"City Monitoring Station, Lianyungang",,34.586791,119.186929,85,46,39,21,17,0,5,2,1025,68,2,20141130180000
584,"Yellow river new village , Xuzhou",,34.271542,117.177241,134,74,12,22,30,0,6,3,1027,76,3,20141130180000
634,Jingzhou,,30.332608,112.245451,1,1,16,0,0,9,11,2,1028,43,4,20141130180000
585,"Tongshan Veterinary Hospital , Xuzhou",,34.307086,117.197766,132,72,12,24,22,0,6,3,1027,76,3,20141130180000
586,"New Town , Xuzhou",,34.213992,117.261718,119,85,17,23,25,0,6,3,1027,76,3,20141130180000
587,"Taoyuan road, Xuzhou",,34.289822,117.249721,144,92,17,11,45,0,6,3,1027,76,3,20141130180000
588,"Agricultural Science Academy , Xuzhou",,34.27655,117.299079,109,84,12,27,25,0,6,3,1027,76,3,20141130180000
589,"Tongshan EPA, Xuzhou",,34.179384,117.171798,129,82,19,17,25,0,6,3,1027,76,3,20141130180000
590,Xuzhou,,34.20346,117.289825,144,92,19,27,46,0,6,3,1027,76,3,20141130180000
591,Yangzhou,,32.39233,119.418446,159,69,10,19,10,5,11,9,0,90,6,20141130180000
592,"Hanjiang Monitoring Station, Yangzhou",,32.374218,119.394484,132,79,28,7,7,0,8,4,0,78,5,20141130180000
593,"No. 4 Hospital, Yangzhou",,32.401394,119.44444,144,80,29,18,20,0,8,4,0,78,5,20141130180000
594,"City Monitoring Station, Yangzhou",,32.406588,119.41591,104,78,24,13,31,0,8,4,0,78,5,20141130180000
595,"University Town , Wuxi",,31.484752,120.273571,152,66,18,12,8,0,11,8,1022,82,7,20141130180000
596,"Shibei High School , Wuxi",,31.619969,120.279584,163,70,15,18,16,0,11,8,1022,82,7,20141130180000
597,"Yuhong Elementary School , Wuxi",,31.561155,120.249588,160,68,17,20,16,0,11,8,1022,82,7,20141130180000
598,Wuxi,,31.488746,120.31575,164,73,18,20,16,0,-,-,0,-,-,20141130180000
599,Changzhou,,31.808037,119.979205,172,86,6,22,36,13,11,9,0,88,5,20141130180000
600,"Chengjian School, Changzhou",,31.776476,119.937681,151,52,11,17,7,0,9,6,0,79,6,20141130180000
601,"Changzhou Engineering Institute , Changzhou",,31.806828,119.966724,166,41,21,16,16,0,9,6,0,79,6,20141130180000
602,"Wujin Monitoring Station, Changzhou",,31.701788,119.939676,165,40,19,13,14,0,9,6,0,79,6,20141130180000
603,"City Monitoring Station, Changzhou",,31.777201,119.979426,153,55,19,17,14,0,9,6,0,79,6,20141130180000
604,Zhenjiang,,32.18597,119.431281,170,79,4,39,15,13,9,8,0,93,5,20141130180000
638,Ezhou,,30.389244,114.899884,95,72,13,9,15,10,6,,1041,100,9,20141130180000
638,Ezhou,,30.389244,114.899884,95,72,13,9,15,10,6,,1041,100,9,20141130180000
605,"New District Administrative office , Zhenjiang",,32.186174,119.685021,165,83,23,17,8,0,9,6,1026,82,5,20141130180000
606,"Vocational Education Center , Zhenjiang",,32.212973,119.496253,168,85,28,27,9,0,9,6,1026,82,5,20141130180000
607,"Dantu Monitoring Station , Zhenjiang",,32.130026,119.435432,160,86,27,17,19,0,9,6,1026,82,5,20141130180000
608,"City Monitoring Station, Zhenjiang",,32.202178,119.439766,165,86,31,23,27,0,9,6,1026,82,5,20141130180000
609,"Gaogang Adminstrative office , Taizhoushi",,32.300768,119.886757,159,69,28,11,21,0,8,4,0,78,5,20141130180000
610,"Students Innovation Park , Taizhoushi",,32.461672,119.892761,-,-,-,-,-,-,-,-,0,-,-,20141130180000
611,Taizhoushi,,32.453555,119.927852,180,98,28,22,21,0,8,4,0,78,5,20141130180000
612,"Yancheng power station , Yancheng",,33.400859,120.123067,154,62,38,9,13,0,,,0,,,20141130180000
613,Yancheng,,33.345939,120.168504,144,52,30,5,3,7,11,10,1016,95,4,20141130180000
614,"Wenfeng Middle School , Yancheng",,33.370531,120.134041,159,63,30,17,24,0,,,0,,,20141130180000
615,"BDA Management Committe, Yancheng",,33.393191,120.22978,97,43,35,9,7,0,,,0,,,20141130180000
616,"City Monitoring Station, Yancheng",,33.390623,120.164423,157,77,34,6,12,0,,,0,,,20141130180000
617,Suqian,,33.960666,118.281004,160,87,24,7,5,7,11,10,0,91,6,20141130180000
618,"Suqian College , Suqian",,33.951472,118.298523,153,71,26,17,4,0,3,-6,0,49,6,20141130180000
619,"Suqian Middle School , Suqian",,33.95784,118.249505,160,101,5,22,3,0,3,-6,0,49,6,20141130180000
620,"Suyu District Environmental Protection Agency , Suqian",,33.94932,118.326569,168,69,36,30,51,0,3,-6,0,49,6,20141130180000
621,"City Monitoring Station, Suqian",,33.956982,118.277022,162,68,17,24,34,0,3,-6,0,49,6,20141130180000
622,Taizhou,,28.653436,121.425185,25,9,40,10,2,10,12,10,0,88,5,20141130180000
623,Donghu Liyuan,,30.572324,114.377844,1,70,12,10,0,7,7,-4,1029,46,5,20141130180000
624,Yuehu Lake,,30.554662,114.256937,1,77,6,0,0,8,7,-4,1029,46,5,20141130180000
625,Hankou Huaqiao ,,30.61724,114.287652,1,67,8,0,0,10,7,-4,1029,46,5,20141130180000
626,Wuchang Ziyang ,,30.530801,114.309438,87,74,8,13,10,7,7,-4,1029,46,5,20141130180000
627,Qingshan Ganghua,,30.622435,114.375599,1,75,7,0,0,7,7,-4,1029,46,5,20141130180000
628,Dunkou Xinou,,30.480091,114.162176,1,71,6,0,0,15,7,-4,1029,46,5,20141130180000
629,Donghu Gaoxin,,30.48095,114.40724,1,75,10,0,0,11,7,-4,1029,46,5,20141130180000
630,Wujianshan,,30.63114,114.135907,104,55,12,7,10,12,7,-4,1029,46,5,20141130180000
631,Yuanshun Road,,30.297142,113.858587,87,42,9,13,8,11,7,-4,1029,46,5,20141130180000
632,Wuhan,,30.590689,114.310838,1,61,7,0,0,13,7,-4,1029,46,5,20141130180000
1190,"Silingsan Factory, Yichang",,30.713288,111.306585,1,1,5,0,0,12,7,7,1030,100,1,20141130180000
1190,"Silingsan Factory, Yichang",,30.713288,111.306585,1,1,5,0,0,12,7,7,1030,100,1,20141130180000
633,Yichang,,30.689528,111.292131,1,1,6,0,0,15,7,7,1030,100,1,20141130180000
633,Yichang,,30.689528,111.292131,1,1,6,0,0,15,7,7,1030,100,1,20141130180000
1191,"City Library , Jingzhou",,30.31494,112.260844,1,1,14,0,0,5,11,2,1028,43,4,20141130180000
1191,"City Library , Jingzhou",,30.31494,112.260844,1,1,14,0,0,5,11,2,1028,43,4,20141130180000
1192,"City committee communist party school, Jingzhou",,30.349004,112.212531,1,1,16,0,0,6,11,2,1028,43,4,20141130180000
1192,"City committee communist party school, Jingzhou",,30.35054,112.20743,1,1,16,0,0,6,11,2,1028,43,4,20141130180000
1193,"kerong EPA, Jingzhou",,30.302965,112.29443,1,1,16,0,0,9,11,2,1028,43,4,20141130180000
1193,"kerong EPA, Jingzhou",,30.302965,112.29443,1,1,16,0,0,9,11,2,1028,43,4,20141130180000
634,Jingzhou,,30.332608,112.245451,1,1,16,0,0,9,11,2,1028,43,4,20141130180000
635,Huangshi,,30.19723,115.043908,127,77,9,12,12,11,7,,1032,100,6,20141130180000
635,Huangshi,,30.19723,115.043908,127,77,9,12,12,11,7,,1032,100,6,20141130180000
1194,"Chenjiaying, Huangshi",,30.232823,115.067923,112,75,6,8,12,10,7,,1032,100,6,20141130180000
1195,"Chenjiawan , Huangshi",,30.200422,115.082138,144,77,8,14,14,14,7,,1032,100,6,20141130180000
1196,"Xinxialu, Huangshi",,30.17332,114.954357,114,80,15,11,11,12,7,,1032,100,6,20141130180000
1197,"Tie montian, Huangshi",,30.203885,114.906439,137,74,6,14,11,8,7,,1032,100,6,20141130180000
1198,"BDA, Huangshi",,30.207491,115.031739,170,90,10,21,51,14,7,,1032,100,6,20141130180000
636,Shiyan,,32.627208,110.803311,97,64,14,12,9,3,-5,,961,81,1,20141130180000
636,Shiyan,,32.627208,110.803311,97,64,14,12,9,3,-5,,961,81,1,20141130180000
1199,"Wudang Mountain , Shiyan",,32.392921,111.047655,-,-,-,-,-,-,-,,,-,-,20141130180000
1200,"Riverside Village , Shiyan",,32.647286,110.785335,119,59,10,14,3,0,-5,,961,81,1,20141130180000
1201,"Liujiagou , Shiyan",,32.636732,110.731129,109,67,19,14,21,2,-5,,961,81,1,20141130180000
637,Xiangyang,,32.007029,112.128496,97,74,10,16,8,8,-2,,1033,74,2,20141130180000
637,Xiangyang,,32.007029,112.128496,97,74,10,16,8,8,-2,,1033,74,2,20141130180000
1203,"City government, Ezhou",,30.391836,114.892822,91,61,10,11,10,11,6,,1041,100,9,20141130180000
1204,"Zhaojiaba, Ezhou",,30.368966,114.90365,95,73,10,8,8,10,6,,1041,100,9,20141130180000
1205,"Fankou BDA, Ezhou",,30.410759,114.818225,102,80,17,8,26,10,6,,1041,100,9,20141130180000
639,Jingmen,,31.033208,112.205093,132,84,9,15,19,7,2,,1026,73,3,20141130180000
639,Jingmen,,31.033208,112.205093,132,84,9,15,19,7,2,,1026,73,3,20141130180000
1372,"Zhuyuan primary school, Jingmen",,31.046123,112.207214,-,-,-,-,-,-,-,,0,-,-,20141130180000
1373,"City government, Jingmen",,31.035297,112.198897,137,117,6,14,17,8,2,,1026,73,3,20141130180000
640,Xiaogan,,30.922089,113.922387,91,68,19,5,8,7,6,,1029,56,5,20141130180000
640,Xiaogan,,30.922089,113.922387,91,68,19,5,8,7,6,,1029,56,5,20141130180000
1206,"wenhua street, Shenyang , Xiaogan",,30.925856,113.92104,-,-,-,-,-,-,-,,0,-,-,20141130180000
1207,"Dongcheng District , Huludao , Xiaogan",,30.917963,113.943904,91,68,19,5,8,7,6,,1029,56,5,20141130180000
641,Huanggang,,30.45124,114.877378,91,72,15,8,6,12,6,,1041,100,9,20141130180000
641,Huanggang,,30.45124,114.877378,91,72,15,8,6,12,6,,1041,100,9,20141130180000
1208,"Dazhou Island, Huanggang",,30.446205,114.900323,97,84,13,9,1,13,6,,1041,100,9,20141130180000
1209,"Workers Center , Huanggang",,30.469244,114.912504,85,59,17,7,12,11,6,,1041,100,9,20141130180000
642,Xianning,,29.838978,114.327898,127,73,6,11,10,12,4,,1002,76,2,20141130180000
642,Xianning,,29.838978,114.327898,127,73,6,11,10,12,4,,1002,76,2,20141130180000
1210,"Municipal Development and Reform Commission , Xianning",,29.818645,114.328461,127,73,4,10,8,11,4,,1002,76,2,20141130180000
1211,"Xianan District Governement, Xianning",,29.51107,114.181864,124,72,8,13,10,13,4,,1012,83,5,20141130180000
1212,"Yangtze River Industrial Park , Xianning",,29.883098,114.32909,119,75,7,8,12,12,4,,1002,76,2,20141130180000
1213,"Qianshan Park, Xianning",,29.815351,114.328689,132,71,5,10,12,13,4,,1002,76,2,20141130180000
643,Suizhou,,31.688342,113.388675,99,68,18,6,8,15,2,,1027,61,6,20141130180000
643,Suizhou,,31.688342,113.388675,99,68,18,6,8,15,2,,1027,61,6,20141130180000
1338,"City committee communist party school, Suizhou",,31.725316,113.3648,107,71,18,7,6,17,2,,1027,61,6,20141130180000
1339,"Forestry Bureau, Suizhou",,31.690065,113.383157,112,65,19,3,10,24,2,,1027,61,6,20141130180000
644,Enshi,,30.269587,109.493042,55,16,3,3,3,8,6,,,99,1,20141130180000
644,Enshi,,30.292138,109.484562,55,16,3,3,3,8,6,,,99,1,20141130180000
1374,"State Power Company, Enshi",,30.296275,109.508711,57,17,2,1,4,6,6,,,99,1,20141130190000
645,Xiantao,,30.360228,113.460616,153,78,6,7,28,15,3,,1041,75,6,20141130190000
645,Xiantao,,30.360228,113.460616,153,78,6,7,28,15,3,,1041,75,6,20141130190000
1088,Shennongjia,,31.741307,110.685554,78,41,22,4,4,2,-9,,,76,1,20141130190000
1088,Shennongjia,,31.741307,110.685554,78,41,22,4,4,2,-9,,,76,1,20141130190000
1214,"Xiangcheng Yundong Street, Xiangfan",,32.017716,112.16102,107,74,9,18,7,6,-2,,1033,74,2,20141130190000
1359,"Fancheng Xinhua Road , Xiangfan",,32.0544,112.145224,89,74,11,14,9,11,-2,,1033,74,2,20141130190000
655,"City Environmental Monitoring Station, Baotou",,40.657201,109.886738,59,60,31,6,4,5,,,0,,,20141130190000
656,"Donghe EPB, Baotou",,40.586213,110.002224,55,77,24,8,17,15,,,0,,,20141130190000
657,"Baotou shopping mall, Baotou",,40.508334,109.819085,25,53,28,5,7,6,,,0,,,20141130190000
658,"Huilong logistics, Baotou",,40.633436,109.879821,61,51,32,5,5,5,,,0,,,20141130190000
659,Baotou,,40.658597,109.846051,97,91,32,17,17,15,,,0,,,20141130190000
660,"Huatai Automobile Mall, Eerduosi",,39.837048,109.972209,34,62,35,3,2,3,-17,-32,1044,12,2,20141130190000
661,"Olympus Garden, Eerduosi",,39.789171,109.987742,46,54,28,3,4,7,-17,-32,1044,12,2,20141130190000
662,Eerduosi,,39.609284,109.78704,61,62,35,4,7,7,-17,-32,1044,12,2,20141130190000
663,"Tianyi Road, Chifeng",,42.275552,118.88507,63,185,25,1,4,2,-13,-26,1026,18,7,20141130190000
664,"Songshan No.1 Middle School, Chifeng",,42.329307,118.793045,82,327,21,6,19,10,-13,-26,1026,18,7,20141130190000
665,"Hada Street, Chifeng",,42.280714,118.988235,160,303,25,5,26,3,-13,-26,1026,18,7,20141130190000
666,"Songshan Road, Chifeng",,42.171487,118.89501,68,398,22,1,3,1,-13,-26,1026,18,7,20141130190000
667,Chifeng,,42.259752,118.893027,160,398,25,6,26,10,-13,-26,1026,18,7,20141130190000
736,Xinzhou,,38.417244,112.740742,34,62,19,4,14,12,-7,-29,1030,16,9,20141130190000
674,Fuzhou,,26.071406,119.301294,46,19,14,6,3,10,17,16,1017,94,10,20141130190000
675,"Xidong, Xiamen",,24.815345,118.161848,80,35,12,6,2,7,22,19,1015,83,3,20141130190000
676,"Hongwen, Xiamen",,24.473969,118.156281,91,49,27,23,5,11,22,19,1015,83,3,20141130190000
677,"Gulangyu, Xiamen",,24.443168,118.068571,112,47,30,13,5,8,22,19,1015,83,3,20141130190000
678,"Huli, Xiamen",,24.51235,118.099146,162,79,23,12,6,7,22,19,1015,83,3,20141130190000
679,Xiamen,,24.477187,118.094402,162,79,23,12,6,7,-,-,0,-,-,20141130190000
680,"Qingyuan Montain, Quanzhou",,24.939503,118.598337,57,13,23,1,1,4,22,19,1015,83,3,20141130190000
681,"Tushan Street, Quanzhou",,24.90867,118.586397,63,20,21,7,3,7,22,19,1015,83,3,20141130190000
682,"Wanan, Quanzhou",,24.304154,118.070903,46,11,19,7,3,1,22,19,1015,83,3,20141130190000
683,Quanzhou,,24.87179,118.68001,63,20,23,10,4,7,22,19,1015,83,3,20141130190000
687,"Jiancaoping, Taiyuan",,37.887889,112.528383,42,50,26,3,8,8,-7,-29,1030,16,9,20141130190000
688,"Jianhe, Taiyuan",,37.910779,112.579258,59,59,17,5,19,20,-7,-29,1029,16,8,20141130190000
689,"Shanglan, Taiyuan",,38.011589,112.440679,46,46,17,4,5,6,-7,-29,1029,16,8,20141130190000
690,"Jinyuan, Taiyuan",,37.713164,112.475552,30,32,31,1,8,1,-7,-29,1029,16,8,20141130190000
691,"Xiaodian, Taiyuan",,37.782137,112.483533,30,49,9,3,4,11,-7,-29,1029,16,8,20141130190000
692,"Taoyuan, Taiyuan",,37.869752,112.543332,46,42,17,7,43,12,-7,-29,1029,16,8,20141130190000
693,"Wucheng, Taiyuan",,37.819998,112.576252,76,66,15,3,16,5,-7,-29,1029,16,8,20141130190000
694,"Nanzhai, Taiyuan",,37.985902,112.555312,63,50,21,2,7,5,-7,-29,1030,16,9,20141130190000
695,"Jinsheng, Taiyuan",,37.781205,112.494494,53,44,21,9,5,12,-7,-29,1029,16,8,20141130190000
696,Taiyuan,,37.871115,112.555178,46,42,26,7,43,12,-,-,0,-,-,20141130190000
697,"Monitoring station, Changzhi",,36.194062,113.10389,80,65,31,9,13,5,,,0,,,20141130190000
698,"Auditing bureau, Changzhi",,36.212787,113.095221,70,57,45,19,21,2,,,0,,,20141130190000
699,"Qinghua station, Changzhi",,36.154328,113.116385,70,58,25,11,15,9,,,0,,,20141130190000
700,"No.8 middle school, Changzhi",,36.185451,113.099481,74,76,42,11,19,5,,,0,,,20141130190000
701,Changzhi,,36.195553,113.12292,80,76,45,19,21,7,,,0,,,20141130190000
702,"Yungang Hotel, Datong",,40.076997,113.278079,21,119,38,1,5,25,-11,-32,1036,6,9,20141130190000
703,"college of education, Datong",,40.085608,113.27808,74,80,22,1,6,9,-11,-32,1036,6,9,20141130190000
704,Datong,,40.078016,113.307143,74,180,100,2,11,25,-11,-32,1036,6,9,20141130190000
705,"Technical Schools, Linfen",,36.07131,111.509046,30,32,17,2,3,11,-10,-33,0,12,5,20141130190000
706,"Municipal party committee, Linfen",,36.087425,111.508771,34,40,35,1,2,10,-10,-33,0,12,5,20141130190000
1073,"City Monitoring Station, Linfen",,36.097676,111.518739,57,25,17,1,5,9,-9,-33,0,13,6,20141130190000
707,"South Airport, Linfen",,36.041614,111.497968,17,7,20,2,2,4,-10,-33,0,12,5,20141130190000
708,Linfen,,36.087944,111.525098,34,40,35,3,12,10,-10,-33,0,12,5,20141130190000
709,"City center, Yangquan",,37.848012,113.578636,55,61,28,2,6,5,-7,-29,1029,16,8,20141130190000
710,Yangquan,,37.857475,113.586921,70,74,24,11,56,2,-7,-29,1029,16,8,20141130190000
711,"Water Company, Jincheng",,35.504787,112.857245,63,50,12,2,25,1,-2,-21,1032,10,2,20141130190000
712,"Baiyun shopping mall, Jincheng",,35.492858,112.841566,61,45,17,1,20,6,-2,-21,1032,10,2,20141130190000
713,"City EPA, Jincheng",,35.488422,112.858528,61,43,6,4,19,3,-2,-21,1032,10,2,20141130190000
714,"Institute of Technology, Jincheng",,35.484844,112.878073,57,40,34,6,19,1,-2,-21,1032,10,2,20141130190000
715,"No.1 middle school, Jincheng",,35.478725,112.838636,42,54,16,3,19,1,-2,-21,1032,10,2,20141130190000
716,Jincheng,,35.490287,112.85794,63,54,34,4,25,6,-2,-21,1032,10,2,20141130190000
718,"District Government, Shuozhou",,39.320857,112.430641,57,-,7,-,-,3,-10,-34,1037,4,5,20141130190000
719,"City EPA, Shuozhou",,39.331495,112.407997,,-,,-,-,,-,-,0,-,-,20141130190000
720,"No.2 middle school, Shuozhou",,39.377963,112.432877,-,-,-,-,-,-,-,-,0,-,-,20141130190000
721,Shuozhou,,39.332756,112.439672,50,77,30,5,21,3,-10,-34,1037,4,5,20141130190000
722,"Jinlun compound, Jinzhong",,37.697891,112.771017,53,53,15,4,46,34,-7,-29,1030,16,9,20141130190000
723,"Hydraulic Component Factory, Jinzhong",,37.688355,112.725844,34,54,44,11,19,2,-7,-29,1029,16,8,20141130190000
724,"Nandu compound, Jinzhong",,37.713148,112.732036,53,59,19,5,0,4,-7,-29,1029,16,8,20141130190000
725,"Yuci district government, Jinzhong",,37.698228,112.714167,25,44,15,6,14,26,-7,-29,1029,16,8,20141130190000
726,Jinzhong,,37.687705,112.759187,53,59,44,11,19,4,-7,-29,1029,16,8,20141130190000
727,"Yuncheng Middle School, Yuncheng",,35.012345,111.003215,50,46,25,6,12,5,1,-15,1035,18,4,20141130190000
728,"Yudou BDA, Yuncheng",,35.05065,111.029571,57,40,31,3,16,11,1,-15,1035,18,4,20141130190000
729,"Yuncheng college, Yuncheng",,35.038753,111.051992,-,,-,,,-,-,-,0,-,-,20141130190000
730,"Regional Technical School, Yuncheng",,35.028727,110.974076,68,38,18,5,12,9,1,-15,1035,18,4,20141130190000
731,"Airport new district, Yuncheng",,35.084515,111.05339,30,40,37,1,6,14,1,-15,1035,18,4,20141130190000
732,Yuncheng,,35.025675,111.013344,68,40,37,1,12,14,1,-15,1035,18,4,20141130190000
733,"Jiyin, Xinzhou",,38.413292,112.742432,254,55,26,1,7,8,-7,-29,1029,16,8,20141130190000
734,"BDA, Xinzhou",,38.450069,112.736723,-,20,-,5,13,-,-7,-29,1029,16,8,20141130190000
735,"Convention Center, Xinzhou",,38.492043,112.709772,34,51,19,2,14,12,-7,-29,1030,16,9,20141130190000
737,"City EPA, Luliang",,37.522189,111.144365,50,30,23,2,5,15,-9,-26,1039,11,1,20141130190000
738,"Soybean factory, Luliang",,37.51689,111.135101,30,26,8,1,74,13,-9,-26,1039,11,1,20141130190000
739,"Water Company, Luliang",,37.53394,111.138834,70,63,22,5,8,7,-9,-26,1039,11,1,20141130190000
740,Luliang,,37.519091,111.150681,70,63,22,5,8,7,-9,-26,1039,11,1,20141130190000
741,"City government, Sanmenxia",,34.776251,111.198781,63,68,5,5,4,8,2,-15,1034,15,5,20141130190000
743,"BDA, Sanmenxia",,34.800434,111.204332,59,67,32,4,12,5,2,-15,1034,15,5,20141130190000
744,Sanmenxia,,34.771506,111.206129,151,89,32,15,12,5,2,-15,1034,15,5,20141130190000
745,"Food Factory, Changchun",,43.919094,125.329521,78,58,15,8,11,7,-11,-15,1013,73,3,20141130190000
746,"Bus Factory, Changchun",,43.912337,125.293431,74,53,14,12,34,6,-11,-15,1013,73,3,20141130190000
747,"Institute of Posts and Telecommunications, Changchun",,43.842368,125.285005,78,55,13,12,7,8,-11,-15,1013,73,3,20141130190000
748,"Laodong Park, Changchun",,43.877293,125.371519,109,54,10,12,37,7,-11,-15,1013,73,3,20141130190000
749,"Forest area, Changchun",,43.871825,125.331519,80,61,41,12,14,7,-11,-15,1013,73,3,20141130190000
750,"Jinyuetan, Changchun",,43.79031,125.460561,91,53,29,13,13,8,-11,-15,1013,73,3,20141130190000
751,"Shuaiwanzi, Changchun",,43.552321,125.639086,155,74,20,14,19,9,-11,-15,1013,73,3,20141130190000
752,"Economic Development Zone Sanitation Department, Changchun",,43.869221,125.42365,74,81,14,12,21,8,-11,-15,1013,73,3,20141130190000
753,"High-tech Zone Administrative Committee, Changchun",,43.819064,125.256375,82,53,21,8,6,8,-11,-15,1013,73,3,20141130190000
754,"Daishan Park, Changchun",,43.852365,125.223399,87,53,17,8,4,7,-11,-15,1013,73,3,20141130190000
755,Changchun,,43.819415,125.329977,78,55,13,12,7,8,-,-,0,-,-,20141130190000
756,"Hadawan, Jilin",,43.888081,126.545727,124,149,13,10,25,31,-9,-10,0,90,4,20141130190000
757,"Fengman, Jilin",,43.768169,126.678802,124,58,31,10,9,8,-9,-10,0,90,4,20141130190000
758,"Electric Power College, Jilin",,43.827403,126.502281,102,68,23,8,7,8,-9,-10,0,90,4,20141130190000
759,"Jiangnan Park, Jilin",,43.83531,126.556519,102,54,22,11,11,7,-9,-10,0,90,4,20141130190000
760,"Dongjuzi, Jilin",,43.838597,126.590068,142,78,28,18,13,10,-9,-10,0,90,4,20141130190000
763,Jilin,,43.840137,126.555262,142,149,31,18,25,31,-9,-10,0,90,4,20141130190000
764,"Lingbei, Haerbin",,45.756979,126.548008,78,25,15,5,6,15,-13,-17,1012,73,5,20141130190000
765,"Songbei Commercial University, Haerbin",,45.818624,126.566963,53,31,14,5,10,5,-13,-17,1012,73,5,20141130190000
766,"Acheng huining, Haerbin",,45.544286,126.985183,99,50,14,-,5,6,-13,-17,1012,73,5,20141130190000
767,"Nangang College Street, Haerbin",,45.724121,126.604906,53,36,15,2,4,6,-13,-17,1012,73,5,20141130190000
768,"Taiping Hongwei Park, Haerbin",,45.775332,126.695101,78,53,12,11,21,6,-13,-17,1012,73,5,20141130190000
769,"Daowai Chengde Square, Haerbin",,45.768637,126.640955,119,55,12,13,7,7,-13,-17,1012,73,5,20141130190000
770,"Xiangfang Hongqi Street, Haerbin",,45.733936,126.691083,74,62,15,8,37,9,-13,-17,1012,73,5,20141130190000
771,"Dongli Heping Road, Haerbin",,45.727765,126.651974,112,57,13,10,25,2,-13,-17,1012,73,5,20141130190000
772,"Daoli Jianguo Road, Haerbin",,45.749715,126.59891,63,22,16,6,18,9,-13,-17,1012,73,5,20141130190000
773,"Pingfang Light Factory, Haerbin",,45.611951,126.620898,104,64,16,6,2,8,-12,-16,1012,73,5,20141130190000
774,"Hulan Normal College, Haerbin",,45.983745,126.616553,42,17,3,3,3,6,-13,-17,1012,73,5,20141130190000
775,"Provincial Academy of Agricultural Sciences, Haerbin",,45.686141,126.626517,78,33,10,8,23,6,-13,-17,1012,73,5,20141130190000
776,Haerbin,,45.805757,126.541007,53,31,14,5,10,5,-,-,0,-,-,20141130190000
777,"Anju Compound, Qiqihaer",,47.365672,123.937016,5,15,23,1,1,4,-15,-19,1019,65,5,20141130190000
778,"Farming Vehicule Factory, Qiqihaer",,47.326793,123.961427,42,11,15,6,46,6,-15,-19,1019,65,5,20141130190000
779,"Fuqu EPA, Qiqihaer",,47.1853,123.62322,5,32,24,3,1,4,-15,-18,1020,66,4,20141130190000
780,"City Center Square, Qiqihaer",,47.343096,123.96192,25,21,20,3,17,4,-15,-18,1020,66,4,20141130190000
1217,"City Environmental Monitoring Station, Qiqihaer",,47.303639,123.957551,13,50,16,1,26,3,-15,-19,1019,65,5,20141130190000
781,Qiqihaer,,47.356387,123.924736,42,50,24,6,46,6,-15,-19,1019,65,5,20141130190000
782,"Saertu District, Daqing",,46.582368,125.152904,50,20,23,12,9,2,-11,-17,1016,54,4,20141130190000
783,"Datong District, Daqing",,46.036786,124.842115,61,20,17,1,6,4,-11,-17,1016,54,4,20141130190000
784,"Honggang District, Daqing",,46.418381,124.88973,76,35,20,7,5,2,-11,-17,1016,54,4,20141130190000
785,"Longfeng District, Daqing",,46.535426,125.107043,89,37,17,4,8,4,-11,-17,1016,54,4,20141130190000
786,"Ranghulu District, Daqing",,46.635123,124.85648,57,34,22,6,6,2,-11,-17,1016,54,4,20141130190000
787,Daqing,,46.591414,125.110838,89,37,23,12,9,4,-11,-17,1016,54,4,20141130190000
788,"Locomotive Factory, Mudanjiang",,44.610589,129.652672,224,134,10,7,8,21,-2,-3,1006,95,1,20141130190000
789,"No. 1 hospital, Mudanjiang",,44.567775,129.617043,189,120,4,15,7,23,-2,-3,1006,95,1,20141130190000
1220,"EPA building, Mudanjiang",,44.567777,129.620658,229,112,4,8,9,20,-2,-3,1006,95,1,20141130190000
1221,"Cultural Square, Mudanjiang",,44.586388,129.623164,185,109,1,18,9,24,-2,-3,1006,95,1,20141130190000
790,Mudanjiang,,44.553619,129.640246,232,136,14,18,25,24,-2,-3,1006,95,1,20141130190000
791,"Mingzhu Plaza, Hefei",,31.782847,117.201512,180,55,19,17,15,15,6,5,1028,93,3,20141130190000
792,"Sanli Street, Hefei",,31.874637,117.312573,175,61,12,14,8,16,6,5,1028,93,3,20141130190000
793,"Hupo Compound, Hefei",,31.868583,117.264491,176,78,13,8,16,14,6,5,1028,93,3,20141130190000
794,"Dongpu Reservoir, Hefei",,31.90319,117.165584,172,80,15,9,13,5,6,5,1028,93,3,20141130190000
795,"Changjiang middle road, Hefei",,31.855185,117.255484,177,80,6,9,19,13,6,5,1028,93,3,20141130190000
796,"Luyang District, Hefei",,31.941771,117.271504,169,74,8,2,13,12,6,5,1028,93,3,20141130190000
797,"Yaohai District, Hefei",,31.856595,117.341644,174,63,12,17,7,15,6,5,1028,93,3,20141130190000
798,"Baohe District, Hefei",,31.793644,117.307554,175,53,6,6,15,8,6,5,1028,93,3,20141130190000
799,"Lake district, Hefei",,31.736619,117.283501,112,82,21,14,12,18,6,5,1028,93,3,20141130190000
800,"High-tech zone, Hefei",,31.849755,117.129624,182,84,10,9,13,11,6,5,1028,93,3,20141130190000
801,Hefei,,31.819449,117.232753,177,80,6,9,19,13,-,-,0,-,-,20141130190000
802,"Hudong Road No.4 Elementary School, Maanshan",,31.684121,118.511017,154,73,6,21,52,19,9,6,1026,82,5,20141130190000
803,"Tianping Garment Factory, Maanshan",,31.64197,118.488043,151,77,14,26,31,15,9,6,1026,82,5,20141130190000
804,"City education base, Maanshan",,31.711216,118.648913,134,47,62,2,6,11,9,6,1026,82,5,20141130190000
805,"Cihu No.2 elementary school, Maanshan",,31.748546,118.515729,152,68,11,19,24,24,9,6,1026,82,5,20141130190000
806,"Maanshan steel factory power plant, Maanshan",,31.690864,118.48528,155,29,9,17,38,24,9,6,1026,82,5,20141130190000
807,Maanshan,,31.668461,118.511939,155,77,62,26,38,24,9,6,1026,82,5,20141130190000
808,"Science Innovation Center, Wuhu",,31.417056,118.375406,153,40,28,11,9,21,9,6,1026,82,5,20141130190000
809,"No.4 Water Plant, Wuhu",,31.315914,118.376231,154,54,14,20,9,18,9,6,1026,82,5,20141130190000
810,"Monitoring station, Wuhu",,31.348955,118.358154,127,53,3,15,7,15,9,6,1026,82,5,20141130190000
811,"Wuqierling Factory, Wuhu",,31.382068,118.407639,152,54,45,11,15,20,9,6,1026,82,5,20141130190000
812,Wuhu,,31.351007,118.438322,154,54,45,20,15,21,9,6,1026,82,5,20141130190000
1331,Chuzhou,,32.299549,118.322508,-,-,-,-,-,-,-,,0,-,-,20141130190000
813,"Jiangxi Foreign Affairs Office, Nanchang",,28.678027,115.903436,114,44,6,12,8,4,11,8,1026,72,2,20141130190000
814,"Provincial forestry company, Nanchang",,28.69065,115.898546,134,56,8,1,1,12,11,8,1026,80,3,20141130190000
815,"Institute of Forestry, Nanchang",,28.731518,115.82478,99,41,11,6,12,17,11,8,1026,72,2,20141130190000
816,"Jingdong town government, Nanchang",,28.680659,115.972736,155,56,9,1,1,11,11,8,1026,80,3,20141130190000
817,"Contruction Industry College, Nanchang",,28.684018,115.865891,139,68,9,13,15,15,11,8,1026,80,3,20141130190000
818,"Xianghu, Nanchang",,28.637831,115.9033,13,67,12,17,18,17,11,8,1026,80,3,20141130190000
819,"Martial Arts School, Nanchang",,28.794538,115.752876,13,54,11,10,12,8,11,8,1026,80,3,20141130190000
820,"Petrifaction Company, Nanchang",,28.608634,115.912999,160,61,8,3,1,11,11,8,1026,80,3,20141130190000
821,"Provincial Station, Nanchang",,28.677155,115.941896,155,59,9,6,9,12,11,8,1026,80,3,20141130190000
822,Nanchang,,28.679883,115.863022,160,68,12,17,18,17,11,8,1026,80,3,20141130190000
823,"Lushan Mountain Observatory, Jiujiang",,29.5751,115.998926,38,18,23,16,13,19,2,2,1028,100,5,20141130190000
824,"Shili, Jiujiang",,29.668119,115.992381,161,68,10,19,13,4,2,2,1028,100,5,20141130190000
825,"Maoshantou, Jiujiang",,29.700819,115.967192,151,69,8,22,10,11,2,2,1028,100,5,20141130190000
826,"Xiyuan, Jiujiang",,29.723929,115.998206,155,80,9,19,13,7,2,2,1028,100,5,20141130190000
827,"Wuqierling Factory, Jiujiang",,29.640802,116.022713,151,83,11,20,18,6,2,2,1028,100,5,20141130190000
828,"Water Scientific Research Institute, Jiujiang",,29.679179,116.068081,147,73,8,25,8,7,2,2,1028,100,5,20141130190000
829,"Zonghe Industrial Park, Jiujiang",,29.592047,115.916335,151,79,7,28,24,5,2,2,1028,100,5,20141130190000
830,"Petrochemical General Plant, Jiujiang",,29.738832,116.09463,152,69,9,17,8,18,2,2,1028,100,5,20141130190000
831,Jiujiang,,29.70254,116.007025,161,80,10,25,24,19,2,2,1028,100,5,20141130190000
1332,"Feiyu, Xinyu",,27.844697,115.000136,53,23,5,10,14,,11,,1024,95,3,20141130190000
1333,"Beigang, Xinyu",,27.932491,115.103767,59,31,6,9,9,,11,,1024,95,3,20141130190000
1334,"No.2 water factory, Xinyu",,27.839577,114.933915,61,27,2,14,4,,11,,1024,95,3,20141130190000
1335,"Bureau of Meteorology, Xinyu",,27.81048,114.936507,-,31,3,12,8,,11,,1024,95,3,20141130190000
1336,Xinyu,,27.814351,114.922194,61,31,6,14,14,,11,,1024,95,3,20141130190000
832,"Tobacco Factory, Zhengzhou",,34.753419,113.687131,68,72,24,8,10,5,4,-20,1029,16,9,20141130190000
833,"Textile Machinery Factory, Zhengzhou",,34.773366,113.647067,68,86,16,9,7,8,4,-20,1029,16,9,20141130190000
834,"Banking College, Zhengzhou",,34.800856,113.681126,80,76,21,6,8,4,4,-20,1029,16,9,20141130190000
835,"Water Supply Company, Zhengzhou",,34.807188,113.571089,78,79,36,8,12,10,4,-20,1029,16,9,20141130190000
836,"Economic Development Zone Management Committee, Zhengzhou",,34.717652,113.733182,91,82,5,14,8,5,4,-20,1029,16,9,20141130190000
837,"No. 47 middle school, Zhengzhou",,34.772211,113.74009,85,72,24,11,13,7,4,-20,1029,16,9,20141130190000
838,"City Monitoring Station, Zhengzhou",,34.748404,113.60514,93,79,27,14,13,11,4,-20,1029,16,9,20141130190000
839,"Henan Medical University, Zhengzhou",,34.752637,113.641658,99,68,22,32,13,6,4,-20,1029,16,9,20141130190000
840,"Gangli Reservoir, Zhengzhou",,34.952652,113.64248,89,63,22,7,16,8,4,-20,1029,16,9,20141130190000
841,Zhengzhou,,34.745417,113.631415,99,68,22,32,13,6,-,-,0,-,-,20141130190000
842,"Henan University No.1 Hospital, Kaifeng",,34.799302,114.352706,34,28,24,9,8,4,3,-23,1030,13,8,20141130190000
843,"Maternity And Child Hospital, Kaifeng",,34.795803,114.386103,38,31,14,14,14,12,3,-23,1030,13,8,20141130190000
844,"Cancer Hospital, Kaifeng",,34.775428,114.350292,34,40,29,1,14,4,3,-23,1030,13,8,20141130190000
845,"Yellow River Conservancy Institute, Kaifeng",,34.826066,114.324772,38,41,18,10,8,14,3,-23,1030,13,8,20141130190000
846,"Shijixing Kindergarden, Kaifeng",,34.793606,114.302744,21,30,15,9,8,13,3,-23,1030,13,8,20141130190000
847,Kaifeng,,34.796346,114.313426,34,28,24,9,8,4,3,-23,1030,13,8,20141130190000
852,Jiaozuo,,35.215381,113.248188,76,53,39,16,59,6,4,-20,1029,16,9,20141130190000
853,"Cotton Research Institute, Anyang",,36.081435,114.486451,87,57,13,-,18,10,6,-24,1028,4,6,20141130190000
854,"Hongmiao Street, Anyang",,36.086733,114.326,13,6,,,,,6,-24,1028,4,6,20141130190000
855,"Yinxing Compound, Anyang",,36.056519,114.36495,70,62,11,17,16,20,6,-24,1028,4,6,20141130190000
856,"Tiefo Temple, Anyang",,36.110041,114.309309,68,64,12,22,52,12,1,-20,1031,8,6,20141130190000
