locationid,stationname,chinesename,latitude,longitude,pm25,pm10,o3,no2,so2,co,temperature,dewpoint,pressure,humidity,wind,est_time
1,Dongcheng Dongsi,,39.9304,116.423239,260,101,40,27,6,26,26,23,1006,83,4,20140717170000
2,"Temple of Heaven, Dongcheng",,39.887403,116.41324,242,118,36,29,3,25,26,23,1006,83,4,20140717170000
3,West Park officials,,39.930333,116.345162,242,104,41,28,2,25,26,23,1006,83,4,20140717170000
4,West Wanshou Nishinomiya,,39.879354,116.358183,230,98,43,19,2,-,26,23,1006,83,4,20140717170000
5,Chaoyang Olympic Sports Center,,39.983406,116.403253,261,-,34,31,2,24,26,23,1006,83,4,20140717170000
6,Chaoyang Agricultural Exhibition Hall,,39.938331,116.46715,235,107,45,25,3,26,26,23,1006,83,4,20140717170000
7,Haidian Wanliu,,39.988245,116.293062,277,124,25,37,5,22,26,23,1006,83,4,20140717170000
8,The Haidian northern New Area,,40.091313,116.180194,252,-,24,20,5,21,26,23,1006,83,4,20140717170000
9,Haidian Beijing Botanical Garden,,40.003252,116.213097,244,-,32,13,2,21,26,23,1006,83,4,20140717170000
10,Fengtai garden,,39.86423,116.285037,248,-,35,38,2,25,26,23,1006,83,4,20140717170000
11,Fengtai Yungang,,39.82535,116.152237,264,-,36,27,2,21,26,23,1006,83,4,20140717170000
12,Shijingshan city,,39.915286,116.190144,266,134,39,24,2,21,26,23,1006,83,4,20140717170000
13,"Fangshan, Liangxiang",,39.743357,116.14225,247,-,30,29,2,22,26,23,1006,83,4,20140717170000
14,"Huangcunzhen, Daxing",,39.719389,116.410219,200,-,45,28,6,21,26,23,1006,83,4,20140717170000
15,BDA,,39.796197,116.51197,187,-,79,17,2,15,26,23,1006,83,4,20140717170000
16,Tongzhou New Town,,39.887113,116.6689,-,-,33,37,2,12,26,23,1006,83,4,20140717170000
17,Shunyi New Town ,,40.128111,116.660908,257,88,47,11,3,25,26,23,1006,83,4,20140717170000
18,Changping Town,,40.218245,116.236084,216,111,47,12,2,21,26,23,1006,83,4,20140717170000
19,"Mentougou, Longquan Town",,39.938397,116.112323,260,-,40,15,2,18,26,23,1006,83,4,20140717170000
20,Pinggu town,,40.144433,117.106563,196,-,51,8,2,26,26,23,1006,83,4,20140717170000
21,Huairou town,,40.329104,116.63387,230,112,47,6,2,24,26,23,1006,83,4,20140717170000
22,The town of Miyun,,40.371186,116.838053,216,-,60,28,5,27,26,23,1006,83,4,20140717170000
23,Yanqing town,,40.454217,115.978106,266,-,51,14,2,16,26,23,1006,83,4,20140717170000
24,Changping Dingling,,40.293269,116.226108,217,98,51,6,2,20,26,23,1006,83,4,20140717170000
25,Badaling Northwest,,40.36623,115.994146,259,-,45,17,2,19,26,23,1006,83,4,20140717170000
26,Miyun Reservoir,,40.500157,116.91701,214,-,75,2,3,25,26,23,1006,83,4,20140717170000
27,"Donggaocun Zhen, Pinggu",,40.10142,117.126556,180,-,81,12,8,12,26,23,1006,83,4,20140717170000
28,"Yongledianzhen, Tongzhou",,39.713192,116.78905,158,-,81,14,3,7,26,23,1006,83,4,20140717170000
29,"Yufazhen, Daxing",,39.521203,116.306026,179,-,58,3,2,17,26,23,1006,83,4,20140717170000
30,"Liulihezhen, Fangshan",,39.581169,116.006089,242,-,38,41,8,14,26,23,1006,83,4,20140717170000
31,"Qianmen E St, Dongcheng",,39.900402,116.401242,-,101,31,26,2,26,26,23,1006,83,4,20140717170000
32,Yongdingmen Inner St,,39.877401,116.400238,226,-,53,34,2,26,26,23,1006,83,4,20140717170000
33,Xizhimen N St,,39.955352,116.355187,250,-,33,30,5,24,26,23,1006,83,4,20140717170000
34,South Ring Road,,39.857377,116.37421,-,-,-,-,-,-,-,-,0,-,-,20140717170000
35,East Fourth Ring Road,,39.940273,116.489075,248,146,16,51,7,28,26,23,1006,83,4,20140717170000
36,Beijing,,39.955906,116.474246,270,107,45,27,6,26,26,23,1006,83,4,20140717170000
37,Putuo,,31.232979,121.415378,62,18,19,5,5,2,28,26,1008,90,5,20140717170000
38,Yangpu Sipiao,,31.263795,121.540311,61,39,19,11,4,5,28,26,1008,90,5,20140717170000
39,Shanghai Normal College Primary Division,,31.199031,121.487719,53,25,16,10,3,5,28,26,1008,90,5,20140717170000
40,Dianshan Lake,,31.091338,120.982293,53,18,20,9,4,7,28,26,1008,90,5,20140717170000
41,Hongkou Liangcheng,,31.298906,121.47155,50,18,19,9,5,4,28,26,1008,90,5,20140717170000
42,Jingan,,31.224251,121.429637,68,24,21,11,3,5,28,26,1008,90,5,20140717170000
43,Shanghai Normal University,,31.163531,121.416643,55,71,24,11,4,3,28,26,1008,90,5,20140717170000
44,Chuansha,,31.188626,121.707342,45,29,16,4,3,4,28,26,1008,90,5,20140717170000
45,Zhangjiang,,31.204896,121.581215,12,17,17,10,2,4,28,26,1008,90,5,20140717170000
46,Lingshan Road,,31.226286,121.537317,65,27,13,8,3,3,28,26,1008,90,5,20140717170000
1080,City average,,31.228451,121.478227,55,25,18,9,3,3,28,26,1008,90,5,20140717170000
47,Shanghai,,31.202842,121.453493,68,25,21,11,3,5,28,26,1008,90,5,20140717170000
48,Guangzhou,,23.138517,113.263701,119,43,36,21,6,9,30,25,1005,74,4,20140717170000
49,"Huadu town, Guangzhou",,23.389121,113.220062,157,67,32,13,13,7,30,25,1005,74,4,20140717170000
50,"Luogang Zhenlong, Guangzhou",,23.308027,113.567032,159,66,28,10,4,10,30,25,1005,74,4,20140717170000
51,"LuHu, Guangzhou",,23.151743,113.281842,119,43,11,18,4,3,30,25,1005,74,4,20140717170000
52,"Tianhu, Guangzhou",,23.647433,113.629715,104,40,35,2,5,5,30,25,1005,74,4,20140717170000
53,"Zhudong, Guangzhou",,23.418406,113.078552,142,59,31,18,7,7,30,25,1005,74,4,20140717170000
54,"Modiesha station, Guangzhou",,23.103814,113.338238,72,48,14,15,9,6,30,25,1005,74,4,20140717170000
55,Zhuhai,,22.225269,113.304202,53,14,20,15,4,9,29,26,1004,84,21,20140717170000
1075,"Huicai technical school, Foshan",,23.039667,113.105492,61,20,11,13,6,7,30,25,1005,74,4,20140717170000
56,"Sanshuiyun donghai, Foshan",,23.185788,112.865368,127,58,18,24,28,7,30,25,1005,74,4,20140717170000
57,"Nanhai Bureau of Meteorology, Foshan",,23.046836,113.145764,72,28,10,18,4,10,30,25,1005,74,4,20140717170000
58,"Sanshui Monitoring Station, Foshan",,23.163551,112.890843,93,36,20,25,10,8,30,25,1005,74,4,20140717170000
1087,Foshan,,22.999349,113.110189,76,35,13,18,6,10,30,25,1005,74,4,20140717170000
59,"Ronggui street committee, Shunde",,22.762729,113.258356,85,33,13,14,7,9,30,25,1005,74,4,20140717170000
60,Shunde,,22.806658,113.293112,85,33,13,14,9,9,30,25,1005,74,4,20140717170000
61,"Donghu, Jiangmen",,22.590411,113.087351,65,18,9,17,20,6,29,26,1004,84,18,20140717170000
62,"Taoyuan Atmosphere Premier Station, Jiangmen",,22.72489,112.93404,97,52,27,17,6,7,29,26,1004,84,18,20140717170000
63,Jiangmen,,22.604218,113.109062,65,46,9,17,20,9,29,26,1004,84,18,20140717170000
64,"Kengkouzi station, Zhaoqing",,23.158865,112.570287,57,30,33,9,2,8,30,25,1005,74,4,20140717170000
65,"Mugangzi station, Zhaoqing",,23.067961,112.431934,85,27,28,22,5,7,30,25,1005,74,4,20140717170000
66,"Qixingyanzi station, Zhaoqing",,23.075974,112.477437,87,48,21,21,7,5,30,25,1005,74,4,20140717170000
67,Zhaoqing,,23.050167,112.476039,87,48,28,24,20,7,30,25,1005,74,4,20140717170000
68,"Jinguo Bay, Huizhou",,22.937223,114.385567,34,17,26,2,2,6,29,25,1005,79,11,20140717170000
1091,"Xiabu, Huizhou",,23.077493,114.410275,59,30,17,5,2,4,29,25,1005,79,11,20140717170000
69,"Xijiao, Huizhou",,23.338178,114.112867,61,21,21,3,22,6,29,25,1005,79,11,20140717170000
70,"Jiangbei, Huizhou",,23.111706,114.415274,61,20,22,8,3,3,29,25,1005,79,11,20140717170000
71,"Huiyang chuanhu, Huizhou",,22.814485,114.329292,50,19,20,4,4,6,29,25,1005,79,11,20140717170000
72,"Daya bay management committee, Huizhou",,22.739283,114.53631,53,20,16,13,4,3,29,25,1005,79,11,20140717170000
73,Huizhou,,23.079716,114.410253,61,30,22,8,3,8,29,25,1005,79,11,20140717170000
74,"Guancheng No.2 water plant, Dongguan",,23.057294,113.753254,74,48,24,10,9,6,29,25,1005,79,11,20140717170000
75,"Dongcheng Shijing, Dongguan",,23.010039,113.799529,59,29,22,6,4,6,29,25,1005,79,11,20140717170000
76,"Nancheng Xiping, Dongguan",,22.963051,113.743494,61,30,23,11,6,4,29,25,1005,79,11,20140717170000
77,"Nancheng Yuanling, Dongguan",,23.025058,113.751308,63,33,25,2,7,7,29,25,1005,79,11,20140717170000
78,Dongguan,,23.050873,113.787057,74,48,25,11,9,7,29,25,1005,79,11,20140717170000
79,"Zimaling, Zhongshan",,22.505112,113.407183,30,15,13,4,5,5,29,26,1004,84,21,20140717170000
80,"Yangtze River tourist area, Zhongshan",,22.48589,113.439054,30,11,16,5,2,6,29,26,1004,84,21,20140717170000
81,"Huabai Park, Zhongshan",,22.51839,113.374362,42,18,9,10,3,8,29,26,1004,84,21,20140717170000
82,Zhongshan,,22.545387,113.370459,42,18,16,10,5,8,29,26,1004,84,21,20140717170000
83,"No.8 middle school, Shaoguan",,24.767777,113.583537,55,24,28,6,1,0,26,25,1007,90,4,20140717170000
83,"No.8 middle school, Shaoguan",,24.767777,113.583537,55,24,28,6,1,0,26,25,1007,90,4,20140717170000
84,"Forest area, Shaoguan",,24.796107,113.612131,76,31,22,12,7,5,26,25,1007,90,4,20140717170000
84,"Forest area, Shaoguan",,24.796106,113.612131,76,31,22,12,7,5,26,25,1007,90,4,20140717170000
86,"Shaoguan University, Shaoguan",,24.790864,113.646598,-,-,-,-,-,-,-,-,0,-,-,20140717170000
86,"Shaoguan University, Shaoguan",,24.790864,113.646599,-,-,-,-,-,-,-,-,0,-,-,20140717170000
88,"Qujiang Monitoring Station, Shaoguan",,24.683042,113.60157,78,38,24,28,5,8,26,25,1007,90,4,20140717170000
88,"Qujiang Monitoring Station, Shaoguan",,24.683042,113.60157,78,38,24,28,5,8,26,25,1007,90,4,20140717170000
89,Shaoguan,,24.807342,113.602712,78,41,28,28,7,8,26,25,1007,90,4,20140717170000
90,"Chaonanzi Station, Shantou",,23.251213,116.406762,68,40,20,6,5,8,30,25,1008,74,9,20140717170000
91,Shantou,,23.350642,116.686306,59,22,25,7,4,10,30,25,1008,74,9,20140717170000
92,"City Environmental Monitoring Station, Zhanjiang",,21.220431,110.397317,30,17,19,3,2,5,32,23,1001,51,13,20140717170000
93,"EPB Dormitory, Zhanjiang",,21.197376,110.406487,-,-,-,-,-,-,-,-,0,-,-,20140717170000
94,"Xiashan Swimming Park, Zhanjiang",,21.200431,110.415655,-,-,-,-,-,-,-,-,0,-,-,20140717170000
95,"Zhanjiang Theatre, Zhanjiang",,21.268177,110.366445,70,43,11,17,8,8,27,24,1004,79,9,20140717170000
96,"Mazhang EPA, Zhanjiang",,21.265486,110.335993,144,67,22,6,2,11,27,24,1004,79,9,20140717170000
97,"Potou District EPB, Zhanjiang",,21.247604,110.454508,-,-,-,-,-,-,-,-,0,-,-,20140717170000
98,Zhanjiang,,21.26832,110.363883,144,67,22,17,8,11,27,24,1004,79,9,20140717170000
99,"Maogang sub-office EPB, Maoming",,21.466435,111.033462,30,12,17,2,2,3,28,25,0,82,14,20140717170000
100,"Petrochemical No. 7 elementaty school, Maoming",,21.648905,110.937861,21,13,17,5,2,3,28,25,0,82,14,20140717170000
101,"Jiankang road, Maoming",,21.662211,110.909482,38,18,9,4,4,10,28,25,0,82,14,20140717170000
102,"Gaoling, Maoming",,21.690558,110.871146,25,23,11,8,35,6,28,25,0,82,14,20140717170000
1094,Maoming,,21.660223,110.929968,38,23,17,8,35,10,28,25,0,82,14,20140717170000
103,"Jiaying University, Meizhou",,24.325415,116.12816,72,34,35,1,5,6,30,25,1008,74,9,20140717170000
104,"Mexian new town, Meizhou",,24.269283,116.084546,76,37,36,6,7,6,30,25,1008,74,9,20140717170000
105,"Environmental Monitoring Center, Meizhou",,24.262778,116.129621,70,31,32,7,4,7,30,25,1008,74,9,20140717170000
1095,Meizhou,,24.285988,116.127065,76,37,36,7,7,7,30,25,1008,74,9,20140717170000
106,"City EPA, Shanwei",,22.772349,115.370227,53,16,21,1,3,5,27,26,1007,93,9,20140717170000
107,"City government, Shanwei",,22.787161,115.375536,50,15,20,2,3,8,27,26,1007,93,9,20140717170000
108,"Xincheng Middle School, Shanwei",,22.789851,115.367124,30,11,21,1,2,7,27,26,1007,93,9,20140717170000
1099,Shanwei,,22.783576,115.38022,53,16,21,2,3,8,27,26,1007,93,9,20140717170000
109,"No.3 elementary school, Heyuan",,23.75435,114.703514,61,29,28,3,4,6,30,22,1007,55,4,20140717170000
109,"No.3 elementary school, Heyuan",,23.755946,114.699091,61,29,28,3,4,6,30,22,1007,55,4,20140717170000
111,"City water company, Heyuan",,23.688709,114.954652,68,30,27,6,3,7,30,22,1007,55,4,20140717170000
111,"City water company, Heyuan",,23.754246,114.682459,68,30,27,6,3,7,30,22,1007,55,4,20140717170000
113,"Heyuan high school, Heyuan",,23.720037,114.699563,80,37,22,6,4,8,30,22,1007,55,4,20140717170000
113,"Heyuan high school, Heyuan",,23.720666,114.693879,80,37,22,6,4,8,30,22,1007,55,4,20140717170000
115,Heyuan,,23.740888,114.705147,80,37,28,6,4,8,30,22,1007,55,4,20140717170000
116,"Yuanyang Lake, Yangjiang",,21.855869,111.983676,50,12,13,6,2,6,26,24,1004,83,18,20140717170000
1100,Yangjiang,,21.855227,111.987308,50,13,14,6,3,6,26,24,1004,83,18,20140717170000
118,"Town governement, Qingyuan",,23.708005,113.026215,57,32,15,8,4,17,30,25,1005,74,4,20140717170000
119,"Fupin district, Qingyuan",,23.624781,113.067713,93,46,12,17,13,17,30,25,1005,74,4,20140717170000
119,"Fupin district, Qingyuan",,24.185415,113.419369,93,46,12,17,13,17,30,25,1005,74,4,20140717170000
121,"Environment protection office, Qingyuan",,23.691109,113.047948,61,45,19,10,5,9,30,25,1005,74,4,20140717170000
121,"Environment protection office, Qingyuan",,23.685931,113.053239,61,45,19,10,5,9,30,25,1005,74,4,20140717170000
123,"Fengcheng Subdistrict, Qingyuan",,23.695447,113.068189,57,32,15,8,4,17,30,25,1005,74,4,20140717170000
124,Qingyuan,,23.679304,113.061513,93,46,19,17,13,17,30,25,1005,74,4,20140717170000
125,"Xiyuan Road, Chaozhou",,23.668654,116.638272,68,25,24,4,11,13,30,25,1008,74,9,20140717170000
126,"Archives Bureau, Chaozhou",,23.667881,116.649104,72,28,26,5,13,9,30,25,1008,74,9,20140717170000
127,"Municipal Corporation, Chaozhou",,23.65035,116.621859,57,50,24,6,10,10,30,25,1008,74,9,20140717170000
1101,Chaozhou,,23.654204,116.626969,72,50,26,6,13,13,30,25,1008,74,9,20140717170000
128,"Donghu Park, Jieyang",,23.532877,116.374427,72,24,25,3,7,9,30,25,1008,74,9,20140717170000
129,"Yuhu Middle School, Jieyang",,23.52682,116.414123,72,34,31,1,5,9,30,25,1008,74,9,20140717170000
130,"Experimental Primary School, Jieyang",,23.571473,116.364137,59,23,27,6,6,8,30,25,1008,74,9,20140717170000
1102,Jieyang,,23.547596,116.37754,72,34,31,6,8,9,30,25,1008,74,9,20140717170000
131,"City Environmental Monitoring Station, Yunfu",,22.936779,112.042248,42,11,29,12,3,11,30,25,1005,74,4,20140717170000
132,"The new city government headquarters, Yunfu",,22.914275,112.044475,42,16,26,8,4,9,30,25,1005,74,4,20140717170000
133,"Muyang police sub-station, Yunfu",,22.951267,112.05923,-,-,-,-,-,-,-,-,0,-,-,20140717170000
1103,Yunfu,,22.912436,112.049811,42,16,29,12,4,11,30,25,1005,74,4,20140717170000
134,Yantian,,22.587949,114.266899,42,14,28,11,3,16,29,25,1005,79,11,20140717170000
135,Kwai Chung,,22.572837,113.867166,50,16,19,10,4,9,29,25,1005,79,11,20140717170000
135,Kwai Chung,,22.627947,114.428875,50,16,19,10,4,9,29,25,1005,79,11,20140717170000
135,Kwai Chung,,22.354168,114.134558,50,16,19,10,4,9,29,25,1005,79,11,20140717170000
137,Nanyou,,22.513802,113.928051,38,12,31,8,7,14,29,25,1005,79,11,20140717170000
138,Meisha,,22.59611,114.318345,50,13,13,1,1,6,29,25,1005,79,11,20140717170000
139,Xi xiang,,22.717524,114.252304,59,26,16,13,3,10,29,25,1005,79,11,20140717170000
140,Liyuan,,22.54732,114.101205,34,10,10,7,1,7,29,25,1005,79,11,20140717170000
1072,Kwai Chung,,22.627947,114.428875,42,13,24,3,2,19,29,25,1005,79,11,20140717170000
1072,Kwai Chung,,22.354168,114.134558,42,13,24,3,2,19,29,25,1005,79,11,20140717170000
141,OCT,,22.539549,113.992458,34,10,16,5,1,11,29,25,1005,79,11,20140717170000
142,Honghu,,22.559647,114.121976,38,11,17,7,1,6,29,25,1005,79,11,20140717170000
143,Mission Hills,,22.694131,114.050496,34,29,11,3,2,8,29,25,1005,79,11,20140717170000
144,Shenzhen,,22.540382,114.062982,59,28,31,13,7,19,29,25,1005,79,11,20140717170000
145,Chengdu,,30.622581,104.069564,134,81,34,54,6,7,26,22,1006,78,0,20140717170000
146,"Jinquan lianghe, Chengdu",,30.710359,103.974209,109,59,36,24,4,8,26,21,1006,74,2,20140717170000
147,"Shilidian, Chengdu",,30.684718,104.17845,139,80,30,58,5,5,26,21,1006,74,2,20140717170000
148,"Sanwayao, Chengdu",,30.568159,104.081524,-,-,-,-,-,-,-,-,0,-,-,20140717170000
149,"Shahepu, Chengdu",,30.633685,104.120536,107,58,23,41,4,9,26,21,1006,74,2,20140717170000
150,"Liang Lane, Chengdu",,30.682601,104.076522,127,64,34,53,6,6,26,21,1006,74,2,20140717170000
151,"Caotang Temple, Chengdu",,30.651891,104.0284,139,81,28,54,6,7,26,21,1006,74,2,20140717170000
152,"Lingyansi, Chengdu",,31.025729,103.615022,102,50,153,7,3,3,26,21,1006,74,2,20140717170000
153,"Fuleshan, Mianyang",,31.472493,104.7806,161,74,48,12,2,8,30,22,1002,51,4,20140717170000
154,"High-tech Zone Water Company, Mianyang",,31.463309,104.674293,165,73,50,29,13,10,30,22,1002,51,4,20140717170000
155,"No.3 water company, Mianyang",,31.505002,104.731054,164,88,36,48,11,5,30,22,1002,51,4,20140717170000
156,Mianyang,,31.465174,104.681731,165,88,50,55,13,10,30,22,1002,51,4,20140717170000
157,"Dongshan Park, Deyang",,31.118648,104.424587,152,75,32,30,16,6,26,21,1006,74,2,20140717170000
158,"Xixiaoqu, Deyang",,31.131159,104.390972,156,85,48,12,12,8,26,21,1006,74,2,20140717170000
159,"City Procuratorate, Deyang",,31.114554,104.407986,159,81,41,14,15,4,26,21,1006,74,2,20140717170000
160,"Refractory Factory, Deyang",,31.108606,104.356506,164,96,55,8,11,4,26,21,1006,74,2,20140717170000
161,Deyang,,31.124715,104.400703,164,96,55,30,16,8,26,21,1006,74,2,20140717170000
162,"Nongnongping, Panzhihua",,26.566698,101.695438,129,68,49,10,11,13,25,15,0,46,4,20140717170000
163,"Hemenkou, Panzhihua",,26.589072,101.578312,137,92,39,17,11,16,25,15,0,46,4,20140717170000
164,"Bingcaogang, Panzhihua",,26.58143,101.718473,157,98,29,40,20,14,25,15,0,46,4,20140717170000
165,"Renhe, Panzhihua",,26.498166,101.746887,95,68,33,10,7,14,25,15,0,46,4,20140717170000
166,"Jinjina, Panzhihua",,26.553226,101.84862,129,79,37,16,58,13,25,15,0,46,4,20140717170000
167,Panzhihua,,26.578779,101.720211,157,92,49,40,58,16,25,15,0,46,4,20140717170000
168,"Shima Middle School, Yibin",,28.815979,104.599199,154,82,42,17,12,10,28,23,1004,68,2,20140717170000
169,"Municipal party committee, Yibin",,28.762654,104.624834,155,64,35,28,15,10,28,23,1004,68,2,20140717170000
170,"No. 4 middle school, Yibin",,28.783257,104.608407,165,95,22,20,15,7,28,23,1004,68,2,20140717170000
171,"City government, Yibin",,28.760477,104.644079,152,92,45,14,36,7,28,23,1004,68,2,20140717170000
172,"Huangjinzui, Yibin",,28.712319,104.578389,142,67,79,11,5,7,28,23,1004,68,2,20140717170000
173,"Shaping Middle School, Yibin",,28.795569,104.681393,117,53,40,5,1,6,28,23,1004,68,2,20140717170000
174,Yibin,,28.748384,104.645766,165,95,79,28,36,10,28,23,1004,68,2,20140717170000
175,"Datang Hill, Zigong",,29.359969,104.757388,160,82,19,24,2,13,25,21,0,77,4,20140717170000
176,"Yanma Road, Zigong",,29.355752,104.724036,129,91,8,25,8,11,25,21,0,77,4,20140717170000
177,"Tanmulin Street, Zigong",,29.353555,104.777397,149,54,26,12,11,4,25,21,0,77,4,20140717170000
178,"Chunhua Road, Zigong",,29.33825,104.771895,161,77,22,32,8,9,25,21,0,77,4,20140717170000
179,Zigong,,29.33617,104.781138,161,91,26,32,11,13,25,21,0,77,4,20140717170000
180,"Jiushi Hill, Luzhou",,28.955347,105.434207,134,3,144,6,2,3,25,21,0,79,5,20140717170000
181,"Xiaoshishang Port, Luzhou",,28.899583,105.447192,160,83,157,20,18,4,25,21,0,79,5,20140717170000
182,"Lantianxian Bridge, Luzhou",,28.852766,105.4358,152,75,201,20,3,4,25,21,0,79,5,20140717170000
183,"City Environment Monitoring Station, Luzhou",,28.895898,105.435802,151,63,111,21,1,5,25,21,0,79,5,20140717170000
184,Luzhou,,28.868782,105.445938,160,83,201,21,18,5,25,21,0,79,5,20140717170000
185,"City Committee, Nanchong",,30.799993,106.082906,161,91,16,33,19,4,29,20,1003,49,0,20140717170000
186,"Refinery Factory, Nanchong",,30.819412,106.10712,167,116,21,46,14,4,29,20,1003,49,0,20140717170000
187,"Gaoping District Monitoring Station, Nanchong",,30.783291,106.110417,160,130,30,34,27,6,29,20,1003,49,0,20140717170000
188,"Jialing District EPB, Nanchong",,30.761255,106.06818,173,136,16,17,18,7,29,20,1003,49,0,20140717170000
189,"City Environmental Monitoring Station, Nanchong",,30.836519,106.11272,70,28,30,17,8,5,29,20,1003,49,0,20140717170000
190,Nanchong,,30.835511,106.114717,173,136,34,46,27,7,29,20,1003,49,0,20140717170000
191,Shenyang US Consulate,,41.785668,123.432865,95,41,16,10,24,9,22,20,1008,88,4,20140717170000
192,"Huishan, Shenyang",,41.835421,123.647773,122,51,15,9,1,10,22,20,1008,88,4,20140717170000
193,"Hunnan, Shenyang",,41.758263,123.540809,134,50,37,14,10,9,22,20,1008,88,4,20140717170000
194,"Zhangshi, Shenyang",,41.771679,123.289859,134,51,43,18,6,6,23,21,1009,88,4,20140717170000
195,"Artillery College, Shenyang",,41.835749,123.547799,57,56,36,12,2,9,22,20,1008,88,4,20140717170000
196,"Beiling, Shenyang",,41.849633,123.434146,91,46,57,9,13,7,23,21,1009,88,4,20140717170000
197,"Wenyi Road, Shenyang",,41.767444,123.416144,109,41,49,10,24,8,22,20,1008,88,4,20140717170000
198,"Xiaoheyan, Shenyang",,41.779828,123.484015,153,53,50,13,23,10,22,20,1008,88,4,20140717170000
199,"Taiyuan Street, Shenyang",,41.799646,123.406146,97,40,16,12,7,7,23,21,1009,88,4,20140717170000
200,"Ermao, Shenyang",,41.783011,123.366679,152,55,82,13,34,7,22,20,1008,88,4,20140717170000
201,"Liaoning University, Shenyang",,41.830704,123.361071,107,46,32,12,11,7,22,20,1008,88,4,20140717170000
202,Shenyang,,41.808126,123.437611,95,46,57,12,24,7,22,20,1008,88,4,20140717170000
1104,"wenhua street, Shenyang , Shenyang",,41.774139,123.441839,114,56,78,14,28,8,22,20,1008,88,4,20140717170000
1105,"Tanglin Road , Shenyang , Shenyang",,41.823665,123.562317,68,52,48,13,3,9,22,20,1008,88,4,20140717170000
203,"Ganjingzi, Dalian",,38.9747,121.616893,152,139,43,11,1,4,23,22,1008,94,4,20140717170000
204,"Zhoushuizi, Dalian",,38.951928,121.569981,152,52,46,17,3,9,23,22,1008,94,4,20140717170000
205,"Xinghai No 3 station, Dalian",,38.885779,121.568864,139,54,77,11,4,4,23,22,1008,94,4,20140717170000
206,"Qingniwa Bridge, Dalian",,38.91274,121.638018,102,44,49,16,2,6,23,22,1008,94,4,20140717170000
207,"Fujiazhuang, Dalian",,38.864647,121.629947,87,69,31,8,4,4,23,22,1008,94,4,20140717170000
208,"Qixianling, Dalian",,38.856978,121.523169,124,43,65,8,4,9,23,22,1008,94,4,20140717170000
209,"Lushun, Dalian",,38.808946,121.264063,179,74,40,8,3,4,23,22,1008,94,4,20140717170000
210,"Jinzhou, Dalian",,39.132192,121.753259,117,52,31,12,1,2,23,22,1008,94,4,20140717170000
211,"BDA, Dalian",,39.05213,121.782022,114,52,6,7,1,3,23,22,1008,94,4,20140717170000
212,"D&D Port, Dalian",,39.064087,121.981874,97,44,22,12,1,9,23,22,1008,94,4,20140717170000
213,Dalian,,38.91478,121.619625,102,69,49,16,4,6,23,22,1008,94,4,20140717170000
214,"Bearing Factory, Dandong",,40.068929,124.345703,61,22,37,7,16,4,22,21,1011,91,2,20140717170000
215,"Financial school, Dandong",,40.158723,124.432593,72,26,38,4,6,16,22,21,1011,91,2,20140717170000
216,"Yuanbaoshan water, Dandong",,40.149431,124.391698,61,18,31,6,9,13,22,21,1011,91,2,20140717170000
217,"Experimental Primary School, Dandong",,39.887343,124.158056,68,30,35,8,4,17,22,21,1011,91,2,20140717170000
218,Dandong,,40.002046,124.360479,68,30,41,6,22,17,22,21,1011,91,2,20140717170000
1106,"minzhu bridge, Dandong , Dandong",,40.112974,124.373604,68,30,39,6,3,17,22,21,1011,91,2,20140717170000
1107,"yuanbaoshan, Dandong , Dandong",,40.146298,124.399081,61,17,35,4,9,13,22,21,1011,91,2,20140717170000
1108,"linjiang houjie, Dandong , Dandong",,40.152757,124.431745,68,24,41,3,5,16,22,21,1011,91,2,20140717170000
219,"BDA, Panjin",,41.157144,122.06645,169,69,69,6,3,10,21,21,0,97,6,20140717170000
220,"Xinglongtai, Panjin",,41.140948,122.111343,149,87,58,7,8,6,21,21,0,97,6,20140717170000
221,"Dingxiang, Panjin",,41.16139,121.928781,-,-,-,-,-,-,-,-,0,-,-,20140717170000
222,Panjin,,41.122089,122.076206,169,87,69,7,8,10,21,21,0,97,6,20140717170000
223,"No.3 water company, Yingkou",,40.682052,122.385352,74,41,49,6,2,6,24,22,1009,86,2,20140717170000
224,"Yingkou University, Yingkou",,40.683689,122.388285,70,34,91,3,2,7,24,22,1009,86,2,20140717170000
225,"Botanical garden, Yingkou",,40.711674,122.281568,82,40,49,13,4,7,24,22,1009,86,2,20140717170000
226,Yingkou,,40.668578,122.24059,91,42,116,10,4,7,24,22,1009,86,2,20140717170000
1109,"jinghu west street, Yingkou , Yingkou",,40.653831,122.221943,78,42,74,4,2,6,24,22,1009,86,2,20140717170000
1110,"Daqing Road , Yingkou , Yingkou",,40.709181,122.28243,91,42,88,10,4,7,24,22,1009,86,2,20140717170000
227,"Xishanpo, Huludao",,40.724078,120.921974,144,50,91,2,5,4,-,-,0,-,-,20140717170000
228,"Huagong hospital, Huludao",,40.755662,120.848435,156,76,28,6,2,13,-,-,0,-,-,20140717170000
229,"New district park, Huludao",,40.723415,120.853801,142,61,42,3,4,7,-,-,0,-,-,20140717170000
230,"Lianshan district governement, Huludao",,40.775488,120.872292,173,112,63,12,5,4,-,-,0,-,-,20140717170000
231,Huludao,,40.712501,120.842107,178,93,98,12,6,13,26,22,1007,72,7,20140717170000
1111,"Dongcheng District , Huludao , Huludao",,40.775362,120.871706,178,93,78,12,6,5,,,,,,20140717170000
1112,"huagong street, Huludao , Huludao",,40.758901,120.842935,149,80,32,7,2,13,,,,,,20140717170000
232,Anshan,,41.110466,123.000147,124,52,77,7,10,15,22,20,1008,88,4,20140717170000
233,"Qianshan Park, Anshan",,41.033486,123.143897,74,25,35,1,1,3,23,20,1008,83,4,20140717170000
234,"Tiexi, Anshan",,41.121636,122.97506,89,50,38,8,2,7,23,20,1008,83,4,20140717170000
235,"Taiping Station, Anshan",,41.153322,123.052433,107,47,27,4,4,10,23,20,1008,83,4,20140717170000
236,"Central Station, Anshan",,41.106731,123.002736,87,46,46,6,10,8,23,20,1008,83,4,20140717170000
237,"Shengou Temple, Anshan",,41.137157,123.031901,97,42,46,2,3,9,22,20,1008,88,4,20140717170000
1113,"Qianshan , Anshan , Anshan",,41.014521,123.122538,78,27,48,1,1,3,22,20,1008,88,4,20140717170000
1114,"Tiexi Sandao jie, Anshan",,41.103264,122.978613,99,50,46,7,2,6,22,20,1008,88,4,20140717170000
1115,"Taiyang, Anshan",,41.094946,123.019037,95,51,77,6,10,8,22,20,1008,88,4,20140717170000
238,Fushun,,41.883028,123.962984,112,55,59,17,13,15,22,20,1008,88,4,20140717170000
239,"Shenfu new town, Fushun",,41.804638,123.631684,95,40,50,13,7,11,22,20,1008,88,4,20140717170000
240,"Reservoir, Fushun",,41.8464,123.802857,70,21,38,6,1,7,23,20,1008,83,4,20140717170000
241,"Train Station, Fushun",,41.89726,124.017604,78,48,32,13,5,8,23,20,1008,83,4,20140717170000
242,"Dongzhou, Fushun",,41.855578,124.044738,112,41,33,3,2,7,23,20,1008,83,4,20140717170000
243,"Xinhua, Fushun",,41.888598,123.932932,91,53,28,11,4,10,23,20,1008,83,4,20140717170000
244,"Wanghua, Fushun",,41.888825,123.093723,142,60,41,20,11,14,23,20,1008,83,4,20140717170000
245,Benxi,,41.296267,123.772371,119,61,29,17,3,48,22,20,1008,88,4,20140717170000
246,"Weining, Benxi",,41.349663,123.826071,119,61,29,17,3,48,22,20,1008,88,4,20140717170000
247,"Occupational disease hospital, Benxi",,41.305432,123.74645,68,21,42,2,4,19,23,20,1008,83,4,20140717170000
248,"Dongming, Benxi",,41.292369,123.765058,119,3,32,4,8,0,23,20,1008,83,4,20140717170000
249,"Caitun, Benxi",,41.301591,123.746039,91,51,23,7,3,11,22,20,1008,88,4,20140717170000
250,"Xihu, Benxi",,41.331332,123.773537,91,29,24,9,19,10,23,20,1008,83,4,20140717170000
251,"Dayu, Benxi",,41.308091,123.818442,82,30,33,4,8,16,22,20,1008,88,4,20140717170000
1116,"Xinlitun , Benxi , Benxi",,41.264104,123.811523,68,26,44,1,4,19,22,20,1008,88,4,20140717170000
252,Jinzhou,,41.097169,121.132647,169,70,89,6,7,8,25,22,1008,81,9,20140717170000
253,"Beihu Park, Jinzhou",,41.141447,121.137339,161,71,88,5,5,7,25,22,1008,81,9,20140717170000
254,"Monitoring station, Jinzhou",,41.113441,121.140911,171,73,63,8,9,7,25,22,1008,81,9,20140717170000
255,"Nanshan, Jinzhou",,41.570689,122.046753,158,62,69,6,6,8,25,22,1008,81,9,20140717170000
1118,"BDA, Jinzhou",,40.853915,121.061756,164,70,55,11,48,7,25,22,1008,81,9,20140717170000
1119,"tianan street, Jinzhou , Jinzhou",,41.124468,121.126119,164,73,89,5,6,7,25,22,1008,81,9,20140717170000
1120,"baigu street, Jinzhou, Jinzhou",,41.12214,121.21027,169,70,68,6,7,7,25,22,1008,81,9,20140717170000
1121,Chaoyang,,41.576022,120.456053,158,65,85,9,3,36,26,22,1007,72,7,20140717170000
1122,"Agricultural Area, Chaoyang",,43.93968,125.247371,114,50,41,8,1,10,26,22,1007,72,7,20140717180000
1123,Tieling,,42.225197,123.732174,144,58,64,18,13,10,22,20,1008,88,4,20140717180000
260,"Waterpark, Tieling",,42.297031,123.880748,144,58,31,18,13,9,22,20,1008,88,4,20140717180000
1124,"Huigong Street West , Tieling , Tieling",,42.311115,123.845614,104,52,64,8,8,10,22,20,1008,88,4,20140717180000
1125,Liaoyang,,41.269312,123.24268,93,31,54,2,10,16,22,20,1008,88,4,20140717180000
1126,"Riverside Road , Liaoyang , Liaoyang",,41.176884,123.419859,89,30,47,3,35,17,22,20,1008,88,4,20140717180000
1127,Fuxin,,42.02373,121.675733,169,102,110,13,7,15,20,19,0,95,6,20140717180000
266,"Agricultural Area, Fuxin",,42.071291,121.696445,160,102,85,7,7,14,20,19,0,95,6,20140717180000
267,"Industrial Area, Fuxin",,42.041052,121.715554,163,91,54,19,12,15,20,19,0,95,6,20140717180000
1128,"Yulong Metro , Fuxin , Fuxin",,42.035091,121.666531,169,87,110,8,5,15,20,19,0,95,6,20140717180000
1129,"Dongyuan , Fuxin , Fuxin",,42.029119,121.681553,-,-,-,-,-,-,-,-,0,-,-,20140717180000
268,"City Monitoring Station, Jinan",,36.662614,117.054645,167,94,23,11,8,9,29,21,1007,52,7,20140717180000
269,"Shandong Institute of Economics, Jinan",,36.63819,117.074975,153,59,25,7,7,6,29,21,1007,52,7,20140717180000
270,"Quancheng Plaza, Jinan",,36.661711,117.027043,157,74,48,5,12,4,29,21,1007,52,7,20140717180000
271,"Kegansuo, Jinan",,36.611582,116.99384,153,78,78,11,8,4,29,21,1007,52,7,20140717180000
272,"Agriculture Science Institute, Jinan",,36.663115,116.95063,159,121,64,22,16,8,29,21,1007,52,7,20140717180000
273,"Lanxiang technical school, Jinan",,36.700421,116.95342,159,46,126,18,14,5,29,21,1007,52,7,20140717180000
274,"Chemical factory, Jinan",,36.687463,116.994406,159,78,49,20,13,3,29,21,1007,52,7,20140717180000
275,"Provincial Seed Warehouse, Jinan",,36.685706,117.066348,161,81,29,18,18,11,29,21,1007,52,7,20140717180000
276,"Shandong Architecture University, Jinan",,36.681732,117.191868,155,80,31,21,13,10,29,21,1007,52,7,20140717180000
277,"Baosheng cable company, Jinan",,36.724638,117.130855,167,142,19,36,17,13,29,21,1007,52,7,20140717180000
278,"Paomaling, Jinan",,36.47869,117.219027,152,66,90,6,15,9,29,21,1007,52,7,20140717180000
279,"Changqing District Communist Party School, Jinan",,36.548797,116.770859,114,65,95,17,28,8,29,21,1007,52,7,20140717180000
280,"BDA, Jinan",,36.685835,117.130851,151,69,37,6,10,8,29,21,1007,52,7,20140717180000
281,Jinan,,36.651426,117.126625,167,132,126,22,16,9,29,21,1007,52,7,20140717180000
282,"Shinan district No. 1, Qingdao",,36.065534,120.40839,107,75,64,12,8,5,24,22,1009,89,7,20140717180000
283,"Shibei district No. 1, Qingdao",,36.069919,120.341264,142,70,54,6,4,8,24,22,1009,89,7,20140717180000
284,"Shibei district No. 2, Qingdao",,36.104146,120.36637,134,47,97,12,7,8,24,22,1009,89,7,20140717180000
285,"Huangdao District No. 1, Qingdao",,35.958935,120.191041,147,110,47,8,8,6,24,22,1009,89,7,20140717180000
286,"Huangdao District No. 2, Qingdao",,35.970487,120.160339,151,89,47,6,4,8,24,22,1009,89,7,20140717180000
287,"Laoshan District No. 1, Qingdao",,36.085881,120.451839,166,60,95,7,12,7,24,22,1009,89,7,20140717180000
288,"Laoshan District No. 2, Qingdao",,36.091075,120.490388,117,62,116,10,9,8,24,22,1009,89,7,20140717180000
289,"Licang District No. 1, Qingdao",,36.184872,120.38533,134,107,31,10,11,5,24,22,1009,89,7,20140717180000
290,"Licang District No. 2, Qingdao",,36.154369,120.432287,154,47,46,18,15,8,24,22,1009,89,7,20140717180000
291,"Chengyang District No. 1, Qingdao",,36.308502,120.40008,154,63,41,13,10,8,24,22,1009,89,7,20140717180000
292,"Chengyang District No. 2, Qingdao",,36.308429,120.465806,117,65,48,8,13,4,24,22,1009,89,7,20140717180000
293,Qingdao,,36.067358,120.387773,166,110,95,12,12,8,24,22,1009,89,7,20140717180000
294,"Zichuan Meteo. Stations, Zibo",,36.637916,117.960222,160,89,60,25,38,6,27,21,1015,66,7,20140717180000
295,"Dongfeng Chemical factory, Zibo",,36.838576,118.050785,162,129,22,75,79,16,27,21,1015,69,6,20140717180000
296,"Boshan shuangshan, Zibo",,36.497278,117.853581,151,58,65,17,20,10,27,21,1015,69,6,20140717180000
297,"Linzi Putian Park, Zibo",,36.820171,118.315022,163,131,44,33,25,25,27,21,1015,69,6,20140717180000
298,"Qilu Petrochemical, Zibo",,36.765907,118.254967,157,113,36,19,4,12,27,21,1015,69,6,20140717180000
299,"Zhoucun sanjin Group, Zibo",,36.8044,117.85694,162,78,46,36,43,15,27,21,1015,69,6,20140717180000
300,"Vocational College, Zibo",,36.825208,117.926305,153,84,37,37,32,12,27,21,1015,69,6,20140717180000
301,"BDA, Zibo",,36.905214,118.021824,159,117,21,49,36,18,27,21,1015,69,6,20140717180000
302,Zibo,,36.813618,118.060948,165,129,65,75,79,18,27,21,1015,69,6,20140717180000
303,"Shizhong District Government, Zaozhuang",,34.850397,117.569545,89,70,29,22,33,6,28,21,1008,60,2,20140717180000
304,"Sewage treatment plant, Zaozhuang",,34.818951,117.595345,76,52,24,25,23,5,28,21,1008,60,2,20140717180000
305,"Xuecheng EPA, Zaozhuang",,34.790214,117.272455,109,66,25,25,37,6,28,21,1008,60,2,20140717180000
306,"Yicheng District government, Zaozhuang",,34.772806,117.57647,74,61,25,22,7,5,28,21,1008,60,2,20140717180000
307,"Taierzhuang EPA, Zaozhuang",,34.579462,117.741067,59,52,31,12,8,7,28,21,1008,60,2,20140717180000
308,"Shanting EPA, Zaozhuang",,35.070373,117.457691,38,32,36,12,33,7,28,21,1008,60,2,20140717180000
309,"City EPA, Zaozhuang",,34.809466,117.320608,99,76,24,24,37,8,28,21,1008,60,2,20140717180000
310,"High-tech zone, Zaozhuang",,34.821779,117.363495,112,71,23,16,30,14,28,21,1008,60,2,20140717180000
311,Zaozhuang,,34.809693,117.329634,112,71,36,25,37,14,28,21,1008,60,2,20140717180000
312,"City EPA, Dongying",,37.432052,118.672871,144,76,77,16,35,10,27,21,0,68,10,20140717180000
313,"Vocational College, Dongying",,37.438653,118.630567,117,96,91,20,35,8,27,21,0,68,10,20140717180000
314,"Xianhe Oil Production Plant, Dongying",,37.442419,118.510222,161,109,115,21,30,9,27,21,0,68,10,20140717180000
315,"Gengjin village, Dongying",,37.445072,118.55839,154,90,58,24,37,9,27,21,0,69,9,20140717180000
316,"City environmental company, Dongying",,37.466599,118.508012,158,93,88,22,30,10,27,21,0,69,9,20140717180000
317,"Hekou  district, Dongying",,37.883786,118.522171,157,87,143,8,8,9,27,21,0,68,10,20140717180000
318,"BDA, Dongying",,37.435162,118.701827,151,84,92,17,37,10,27,21,0,68,10,20140717180000
319,Dongying,,37.435429,118.680434,161,109,115,24,37,12,27,21,0,68,10,20140717180000
320,"Bearing Factory, Yantai",,37.544126,121.376956,153,65,22,15,4,8,,,,,,20140717180000
321,"Xijiao Chemical Station, Yantai",,37.547148,121.323695,142,58,36,4,4,8,,,,,,20140717180000
322,"Fushan Monitoring Stations, Yantai",,37.472245,121.260116,139,24,20,10,2,9,,,,,,20140717180000
323,"Mouping EPA, Yantai",,37.376681,121.586509,169,70,34,7,5,8,,,,,,20140717180000
324,"Laishan EPA, Yantai",,37.478422,121.44829,163,71,32,2,5,6,,,,,,20140717180000
325,"Laishan Shengquan Industrial Park, Yantai",,37.4271,121.408386,134,76,41,8,2,6,,,,,,20140717180000
326,"China Agricultural University, Yantai",,37.423568,121.511838,122,76,40,5,7,6,,,,,,20140717180000
327,"BDA EPA, Yantai",,37.560827,121.257954,169,96,13,10,1,9,,,,,,20140717180000
329,"Dajijia, Yantai",,37.673849,121.071465,147,58,0,12,8,0,,,,,,20140717180000
330,Yantai,,37.464793,121.453142,163,71,36,15,7,9,23,22,0,93,8,20140717180000
331,"BDA, Weifang",,36.720022,119.054064,153,91,46,12,9,4,,,,,,20140717180000
332,"Business School, Weifang",,36.682442,119.105909,129,74,76,17,10,6,,,,,,20140717180000
333,"Hanting District, Weifang",,36.773484,119.199705,151,77,77,10,10,8,,,,,,20140717180000
334,"Gongda Company, Weifang",,36.657635,119.167266,153,91,74,11,10,5,,,,,,20140717180000
335,"City EPA, Weifang",,36.701272,119.16838,151,89,61,1,7,4,,,,,,20140717180000
336,"City Arbitration Committee, Weifang",,36.702422,119.145927,155,87,108,11,10,7,,,,,,20140717180000
337,"Xinhui Group, Weifang",,36.641581,119.11679,151,86,71,16,10,6,,,,,,20140717180000
338,"Jincheng Middle School, Weifang",,36.773611,119.115539,153,85,107,17,12,7,,,,,,20140717180000
339,Weifang,,36.707217,119.167638,156,91,108,17,22,7,27,21,0,68,10,20140717180000
340,"City Monitoring Station, Jining",,35.408443,116.623917,55,32,42,9,10,7,28,24,1007,69,2,20140717180000
1090,"Shengdi Hollidays Resort, Jining",,35.424746,116.699093,99,56,39,11,19,8,28,24,1007,69,2,20140717180000
341,"Sewage treatment plant, Jining",,35.364286,116.609177,50,24,37,8,5,4,28,24,1007,69,2,20140717180000
342,"Electrochemical Factory, Jining",,35.390473,116.552956,76,43,46,11,14,6,28,24,1007,69,2,20140717180000
343,"Rencheng BDA, Jining",,35.390484,116.662995,57,28,38,8,14,8,28,24,1007,69,2,20140717180000
344,"Agricultural School, Jining",,35.44235,116.601682,50,45,45,10,7,5,28,24,1007,69,2,20140717180000
345,"BDA Huojucheng, Jining",,35.436377,116.642953,152,73,42,16,39,10,28,24,1007,69,2,20140717180000
346,Jining,,35.414473,116.59239,152,73,46,16,39,10,28,24,1007,69,2,20140717180000
347,"Taishan monitoring station, Taian",,36.194362,117.159648,99,55,40,12,15,9,18,18,0,99,18,20140717180000
348,"Shandong Electric Power School, Taian",,36.176071,117.12413,74,58,27,17,6,6,18,18,0,99,18,20140717180000
349,"Population Education school, Taian",,36.194417,117.104131,97,59,34,10,7,11,18,18,0,99,18,20140717180000
350,"Houfeng company, Taian",,36.204863,117.19015,97,53,20,7,11,10,18,18,0,99,18,20140717180000
351,"Nongda new campus, Taian",,36.170179,117.165191,107,71,25,14,3,13,18,18,0,99,18,20140717180000
352,"Transportation technical school, Taian",,36.202126,117.047068,91,53,32,9,6,13,18,18,0,99,18,20140717180000
353,"ICT Technology, Taian",,36.116621,117.107458,97,62,31,16,8,10,18,18,0,99,18,20140717180000
354,Taian,,36.200502,117.093682,107,71,40,17,15,13,18,18,0,99,18,20140717180000
355,"City Environmental Monitoring Station, Weihai",,37.513939,122.067058,137,56,42,6,2,5,23,22,0,93,8,20140717180000
356,"Woodworking Factory, Weihai",,37.325455,122.160777,170,64,44,4,1,4,23,22,0,93,8,20140717180000
357,"Lantian Hotel, Weihai",,37.514641,122.146276,124,53,40,11,3,9,23,22,0,93,8,20140717180000
358,"Zhang village government, Weihai",,37.485561,122.049436,134,50,40,4,3,6,23,22,0,93,8,20140717180000
359,"Gao District Bank, Weihai",,37.534919,122.056294,162,55,47,2,8,3,23,22,0,93,9,20140717180000
360,"Huxia technical school, Weihai",,37.427951,122.130811,122,57,40,4,3,5,23,22,0,93,8,20140717180000
361,Weihai,,37.5141,122.125477,170,64,47,6,8,6,23,22,0,93,8,20140717180000
362,"City governement square, Rizhao",,35.4075,119.526008,158,56,44,6,10,7,25,24,1009,94,2,20140717180000
363,"Port Authority, Rizhao",,35.381297,119.55396,151,57,30,6,7,4,25,24,1009,94,2,20140717180000
364,"City Monitoring Station, Rizhao",,35.388683,119.496405,164,69,42,9,8,5,25,24,1009,94,2,20140717180000
365,"Professor Garden, Rizhao",,35.462161,119.574193,144,84,41,7,11,7,25,24,1009,94,2,20140717180000
366,"Vocational and Technical College, Rizhao",,35.441939,119.538187,159,80,45,5,8,4,25,24,1009,94,2,20140717180000
367,"Lanshan EPA branch, Rizhao",,35.293405,119.345716,161,107,28,36,10,7,25,24,1009,94,2,20140717180000
368,"Jinma Industrial Park, Rizhao",,35.373339,119.514108,159,119,42,38,11,5,25,24,1009,94,2,20140717180000
369,Rizhao,,35.416089,119.532316,161,107,45,36,11,7,25,24,1009,94,2,20140717180000
370,"Vegetable oil factory, Laiwu",,36.205028,117.700917,153,83,36,12,25,11,27,22,1008,71,2,20140717180000
371,"Nursing home, Laiwu",,36.266067,117.652769,124,108,34,7,3,15,27,22,1008,71,2,20140717180000
372,"Xinyi middle school, Laiwu",,36.245086,117.739025,124,78,25,29,37,11,27,22,1008,71,2,20140717180000
373,"Risheng International School, Laiwu",,36.208125,117.730959,162,117,38,39,50,10,27,22,1008,71,2,20140717180000
374,"Gangcheng EPA, Laiwu",,36.066836,117.871823,132,90,33,19,45,12,27,22,1008,71,2,20140717180000
375,"City EPA, Laiwu",,36.228913,117.694797,152,83,32,51,40,14,27,22,1008,71,2,20140717180000
376,Laiwu,,36.213688,117.682612,162,117,38,39,50,15,27,22,1008,71,2,20140717180000
377,"Lunan Pharmaceutical Factory, Linyi",,35.061671,118.299527,61,83,20,22,3,12,24,22,0,89,4,20140717180000
378,"Yihe compound, Linyi",,35.056752,118.34739,50,46,25,22,1,14,24,22,0,89,4,20140717180000
379,"Linyi University, Linyi",,35.114777,118.293414,68,42,23,22,12,12,24,22,0,89,4,20140717180000
380,City EPA,Nanfang,35.104871,118.353518,85,50,18,15,18,13,24,22,0,89,4,20140717180000
381,"Xinguang woolen factory, Linyi",,34.981004,118.282,91,55,27,22,26,12,24,22,0,89,4,20140717180000
382,"Hongfu Baijiu Factory, Linyi",,34.998788,118.257275,55,57,17,24,16,12,24,22,0,89,4,20140717180000
384,"Hedong insurance company, Linyi",,35.089354,118.40812,87,55,18,25,21,17,24,22,0,89,4,20140717180000
385,"Jianghua vehicule center, Linyi",,35.010082,118.435749,59,77,15,23,43,19,24,22,0,89,4,20140717180000
386,Linyi,,35.10428,118.362202,91,83,27,25,43,19,24,22,0,89,4,20140717180000
387,"Heima group, Dezhou",,37.466063,116.314134,166,89,49,19,10,5,28,22,1006,53,0,20140717180000
388,"Monitoring station, Dezhou",,37.433107,116.377312,159,108,33,21,9,7,28,22,1006,53,0,20140717180000
389,"Supervision Station, Dezhou",,37.449689,116.324709,161,107,37,18,28,14,28,22,1006,53,0,20140717180000
390,"Huayu technical school, Dezhou",,37.462809,116.357559,127,100,72,12,10,11,28,22,1006,53,0,20140717180000
391,"Shuangyi group, Dezhou",,37.478848,116.316362,167,103,36,21,7,9,28,22,1006,53,0,20140717180000
392,Dezhou,,37.434959,116.363366,167,108,72,21,39,14,28,22,1006,53,0,20140717180000
393,"Dongchang District Government, Liaocheng",,36.444473,115.971733,144,67,34,15,4,13,31,24,1006,57,2,20140717180000
394,"Light Machinery Factory No. 2, Liaocheng",,36.456788,116.002383,157,100,32,14,4,15,31,24,1006,57,2,20140717180000
395,"City committee communist party school, Liaocheng",,36.479537,115.989288,137,57,31,11,6,13,31,24,1006,57,2,20140717180000
396,"Customs, Liaocheng",,36.431933,115.956974,155,88,38,16,4,16,31,24,1006,57,2,20140717180000
397,"Hongshun Garden, Liaocheng",,36.471124,115.960319,134,124,32,7,5,18,31,24,1006,57,2,20140717180000
398,"BDA, Liaocheng",,36.459407,116.043621,157,98,27,14,8,12,31,24,1006,57,2,20140717180000
399,Liaocheng,,36.456792,115.991051,157,124,38,16,6,18,31,24,1006,57,2,20140717180000
400,"City EPA, Binzhou",,37.38024,118.026895,158,91,28,15,15,13,27,22,1007,67,2,20140717180000
401,"Beizhong new school, Binzhou",,37.38374,117.988996,149,91,23,19,5,15,27,22,1007,67,2,20140717180000
402,"No.2 water factory, Binzhou",,37.36155,118.002648,161,103,19,18,18,12,27,22,1007,67,2,20140717180000
403,"Keling Chemical factory, Binzhou",,37.396138,117.943609,151,77,27,19,5,15,27,22,1007,67,2,20140717180000
404,"Yinhe logistics company, Binzhou",,37.356122,117.943326,165,98,0,12,9,10,27,22,1007,67,2,20140717180000
405,"Bilin compond, Binzhou",,37.36815,117.978964,169,109,29,17,13,14,27,22,1007,67,2,20140717180000
406,Binzhou,,37.382639,117.976606,169,109,29,19,18,15,27,22,1007,67,2,20140717180000
407,"Bureau of Meteorology, Heze",,35.248625,115.428775,50,37,30,12,8,10,25,22,0,80,7,20140717180000
408,"Sewage treatment plant, Heze",,35.222517,115.531511,89,46,24,5,19,10,25,22,0,80,7,20140717180000
409,"Municipal CPPCC, Heze",,35.237125,115.480591,53,31,28,10,11,9,25,22,0,80,7,20140717180000
410,"Huarun Pharmaceutical Company, Heze",,35.261463,115.524873,38,32,26,13,10,12,25,22,0,80,7,20140717180000
411,"Heze University, Heze",,35.269706,115.460934,38,37,37,8,7,9,25,22,0,80,7,20140717180000
412,Heze,,35.233354,115.486503,61,37,37,14,11,12,25,22,0,80,7,20140717180000
413,"Shiji Park, Shijiazhuang",,38.03155,114.547873,180,119,67,23,10,7,25,24,1006,94,2,20140717180000
414,"Xinan College, Shijiazhuang",,38.012764,114.473163,177,98,41,20,2,9,25,24,1006,94,2,20140717180000
415,"Chemical College, Shijiazhuang",,38.055503,114.569816,190,121,38,28,7,8,25,24,1006,94,2,20140717180000
416,"Worker hospital, Shijiazhuang",,38.051784,114.461209,169,91,102,30,3,8,25,24,1006,94,2,20140717180000
417,"Northwest Water Company, Shijiazhuang",,38.140638,114.508038,164,116,72,41,4,8,25,24,1006,94,2,20140717180000
418,"High-tech zone, Shijiazhuang",,38.040482,114.610775,165,123,24,37,10,11,25,24,1006,94,2,20140717180000
419,"Fenglong Montain, Shijiazhuang",,37.910829,114.360264,162,97,120,10,24,7,25,24,1006,94,2,20140717180000
1130,"Zhengding Unicom, Shijiazhuang",,38.159458,114.59879,268,167,65,10,2,12,25,24,1006,94,2,20140717180000
1131,"Luancheng Communications, Shijiazhuang",,37.906534,114.638785,154,84,43,29,31,5,25,24,1006,94,2,20140717180000
1132,"Gaocheng Experimental School, Shijiazhuang",,38.039518,114.867812,250,150,21,17,4,8,25,24,1006,94,2,20140717180000
1133,"Wuji EPA, Shijiazhuang",,38.17862,114.997012,287,164,47,6,4,11,25,24,1006,94,2,20140717180000
1134,"Shenze Power Supply Bureau, Shijiazhuang",,38.197674,115.219126,270,176,44,17,4,11,25,24,1006,94,2,20140717180000
1135,"Zhaoxian EPA, Shijiazhuang",,37.77171,114.775957,163,95,47,8,2,1,25,24,1006,94,2,20140717180000
1136,"Gaoyi County City Hall, Shijiazhuang",,37.623535,114.612729,169,88,50,18,10,2,25,24,1006,94,2,20140717180000
1137,"Zanhuang County City Hall, Shijiazhuang",,37.672898,114.398269,151,78,80,10,19,2,25,24,1006,94,2,20140717180000
1138,"Jingxing Bureau of Meteorology, Shijiazhuang",,38.038788,114.158406,89,30,45,41,2,9,25,24,1006,94,2,20140717180000
1139,"Pingshan Ye River, Shijiazhuang",,38.266657,114.210275,152,57,75,16,8,8,25,24,1006,94,2,20140717180000
420,Shijiazhuang,,38.042926,114.520834,268,167,102,41,10,12,25,24,1006,94,2,20140717180000
421,"No. 12 middle school, Tangshan",,39.659306,118.190271,114,67,14,32,6,4,-,-,0,-,-,20140717180000
422,"Ceramics Company, Tangshan",,39.669255,118.225185,163,83,38,16,4,14,25,22,1006,83,2,20140717180000
1089,"Xiaoshanzi Station, Tangshan",,39.631273,118.206223,-,-,-,-,-,-,-,-,0,-,-,20140717180000
423,"Commodities Bureau, Tangshan",,39.642301,118.191265,149,61,31,6,6,9,25,22,1006,83,2,20140717180000
424,"Leidazhanzi Station, Tangshan",,39.644375,118.150383,164,23,45,1,3,9,25,22,1006,83,2,20140717180000
425,"Supply and marketing cooperatives, Tangshan",,39.632334,118.17232,153,56,39,10,5,9,25,22,1006,83,2,20140717180000
1140,"Guye District City Hall, Tangshan",,39.741379,118.460246,167,81,49,23,1,20,27,23,1006,79,11,20140717180000
1141,"Kaiping Stations, Tangshan",,39.675246,118.275149,153,67,52,15,2,11,27,23,1006,79,11,20140717180000
1142,"Fengnan District City Hall, Tangshan",,39.5834,118.097454,186,80,52,12,7,19,27,23,1006,79,11,20140717180000
1143,"Fengrun City Hall, Tangshan",,39.840355,118.175338,165,103,49,15,6,16,27,23,1006,79,11,20140717180000
1144,"Qianxi EPA, Tangshan",,40.153339,118.317265,177,97,44,20,6,19,27,23,1006,79,11,20140717180000
1145,"Caofeidian Xinli  Primary School, Tangshan",,39.291232,118.462182,164,61,106,1,3,6,27,23,1006,79,11,20140717180000
1146,"Zunhua EPA, Tangshan",,40.206249,117.997315,206,120,63,19,13,26,27,23,1006,79,11,20140717180000
1147,"Qianan No.1 middle school, Tangshan",,40.004248,118.717055,183,92,43,9,3,12,27,23,1006,79,11,20140717180000
426,Tangshan,,39.632175,118.186472,164,83,45,20,10,14,25,22,1006,83,2,20140717180000
427,"City Monitoring Station, Qinhuangdao",,39.958109,119.607773,158,16,40,13,7,6,,,,,,20140717180000
428,"Beidaihe, Qinhuangdao",,39.829209,119.53194,104,34,18,2,11,8,,,,,,20140717180000
429,"Shanhai Pass, Qinhuangdao",,40.019298,119.767898,99,17,37,11,18,5,,,,,,20140717180000
430,"Contruction Plazz, Qinhuangdao",,39.943187,119.542912,151,76,37,36,3,4,,,,,,20140717180000
431,"City government, Qinhuangdao",,39.93711,119.612769,124,52,42,12,13,3,,,,,,20140717180000
598,Wuxi,,31.488746,120.31575,168,95,34,27,16,13,28,25,1009,84,11,20140717180000
1148,"Qinglong EPA, Qinhuangdao",,40.419223,118.958002,197,98,49,1,1,14,27,23,1006,79,11,20140717180000
1149,"Changli EPA, Qinhuangdao",,39.714369,119.173237,152,54,46,10,2,7,,,,,,20140717180000
432,Qinhuangdao,,39.936485,119.606263,124,52,42,12,13,7,25,22,1006,83,2,20140717180000
433,"CongTai Park, Handan",,36.620197,114.501891,127,61,43,6,3,4,28,23,1006,66,2,20140717180000
434,"City EPA, Handan",,36.618145,114.518822,173,62,102,17,9,6,28,23,1006,66,2,20140717180000
435,"East Sewage Factory, Handan",,36.616064,114.548714,165,102,15,4,8,2,28,23,1006,66,2,20140717180000
436,"Mine Hospital, Handan",,36.578149,114.509854,172,79,27,12,4,3,28,23,1006,66,2,20140717180000
1150,"Fengfeng mine Inland Revenue Department, Handan",,36.423085,114.245994,387,262,43,16,5,8,25,21,1006,72,4,20140717180000
1151,"Shexian EPA, Handan",,36.589084,113.692341,154,69,139,9,27,4,,,,,,20140717180000
1152,"Ci County Vocational Education Center, Handan",,36.380247,114.390119,149,70,46,14,4,3,,,,,,20140717180000
1153,"Yongnian government guesthouse, Handan",,36.783297,114.502905,171,110,44,27,11,1,30,23,1006,58,2,20140717180000
1154,"Wuan BDA, Handan",,36.686223,114.269009,161,139,34,1,1,12,,,,,,20140717180000
1085,Handan,,36.625683,114.544812,173,102,102,17,9,6,28,23,1006,66,2,20140717180000
437,"Road and Bridge Corporation, Xingtai",,37.096415,114.538799,134,122,18,46,21,2,28,23,1006,66,2,20140717180000
438,"Dahuo fontain, Xingtai",,37.097563,114.488001,134,94,34,28,22,2,28,23,1006,66,2,20140717180000
439,"Xingtai Normal College, Xingtai",,37.053404,114.531819,157,117,22,35,13,2,28,23,1006,66,2,20140717180000
440,"Environment protection office, Xingtai",,37.06253,114.490985,153,89,33,31,17,4,28,23,1006,66,2,20140717180000
1155,"Cultural centers within the mound, Xingtai",,37.293569,114.524873,159,110,33,53,4,4,30,23,1006,58,2,20140717180000
383,Xingtai,,37.071066,114.510749,157,122,34,46,22,4,28,23,1006,66,2,20140717180000
441,"City Monitoring Station, Baoding",,38.871737,115.527103,221,141,124,6,2,19,28,24,1006,74,7,20140717180000
442,"Surface water Company, Baoding",,38.842891,115.467326,261,146,28,15,31,15,28,24,1006,74,7,20140717180000
443,"Huadian II, Baoding",,38.896748,115.528102,262,169,72,9,5,18,28,24,1006,74,7,20140717180000
444,"Reception Center, Baoding",,38.911905,115.477301,281,136,33,14,2,31,28,24,1006,74,7,20140717180000
445,"Film Factory, Baoding",,38.876949,115.448383,229,157,17,12,9,20,28,24,1006,74,7,20140717180000
446,"Natatorium, Baoding",,38.863815,115.499212,224,148,50,10,5,14,28,24,1006,74,7,20140717180000
1156,"Qingyuan City Hall, Baoding",,38.771758,115.502189,321,166,46,15,5,14,28,24,1006,74,7,20140717180000
1157,"Xushui EPA, Baoding",,39.025781,115.668023,279,181,38,4,10,16,28,24,1006,74,7,20140717180000
1158,"Zhouzhou Monitoring Stations, Baoding",,39.493241,116.040187,294,177,29,14,3,15,28,24,1006,74,7,20140717180000
1159,"Gaobeidian EPA, Baoding",,39.3329,115.885891,234,152,43,15,26,15,28,24,1006,74,7,20140717180000
447,Baoding,,38.874791,115.471124,281,169,124,15,31,31,28,24,1006,74,7,20140717180000
448,"Century Compound, Zhangjiakou",,40.770279,114.909106,95,149,31,6,8,10,24,19,1006,67,9,20140717180000
449,"North Pumping Station, Zhangjiakou",,40.874362,114.910119,109,58,191,7,20,7,27,19,1004,54,16,20140717180000
450,"Hardware Warehouse, Zhangjiakou",,40.81232,114.887119,162,80,37,9,15,17,23,18,1005,66,7,20140717180000
451,"Tanji Chang, Zhangjiakou",,40.796301,114.89811,97,62,111,8,18,11,23,18,1005,66,7,20140717180000
1160,"Xiahuayuan EPA, Zhangjiakou",,40.509345,115.302442,255,157,78,5,8,12,23,18,1005,66,7,20140717180000
1161,"Huaian EPA, Zhangjiakou",,40.68157,114.398646,242,142,62,12,37,11,23,18,1005,66,7,20140717180000
1162,"Huailai Fuqian Primary School, Zhangjiakou",,40.422204,115.530285,303,156,77,1,26,6,24,19,1006,67,9,20140717180000
452,Zhangjiakou,,40.825744,114.893659,162,80,114,9,18,17,23,18,1005,66,7,20140717180000
453,"Railway, Chengde",,40.917557,117.972331,181,100,33,21,4,19,22,21,1007,91,2,20140717180000
454,"Cultural Center, Chengde",,40.974625,117.824437,157,93,15,15,2,17,22,21,1007,91,2,20140717180000
455,"Bank of China, Chengde",,40.985582,117.958304,154,97,31,10,11,17,22,21,1007,91,2,20140717180000
456,"BDA, Chengde",,40.937567,117.969325,184,112,38,8,8,19,22,21,1007,91,2,20140717180000
457,"Ligong, Chengde",,41.012579,117.94428,189,99,14,5,2,15,22,21,1007,91,2,20140717180000
1163,"Chengde County EPA, Chengde",,40.776643,118.17646,315,194,67,12,3,24,23,22,1008,90,2,20140717180000
1164,"Xinglong County City Hall, Chengde",,40.424301,117.513488,208,129,50,10,5,25,23,22,1008,90,2,20140717180000
1165,"Luanping EPA, Chengde",,40.950792,117.350715,231,129,69,16,3,23,23,22,1008,90,2,20140717180000
1166,"Fengning County City Hall, Chengde",,41.216739,116.658037,224,116,97,1,7,14,23,22,1008,90,2,20140717180000
458,Chengde,,40.955652,117.968737,189,112,38,21,11,19,22,21,1007,91,2,20140717180000
459,"Municipal EPB, Cangzhou",,38.323507,116.876746,177,91,40,9,8,7,27,23,1006,79,11,20140717180000
460,"Cangxian Urban Construction Bureau, Cangzhou",,38.299495,116.890734,195,93,36,9,3,4,25,22,1006,83,2,20140717180000
461,"TV Broadcast Station, Cangzhou",,38.325525,116.863761,161,88,39,6,9,3,25,22,1006,83,2,20140717190000
1167,"Qing County City Hall, Cangzhou",,38.589643,116.815876,227,138,22,12,3,4,27,23,1006,79,11,20140717190000
1168,"Poyoushi City Hall, Cangzhou",,38.089516,116.590575,175,98,131,14,27,5,27,23,1006,79,11,20140717190000
1169,"Huanghua Finance Bureau Training Center, Cangzhou",,38.377793,117.343356,212,126,38,27,31,2,27,23,1006,79,11,20140717190000
462,Cangzhou,,38.305035,116.844625,195,93,39,9,9,4,25,22,1006,83,2,20140717190000
463,"Environmental Monitoring Supervision Center, Langfang",,39.558157,116.720995,144,99,37,16,5,7,27,23,1006,79,11,20140717190000
464,"TCM Medical Material Company, Langfang",,39.519096,116.689914,163,71,37,11,5,8,26,22,1006,78,7,20140717190000
465,"BDA, Langfang",,39.576175,116.779041,155,66,37,15,6,6,26,22,1006,78,7,20140717190000
466,"North China Institute of Aerospace, Langfang",,39.53517,116.743027,152,79,33,13,5,7,27,23,1006,79,11,20140717190000
1170,"Guan Party School, Langfang",,39.446185,116.311026,168,80,93,12,10,15,27,23,1006,79,11,20140717190000
1171,"Xianghe EPA, Langfang",,39.76725,117.015252,185,90,85,24,6,10,27,23,1006,79,11,20140717190000
1172,"Wenan County EPA, Langfang",,38.880927,116.47001,164,79,98,7,24,4,27,23,1006,79,11,20140717190000
1173,"Three Rivers Department of Transportation, Langfang",,39.989419,117.091528,203,133,42,19,11,12,27,23,1006,79,11,20140717190000
467,Langfang,,39.539148,116.689668,163,71,37,15,6,8,26,22,1006,78,7,20140717190000
468,"Hengshui City EPB, Hengshui",,37.739679,115.695929,173,87,39,14,4,5,28,20,0,62,8,20140717190000
469,"Environmental Monitoring Station, Hengshui",,37.738593,115.648837,144,99,41,12,5,4,28,20,0,62,8,20140717190000
470,"Electrical Machine North Factory, Hengshui",,37.758686,115.70094,162,85,31,7,4,3,28,20,0,62,8,20140717190000
1174,"Anping EPA, Hengshui",,38.238559,115.537988,367,174,45,21,3,10,28,20,0,58,8,20140717190000
1175,"Jizhou EPA, Hengshui",,37.548552,115.58679,173,90,47,12,9,6,28,20,0,58,8,20140717190000
471,Hengshui,,37.739562,115.676066,173,99,41,14,5,5,28,20,0,62,8,20140717190000
1176,"Xinji City Hall, Xinji",,37.949711,115.230084,174,92,52,11,7,8,28,20,0,58,8,20140717190000
472,"Fukang road, Tianjin",,39.098136,117.157621,205,124,55,21,6,11,26,22,1006,78,7,20140717190000
473,"Nankou road, Tianjin",,39.174022,117.199688,176,118,34,14,6,14,26,22,1006,78,7,20140717190000
474,"Qinjian street, Tianjin",,39.166588,117.15104,218,107,39,17,6,17,26,22,1006,78,7,20140717190000
475,"Nanjing Road, Tianjin",,39.120958,117.195112,198,108,48,20,3,16,26,22,1006,78,7,20140717190000
476,"Dazhigu No.8 road, Tianjin",,39.111811,117.25147,181,108,36,16,7,20,26,22,1006,78,7,20140717190000
477,"Qianjin street, Tianjin",,39.09371,117.207981,184,113,26,19,1,13,26,22,1006,78,7,20140717190000
478,"Huaihe street, Tianjin",,39.227167,117.191293,184,106,32,22,8,10,26,22,1006,78,7,20140717190000
479,"Xiangshan street, Tianjin",,39.134752,117.275125,178,109,44,14,2,16,26,22,1006,78,7,20140717190000
480,"Yuejin Road, Tianjin",,39.088177,117.320884,180,82,40,21,1,15,26,22,1006,78,7,20140717190000
481,"Zhujiang street, Tianjin",,39.064463,117.231268,181,120,38,26,2,12,26,22,1006,78,7,20140717190000
482,"No.4 street, Tianjin",,39.035228,117.713424,160,61,36,12,2,11,26,22,1006,78,7,20140717190000
483,"Yongming road, Tianjin",,38.840392,117.463805,170,92,67,12,7,12,26,22,1006,78,7,20140717190000
484,"Xinhua street, Tianjin",,39.138671,117.010083,144,73,33,24,3,11,26,22,1006,78,7,20140717190000
485,"Jingu Road, Tianjin",,38.985659,117.381254,191,127,38,8,3,15,26,22,1006,78,7,20140717190000
486,"Tanggu Yingkou street, Tianjin",,39.021768,117.656454,165,95,49,12,10,8,26,22,1006,78,7,20140717190000
487,"Hexi Yijing road, Tianjin",,39.248392,117.798043,159,84,44,16,3,10,26,22,1006,78,7,20140717190000
488,"Jianshe Road, Tianjin",,39.720075,117.310588,161,61,46,11,8,13,26,22,1006,78,7,20140717190000
489,"Quanzhou South road, Tianjin",,39.373857,117.050329,170,81,39,15,5,8,26,22,1006,78,7,20140717190000
490,"Donghuan road, Tianjin",,40.043144,117.451062,155,84,48,8,2,21,26,22,1006,78,7,20140717190000
491,"Tuanpowa, Tianjin",,38.920418,117.16299,191,123,50,19,1,12,26,22,1006,78,7,20140717190000
492,"Guangming Road, Tianjin",,39.329193,117.822791,-,-,-,-,-,-,-,-,0,-,-,20140717190000
493,"Beiwei No.2 road, Tianjin",,38.943857,116.920624,223,127,39,11,2,10,26,22,1006,78,7,20140717190000
494,"Haitai fazhan No.2 road, Tianjin",,39.079608,117.096583,185,121,43,34,4,13,26,22,1006,78,7,20140717190000
495,"Hangtian road, Tianjin",,39.152244,117.381309,162,83,39,12,4,11,26,22,1006,78,7,20140717190000
496,"Hanbei road, Tianjin",,39.159768,117.770477,160,63,30,7,3,10,26,22,1006,78,7,20140717190000
497,"Baobai highway, Tianjin",,39.51757,117.349635,151,72,47,16,4,8,26,22,1006,78,7,20140717190000
498,Tianjin,,39.085164,117.207281,198,120,48,26,3,16,26,22,1006,78,7,20140717190000
499,"Wolong bridge, Hangzhou",,30.24371,120.132762,72,39,11,7,2,5,29,23,1008,70,2,20140717190000
500,"Hemu primary school, Hangzhou",,30.309669,120.124507,97,53,29,24,5,7,29,23,1008,70,2,20140717190000
501,"Zhejiang Agricultural University, Hangzhou",,30.265601,120.197583,46,28,17,12,3,6,29,23,1008,70,2,20140717190000
502,"Xiasha, Hangzhou",,30.303516,120.352618,89,35,14,18,6,4,29,23,1008,70,2,20140717190000
503,"Yunqi, Hangzhou",,30.178555,120.093142,80,49,26,7,3,6,29,23,1008,70,2,20140717190000
504,"Xixi, Hangzhou",,30.272425,120.068144,149,66,21,29,2,9,29,23,1008,70,2,20140717190000
505,"Chengxiang town, Hangzhou",,30.179493,120.274184,68,19,18,8,6,6,29,23,1008,70,2,20140717190000
506,"Qiandao lake, Hangzhou",,29.638139,119.031092,55,30,21,6,3,5,29,23,1008,70,2,20140717190000
507,"Linping town, Hangzhou",,30.415948,120.305059,99,46,16,22,8,5,29,23,1008,70,2,20140717190000
509,"No.2 Middle School, Hangzhou",,30.044303,119.956356,134,80,8,19,7,11,29,23,1008,70,2,20140717190000
510,"City Hall, Hangzhou",,30.234185,119.723503,157,73,45,14,13,7,29,23,1008,70,2,20140717190000
511,"No. 4 middle school, Hangzhou",,30.229428,119.699591,147,59,3,18,12,8,29,23,1008,70,2,20140717190000
512,Hangzhou,,30.271756,120.159765,149,66,29,29,5,9,30,23,1008,66,2,20140717190000
513,"City Station, Wenzhou",,28.009715,120.679129,99,0,6,7,2,3,25,24,0,97,3,20140717190000
514,"Ouhai, Wenzhou",,28.001846,120.641982,53,26,3,10,1,6,25,24,0,97,3,20140717190000
515,"Longwan, Wenzhou",,27.968122,120.768393,46,29,9,8,5,4,25,24,0,97,3,20140717190000
516,"Nanpu, Wenzhou",,27.981763,120.683685,50,30,4,9,3,5,25,24,0,97,3,20140717190000
517,Wenzhou,,27.990985,120.703425,99,30,9,10,5,6,25,24,0,97,3,20140717190000
518,"Monitoring station, Jiaxing",,30.75437,120.767373,55,26,10,18,2,6,28,25,1009,84,9,20140717190000
519,"Jiaxing University, Jiaxing",,30.745099,120.735004,74,33,12,12,2,9,28,25,1009,84,11,20140717190000
520,"Qinghe Primary School, Jiaxing",,30.775685,120.747969,87,35,10,7,6,4,28,25,1009,84,9,20140717190000
521,Jiaxing,,30.751627,120.762862,87,35,10,12,6,9,28,25,1009,84,9,20140717190000
522,"Chengbei water plant, Huzhou",,30.891155,120.096593,87,38,21,17,1,8,28,25,1009,84,9,20140717190000
523,"Jishan new village, Huzhou",,30.859939,120.120168,91,36,20,17,6,8,28,25,1009,84,9,20140717190000
524,"Town west water plant, Huzhou",,30.862371,120.084577,95,68,21,18,2,7,28,25,1009,84,9,20140717190000
525,Huzhou,,30.892304,120.091694,95,68,21,18,6,8,28,25,1009,84,9,20140717190000
526,"Donghu middle school, Shaoxing",,29.990447,120.647547,-,-,-,-,-,-,-,-,0,-,-,20140717190000
527,"City EPA station, Shaoxing",,30.001695,120.584318,50,24,21,6,1,4,29,23,1008,70,2,20140717190000
528,"Chengdong BDA committee, Shaoxing",,29.986643,120.613578,42,38,20,6,3,4,29,23,1008,70,2,20140717190000
529,"Paojiang station, Shaoxing",,30.07574,120.62154,5,11,23,6,3,5,29,23,1008,70,2,20140717190000
530,"Shaoxing technical school, Shaoxing",,29.930983,120.577131,87,0,5,4,2,5,29,23,1008,70,2,20140717190000
531,"Library, Shaoxing",,29.706266,120.253183,55,20,15,1,2,7,29,23,1008,70,2,20140717190000
532,"Transporation management station, Shaoxing",,29.726405,120.221602,50,23,24,1,3,5,29,23,1008,70,2,20140717190000
533,"Dongpu Town Governement, Shaoxing",,30.049601,120.539893,55,30,24,2,3,5,29,23,1008,70,2,20140717190000
534,Shaoxing,,29.993122,120.590182,50,38,23,6,3,5,29,23,1008,70,2,20140717190000
535,"City Monitoring Station, Jinhua",,29.100031,119.690373,53,26,16,10,5,4,24,24,0,98,4,20140717190000
536,"No.15 middle school, Jinhua",,29.074022,119.652121,50,23,15,4,7,5,24,24,0,98,4,20140717190000
537,"No.4 middle school, Jinhua",,29.110109,119.653654,53,24,17,4,6,4,24,24,0,98,4,20140717190000
538,"Beiyuan, Jinhua",,29.332898,120.083351,59,34,11,9,12,5,24,24,0,98,4,20140717190000
539,"Jiangdong, Jinhua",,29.302486,120.095291,72,29,12,2,5,5,24,24,0,98,4,20140717190000
597,"Yuhong Elementary School , Wuxi",,31.561155,120.249588,76,41,38,15,8,7,28,25,1009,84,9,20140717190000
540,Jinhua,,29.076083,119.65215,53,26,17,10,7,5,24,24,0,98,4,20140717190000
541,"EPA building, Quzhou",,28.937291,118.876081,76,50,19,18,10,5,28,24,1008,73,7,20140717190000
542,"Experimental school, Quzhou",,28.961502,118.880916,72,35,13,10,11,3,28,24,1008,73,7,20140717190000
543,"Quzhou University, Quzhou",,28.971452,118.860052,61,29,18,12,10,6,28,24,1008,73,7,20140717190000
544,Quzhou,,28.966994,118.864252,76,50,19,18,11,6,28,24,1008,73,7,20140717190000
545,"Putuo east port, Zhoushan",,29.951412,122.317679,21,13,7,4,2,7,27,25,1009,89,4,20140717190000
546,"Dinghai tanfeng, Zhoushan",,30.018014,122.126566,25,10,5,3,2,7,27,25,1009,89,4,20140717190000
547,Zhoushan,,29.983049,122.210763,38,15,7,4,2,7,27,25,1009,89,4,20140717190000
548,"Taizhou EPA building, Taizhou",,28.651216,121.42331,42,23,6,4,2,3,25,25,0,98,4,20140717190000
549,"Luqiao Tian Yang Wang, Taizhou",,28.574364,121.381194,42,20,7,6,4,6,25,25,0,98,4,20140717190000
550,"Huangyan EPA building, Taizhou",,28.656151,121.285064,55,20,8,6,4,9,25,25,0,98,4,20140717190000
551,"Yu Zhuang Qian, Lishui",,28.419638,119.883884,42,22,27,13,7,3,29,24,1010,64,0,20140717190000
552,"Monitoring station building, Lishui",,28.444379,119.923103,30,18,14,4,1,4,29,24,1010,64,0,20140717190000
553,"Liandu primary school, Lishui",,28.450912,119.939332,38,26,14,8,2,4,29,24,1010,64,0,20140717190000
554,Lishui,,28.464224,119.927201,42,26,27,13,7,4,29,24,1010,64,0,20140717190000
555,Taigu Primary School,,29.858177,121.593738,34,12,5,7,3,4,27,26,1009,94,4,20140717190000
556,Qianhu shuihan,,29.862459,121.5328,46,20,4,7,4,4,27,26,1009,94,4,20140717190000
557,Sanjiang secondary schools,,29.884687,121.562713,46,22,5,5,3,4,27,26,1009,94,4,20140717190000
558,Longsai Hospital,,29.949294,121.720671,25,13,9,3,3,5,27,26,1009,94,4,20140717190000
559,Beilun District EPB,,29.899544,121.827597,68,21,7,2,3,3,27,26,1009,94,4,20140717190000
560,Wanli University,,29.896155,121.541154,42,23,6,8,3,4,27,26,1009,94,4,20140717190000
561,Qianhu water plant,,29.788156,121.652415,57,0,8,3,4,4,27,26,1009,94,4,20140717190000
562,Municipal management station,,29.893743,121.620269,9,18,6,2,2,2,27,26,1009,94,4,20140717190000
1177,Daxie Literary Museum,,29.891281,121.952741,38,17,11,3,2,4,28,25,1010,84,2,20140717190000
1178,Cixi EPB,,30.159852,121.242331,50,30,12,6,4,6,28,25,1010,84,2,20140717190000
1179,Cixi Experimently Primary School,,30.174341,121.262169,50,15,15,6,4,3,28,25,1010,84,2,20140717190000
1180,"Yongsan Park, Yuyao",,30.045532,121.157602,50,15,0,2,2,0,28,25,1010,84,2,20140717190000
1181,"Qilupu Water Company, Yuyao",,30.039112,121.133416,50,14,0,2,3,0,28,25,1010,84,2,20140717190000
1182,Fenghua EPB,,29.660537,121.414074,53,13,11,4,2,7,27,26,1009,94,4,20140717190000
1183,"Yuelong station, Ninghai",,29.290223,121.439263,76,9,0,3,3,0,27,26,1009,94,4,20140717190000
1184,"Wenfeng Primary School, Xiangshan",,29.470841,121.895054,30,17,8,3,2,5,28,25,1010,84,2,20140717190000
1185,"Chengnan Primary School, Ninghai",,29.282647,121.428839,46,11,0,2,3,0,28,25,1010,84,2,20140717190000
1186,"Xingang Primary School, Xiangshan",,29.199718,121.935879,21,14,0,3,1,0,28,25,1010,84,2,20140717190000
1187,Fuyang,,30.046157,119.96468,127,79,7,18,6,10,29,23,1008,70,0,20140717190000
1188,Yiwu,,29.304353,120.079794,74,35,10,10,13,5,24,24,0,98,4,20140717190000
1189,Zhuji,,29.711185,120.240748,61,19,12,3,2,7,29,23,1008,70,0,20140717190000
563,"Shanxi Road , Nanjing",,32.06795,118.779216,139,76,11,45,17,9,27,25,1007,89,9,20140717190000
564,"Ruijin Road , Nanjing",,32.029321,118.80817,153,73,2,31,20,12,27,25,1007,89,9,20140717190000
565,"Xuanwu Lake, Nanjing",,32.075423,118.800188,137,71,7,50,15,8,27,25,1007,89,9,20140717190000
566,"Olympic Center, Nanjing",,32.007171,118.742217,144,88,3,23,2,11,27,25,1007,89,9,20140717190000
567,"Xianlin University Town , Nanjing",,32.106958,118.919882,127,67,15,16,4,9,27,25,1007,89,9,20140717190000
568,Nanjing,,32.058179,118.802061,154,65,16,44,18,11,27,25,1007,89,9,20140717190000
569,"Shangfang hill , Suzhou",,31.24502,120.565211,80,87,15,14,7,7,28,25,1009,84,9,20140717190000
570,"Wuzhong District , Suzhou",,31.268105,120.61717,65,74,14,17,3,4,28,25,1009,84,9,20140717190000
571,"Suzhou New District , Suzhou",,31.297277,120.547262,87,58,13,12,12,5,28,25,1009,84,9,20140717190000
572,"Suzhou Industrial Area, Suzhou",,31.307603,120.673257,80,33,21,10,4,4,28,25,1009,84,9,20140717190000
573,"Xiangcheng district, Suzhou",,31.368674,120.645209,-,42,14,15,7,6,28,25,1009,84,9,20140717190000
574,Suzhou,,31.296701,120.589493,87,74,25,17,12,8,28,25,1009,84,9,20140717190000
575,"South suburb , Nantong",,31.957836,120.917218,117,70,20,22,10,5,24,24,0,99,6,20140717190000
576,"Xinghu park, Nantong",,31.927873,120.944254,119,59,23,31,16,7,24,24,0,99,6,20140717190000
577,"Zilang school, Nantong",,32.039638,120.814358,91,59,18,25,17,0,24,24,0,99,6,20140717190000
578,Nantong,,31.978005,120.898555,142,70,28,31,17,7,24,24,0,99,6,20140717190000
579,Lianyungang,,34.595509,119.226814,152,84,21,27,10,7,8,8,1016,96,0,20140717190000
580,"Hongmen police substation, Lianyungang",,34.588692,119.146693,97,46,26,13,2,7,28,25,1009,83,4,20140717190000
581,"Xugou Nuclear Expert Village , Lianyungang",,34.749957,119.373707,85,51,21,10,3,7,28,25,1009,83,4,20140717190000
582,"Hengrui pharmaceutical company, BDA, Lianyungang",,34.697574,119.353668,97,60,32,10,3,6,28,25,1009,83,4,20140717190000
583,"City Monitoring Station, Lianyungang",,34.586791,119.186929,97,38,26,11,5,7,28,25,1009,83,4,20140717190000
584,"Yellow river new village , Xuzhou",,34.271542,117.177241,30,27,10,13,12,5,27,22,1008,64,4,20140717190000
585,"Tongshan Veterinary Hospital , Xuzhou",,34.307086,117.197766,30,24,13,20,12,4,27,22,1008,64,4,20140717190000
586,"New Town , Xuzhou",,34.213992,117.261718,34,21,14,6,9,4,27,22,1008,64,4,20140717190000
587,"Taoyuan road, Xuzhou",,34.289822,117.249721,25,10,13,7,9,6,27,22,1008,64,4,20140717190000
588,"Agricultural Science Academy , Xuzhou",,34.27655,117.299079,55,30,14,9,2,3,27,22,1008,64,4,20140717190000
589,"Tongshan EPA, Xuzhou",,34.179384,117.171798,70,27,8,9,15,9,27,22,1008,64,4,20140717190000
590,Xuzhou,,34.20346,117.289825,70,39,14,17,24,9,27,22,1008,64,4,20140717190000
591,Yangzhou,,32.39233,119.418446,159,69,10,19,10,5,11,9,0,90,6,20140717190000
592,"Hanjiang Monitoring Station, Yangzhou",,32.374218,119.394484,169,82,20,17,30,12,25,24,0,97,5,20140717190000
593,"No. 4 Hospital, Yangzhou",,32.401394,119.44444,220,150,15,10,10,9,25,24,0,97,5,20140717190000
594,"City Monitoring Station, Yangzhou",,32.406588,119.41591,165,77,9,12,16,9,25,24,0,97,5,20140717190000
595,"University Town , Wuxi",,31.484752,120.273571,112,45,42,14,6,6,28,25,1009,84,9,20140717190000
596,"Shibei High School , Wuxi",,31.619969,120.279584,-,-,-,-,-,-,-,-,0,-,-,20140717190000
599,Changzhou,,31.808037,119.979205,172,86,6,22,36,13,11,9,0,88,5,20140717190000
600,"Chengjian School, Changzhou",,31.776476,119.937681,188,90,23,45,10,11,25,25,0,98,6,20140717190000
601,"Changzhou Engineering Institute , Changzhou",,31.806828,119.966724,192,100,40,33,3,14,25,25,0,98,6,20140717190000
602,"Wujin Monitoring Station, Changzhou",,31.701788,119.939676,178,65,70,29,17,11,25,25,0,98,6,20140717190000
603,"City Monitoring Station, Changzhou",,31.777201,119.979426,183,108,38,38,38,12,25,25,0,98,6,20140717190000
604,Zhenjiang,,32.18597,119.431281,170,79,4,39,15,13,9,8,0,93,5,20140717190000
605,"New District Administrative office , Zhenjiang",,32.186174,119.685021,181,110,11,25,12,16,27,25,1007,89,9,20140717190000
606,"Vocational Education Center , Zhenjiang",,32.212973,119.496253,183,125,8,23,11,6,27,25,1007,89,9,20140717190000
607,"Dantu Monitoring Station , Zhenjiang",,32.130026,119.435432,185,108,4,13,6,11,27,25,1007,89,9,20140717190000
608,"City Monitoring Station, Zhenjiang",,32.202178,119.439766,190,113,8,21,17,9,27,25,1007,89,9,20140717190000
609,"Gaogang Adminstrative office , Taizhoushi",,32.300768,119.886757,208,111,13,12,12,10,25,24,0,97,5,20140717190000
610,"Students Innovation Park , Taizhoushi",,32.461672,119.892761,196,124,19,7,14,9,25,24,0,97,5,20140717190000
611,Taizhoushi,,32.453555,119.927852,208,145,19,14,14,11,25,24,0,97,5,20140717190000
612,"Yancheng power station , Yancheng",,33.400859,120.123067,173,83,36,7,2,6,-,-,0,-,-,20140717190000
613,Yancheng,,33.345939,120.168504,144,52,30,5,3,7,11,10,1016,95,4,20140717190000
614,"Wenfeng Middle School , Yancheng",,33.370531,120.134041,168,81,36,14,23,8,-,-,0,-,-,20140717190000
615,"BDA Management Committe, Yancheng",,33.393191,120.22978,182,128,30,13,9,8,-,-,0,-,-,20140717190000
616,"City Monitoring Station, Yancheng",,33.390623,120.164423,151,130,25,29,5,6,25,24,0,97,5,20140717190000
617,Suqian,,33.960666,118.281004,160,87,24,7,5,7,11,10,0,91,6,20140717190000
618,"Suqian College , Suqian",,33.951472,118.298523,147,60,23,23,6,5,23,21,0,86,3,20140717190000
619,"Suqian Middle School , Suqian",,33.95784,118.249505,129,107,11,19,5,3,23,21,0,86,3,20140717190000
620,"Suyu District Environmental Protection Agency , Suqian",,33.94932,118.326569,122,60,25,7,5,5,23,21,0,86,3,20140717190000
621,"City Monitoring Station, Suqian",,33.956982,118.277022,164,71,22,12,4,4,23,21,0,86,3,20140717190000
622,Taizhou,,28.653436,121.425185,55,23,7,6,6,9,25,25,0,98,3,20140717190000
623,Donghu Liyuan,,30.572324,114.377844,89,24,6,16,3,8,25,24,1007,94,9,20140717190000
624,Yuehu Lake,,30.554662,114.256937,97,60,3,23,0,7,25,24,1007,94,9,20140717190000
625,Hankou Huaqiao ,,30.61724,114.287652,97,55,4,25,2,10,25,24,1007,94,9,20140717190000
626,Wuchang Ziyang ,,30.530801,114.309438,1,1,1,0,0,6,25,24,1007,94,7,20140717190000
627,Qingshan Ganghua,,30.622435,114.375599,122,50,8,19,10,11,25,24,1007,94,9,20140717190000
628,Dunkou Xinou,,30.480091,114.162176,87,57,5,21,8,9,25,24,1007,94,9,20140717190000
629,Donghu Gaoxin,,30.48095,114.40724,95,60,5,18,2,11,25,24,1007,94,9,20140717190000
630,Wujianshan,,30.63114,114.135907,127,61,2,23,0,11,25,24,1007,94,9,20140717200000
631,Yuanshun Road,,30.297142,113.858587,93,18,13,11,3,5,25,24,1007,94,9,20140717200000
632,Wuhan,,30.591973,114.306887,122,54,8,25,10,11,25,25,1007,100,7,20140717200000
1190,"Silingsan Factory, Yichang",,30.713288,111.306585,93,58,8,10,20,4,24,23,1007,95,4,20140717200000
633,Yichang,,30.689528,111.292131,124,59,9,11,20,7,24,23,1007,95,4,20140717200000
633,Yichang,,30.689528,111.292131,124,59,9,11,20,7,24,23,1007,95,4,20140717200000
1191,"City Library , Jingzhou",,30.31494,112.260844,70,20,12,8,6,6,24,24,1006,94,2,20140717200000
1192,"City committee communist party school, Jingzhou",,30.35054,112.20743,91,33,10,7,5,10,24,24,1006,94,2,20140717200000
1193,"kerong EPA, Jingzhou",,30.302965,112.29443,74,37,12,10,8,9,24,24,1006,94,2,20140717200000
634,Jingzhou,,30.332608,112.245451,91,37,12,10,8,10,24,24,1006,94,2,20140717200000
634,Jingzhou,,30.332608,112.245451,91,37,12,10,8,10,24,24,1006,94,2,20140717200000
635,Huangshi,,30.19723,115.043908,127,60,8,11,3,0,24,25,1010,97,1,20140717200000
635,Huangshi,,30.19723,115.043908,127,60,8,11,3,0,24,25,1010,97,1,20140717200000
1194,"Chenjiaying, Huangshi",,30.232823,115.067923,72,50,,6,1,0,24,,1010,97,1,20140717200000
1195,"Chenjiawan , Huangshi",,30.200422,115.082138,104,56,,3,3,0,24,,1010,97,1,20140717200000
1196,"Xinxialu, Huangshi",,30.17332,114.954357,-,-,,-,-,-,-,,0,-,-,20140717200000
1197,"Tie montian, Huangshi",,30.203885,114.906439,127,60,,11,2,0,24,,1010,97,1,20140717200000
1198,"BDA, Huangshi",,30.207491,115.031739,89,51,,5,1,0,24,,1010,97,1,20140717200000
636,Shiyan,,32.627208,110.803311,152,59,10,7,6,0,19,23,941,94,1,20140717200000
636,Shiyan,,32.627208,110.803311,152,59,10,7,6,0,19,23,941,94,1,20140717200000
1199,"Wudang Mountain , Shiyan",,32.392921,111.047655,85,29,,1,1,0,19,,941,94,1,20140717200000
1200,"Riverside Village , Shiyan",,32.647286,110.785335,93,51,,7,1,0,19,,941,94,1,20140717200000
1201,"Liujiagou , Shiyan",,32.636732,110.731129,152,53,,7,5,0,19,,941,94,1,20140717200000
1202,"Yunyang County District automatic air station , Shiyan",,32.833065,110.816809,82,55,,2,1,0,19,,941,94,1,20140717200000
637,Xiangyang,,32.007029,112.128496,59,24,,10,12,0,26,,1007,80,5,20140717200000
637,Xiangyang,,32.007029,112.128496,59,24,,10,12,0,26,,1007,80,5,20140717200000
638,Ezhou,,30.389244,114.899884,99,64,8,8,3,0,25,25,1016,96,4,20140717200000
638,Ezhou,,30.389244,114.899884,99,64,8,8,3,0,25,25,1016,96,4,20140717200000
1203,"City government, Ezhou",,30.391836,114.892822,57,31,,6,3,-,25,,1016,96,4,20140717200000
1204,"Zhaojiaba, Ezhou",,30.368966,114.90365,85,52,,6,1,0,25,,1016,96,4,20140717200000
1205,"Fankou BDA, Ezhou",,30.410759,114.818225,99,64,,8,3,0,25,,1016,96,4,20140717200000
639,Jingmen,,31.033208,112.205093,74,20,13,7,2,10,23,24,1001,97,2,20140717200000
639,Jingmen,,31.033208,112.205093,74,20,13,7,2,10,23,24,1001,97,2,20140717200000
640,Xiaogan,,30.922089,113.922387,97,52,8,9,2,0,25,25,1007,94,4,20140717200000
640,Xiaogan,,30.922089,113.922387,97,52,8,9,2,0,25,25,1007,94,4,20140717200000
1206,"wenhua street, Shenyang , Xiaogan",,30.925856,113.92104,85,51,2,9,1,0,25,24,1007,94,4,20140717200000
1207,"Dongcheng District , Huludao , Xiaogan",,30.917963,113.943904,97,52,2,1,2,0,25,24,1007,94,4,20140717200000
641,Huanggang,,30.45124,114.877378,68,51,8,6,5,0,25,25,1016,96,4,20140717200000
641,Huanggang,,30.45124,114.877378,68,51,8,6,5,0,25,25,1016,96,4,20140717200000
1208,"Dazhou Island, Huanggang",,30.446205,114.900323,68,51,,6,1,0,25,,1016,96,4,20140717200000
1209,"Workers Center , Huanggang",,30.469244,114.912504,65,28,,5,5,0,25,,1016,96,4,20140717200000
642,Xianning,,29.838978,114.327898,99,52,8,8,2,0,23,25,982,95,1,20140717200000
642,Xianning,,29.838978,114.327898,99,52,8,8,2,0,23,25,982,95,1,20140717200000
1210,"Municipal Development and Reform Commission , Xianning",,29.818645,114.328461,-,-,,-,-,-,-,,0,-,-,20140717200000
1211,"Xianan District Governement, Xianning",,29.51107,114.181864,-,-,,-,-,-,23,,982,95,1,20140717200000
1212,"Yangtze River Industrial Park , Xianning",,29.883098,114.32909,99,52,,1,2,0,23,,982,95,1,20140717200000
1213,"Qianshan Park, Xianning",,29.815351,114.328689,76,49,,2,2,0,23,,982,95,1,20140717200000
643,Suizhou,,31.688342,113.388675,97,47,,6,1,0,25,,1001,83,2,20140717200000
643,Suizhou,,31.688342,113.388675,97,47,,6,1,0,25,,1001,83,2,20140717200000
644,Enshi,,30.269587,109.493042,122,41,17,8,3,19,20,23,910,93,1,20140717200000
644,Enshi,,30.269587,109.493042,122,41,17,8,3,19,20,23,910,93,1,20140717200000
645,Xiantao,,30.360228,113.460616,85,-,13,-,-,0,-,25,0,-,-,20140717200000
645,Xiantao,,30.360228,113.460616,85,-,13,-,-,0,-,25,0,-,-,20140717200000
646,Qianjiang,,30.399387,112.905661,74,21,13,2,7,10,25,24,1014,84,2,20140717200000
646,Qianjiang,,30.399387,112.905661,74,21,13,2,7,10,25,24,1014,84,2,20140717200000
647,Tianmen,,30.661027,113.172549,97,30,13,12,4,0,25,24,1015,92,1,20140717200000
647,Tianmen,,30.661027,113.172549,97,30,13,12,4,0,25,24,1015,92,1,20140717200000
1088,Shennongjia,,31.741307,110.685554,152,14,10,14,1,0,18,23,877,94,1,20140717200000
1088,Shennongjia,,31.741307,110.685554,152,14,10,14,1,0,18,23,877,94,1,20140717200000
1214,"Xiangcheng Yundong Street, Xiangfan",,32.017716,112.16102,59,31,,1,1,0,26,,1007,80,5,20140717200000
655,"City Environmental Monitoring Station, Baotou",,40.657201,109.886738,112,60,67,12,11,7,,,,,,20140717200000
656,"Donghe EPB, Baotou",,40.586213,110.002224,144,90,51,28,18,8,,,,,,20140717200000
657,"Baotou shopping mall, Baotou",,40.508334,109.819085,107,74,49,14,10,9,,,,,,20140717200000
658,"Huilong logistics, Baotou",,40.633436,109.879821,104,68,84,14,10,7,,,,,,20140717200000
659,Baotou,,40.658597,109.846051,151,98,84,30,18,9,23,9,1002,31,7,20140717200000
660,"Huatai Automobile Mall, Eerduosi",,39.837048,109.972209,65,35,116,4,4,1,23,9,1002,31,7,20140717200000
661,"Olympus Garden, Eerduosi",,39.789171,109.987742,80,50,113,6,3,5,23,9,1002,31,7,20140717200000
662,Eerduosi,,39.609284,109.78704,80,50,142,7,9,6,23,9,1002,31,7,20140717200000
663,"Tianyi Road, Chifeng",,42.275552,118.88507,159,72,219,9,10,8,20,18,1008,85,2,20140717200000
664,"Songshan No.1 Middle School, Chifeng",,42.329307,118.793045,159,98,78,18,6,13,20,18,1008,85,2,20140717200000
665,"Hada Street, Chifeng",,42.280714,118.988235,158,82,24,8,10,16,20,18,1008,85,2,20140717200000
666,"Songshan Road, Chifeng",,42.171487,118.89501,153,63,206,5,3,5,20,18,1008,85,2,20140717200000
667,Chifeng,,42.259752,118.893027,159,98,219,18,10,16,20,18,1008,85,2,20140717200000
674,Fuzhou,,26.071406,119.301294,42,31,19,6,9,9,28,26,1008,89,11,20140717200000
675,"Xidong, Xiamen",,24.815345,118.161848,74,32,75,11,2,4,29,27,1007,89,4,20140717200000
676,"Hongwen, Xiamen",,24.473969,118.156281,55,21,53,6,9,6,29,27,1007,89,4,20140717200000
677,"Gulangyu, Xiamen",,24.443168,118.068571,59,28,61,6,3,6,29,27,1007,89,4,20140717200000
678,"Huli, Xiamen",,24.51235,118.099146,74,38,103,11,4,3,29,27,1007,89,4,20140717200000
679,Xiamen,,24.477187,118.094402,74,38,103,11,4,6,29,27,1007,89,4,20140717200000
680,"Qingyuan Montain, Quanzhou",,24.939503,118.598337,55,21,37,4,1,4,29,27,1007,89,4,20140717200000
681,"Tushan Street, Quanzhou",,24.90867,118.586397,57,31,20,5,3,4,29,27,1007,89,4,20140717200000
682,"Wanan, Quanzhou",,24.304154,118.070903,63,37,46,8,2,4,29,27,1007,89,4,20140717200000
683,Quanzhou,,24.87179,118.68001,63,37,49,8,4,4,29,27,1007,89,4,20140717200000
687,"Jiancaoping, Taiyuan",,37.887889,112.528383,153,104,25,22,9,7,22,18,1010,78,2,20140717200000
688,"Jianhe, Taiyuan",,37.910779,112.579258,169,116,26,34,10,8,22,18,1010,78,2,20140717200000
689,"Shanglan, Taiyuan",,38.011589,112.440679,91,62,38,7,6,5,22,18,1010,78,2,20140717200000
690,"Jinyuan, Taiyuan",,37.713164,112.475552,142,79,40,9,13,5,22,18,1010,78,2,20140717200000
691,"Xiaodian, Taiyuan",,37.782137,112.483533,152,75,34,50,33,6,22,18,1010,78,2,20140717200000
692,"Taoyuan, Taiyuan",,37.869752,112.543332,132,91,22,34,8,7,22,18,1010,78,2,20140717200000
693,"Wucheng, Taiyuan",,37.819998,112.576252,163,117,26,32,8,8,22,18,1010,78,2,20140717200000
694,"Nanzhai, Taiyuan",,37.985902,112.555312,154,98,29,29,5,7,22,18,1010,78,2,20140717200000
695,"Jinsheng, Taiyuan",,37.781205,112.494494,157,90,32,35,24,10,22,18,1010,78,2,20140717200000
696,Taiyuan,,37.871115,112.555178,153,104,25,34,9,7,22,18,1010,78,2,20140717200000
697,"Monitoring station, Changzhi",,36.194062,113.10389,163,83,8,7,8,7,24,22,1007,89,2,20140717200000
698,"Auditing bureau, Changzhi",,36.212787,113.095221,163,78,48,17,12,7,24,22,1007,89,2,20140717200000
699,"Qinghua station, Changzhi",,36.154328,113.116385,152,83,18,13,2,8,24,22,1007,89,2,20140717200000
700,"No.8 middle school, Changzhi",,36.185451,113.099481,155,72,27,10,2,7,,,,,,20140717200000
701,Changzhi,,36.195553,113.12292,163,76,27,12,4,8,24,20,1005,71,2,20140717200000
702,"Yungang Hotel, Datong",,40.076997,113.278079,144,69,41,15,15,10,18,16,1005,84,2,20140717200000
703,"college of education, Datong",,40.085608,113.27808,144,51,38,17,14,8,18,16,1005,84,2,20140717200000
704,Datong,,40.078016,113.307143,160,79,41,19,15,10,18,16,1005,84,2,20140717200000
705,"Technical Schools, Linfen",,36.07131,111.509046,168,88,42,10,14,21,19,14,0,70,5,20140717200000
706,"Municipal party committee, Linfen",,36.087425,111.508771,122,57,28,12,11,13,19,14,0,70,5,20140717200000
1073,"City Monitoring Station, Linfen",,36.097676,111.518739,168,112,15,21,11,12,19,14,0,70,5,20140717200000
707,"South Airport, Linfen",,36.041614,111.497968,155,64,42,11,15,20,19,14,0,70,5,20140717200000
708,Linfen,,36.087944,111.525098,479,110,45,21,15,21,19,14,0,70,5,20140717200000
709,"City center, Yangquan",,37.848012,113.578636,155,98,21,25,9,8,22,18,1010,78,2,20140717200000
710,Yangquan,,37.857475,113.586921,159,137,25,102,16,16,22,18,1010,78,2,20140717200000
711,"Water Company, Jincheng",,35.504787,112.857245,163,104,32,24,16,5,24,20,1005,71,2,20140717200000
712,"Baiyun shopping mall, Jincheng",,35.492858,112.841566,142,88,0,15,9,0,24,20,1005,71,2,20140717200000
713,"City EPA, Jincheng",,35.488422,112.858528,149,94,11,24,2,7,24,20,1005,71,2,20140717200000
714,"Institute of Technology, Jincheng",,35.484844,112.878073,159,100,26,24,4,7,24,20,1005,71,2,20140717200000
715,"No.1 middle school, Jincheng",,35.478725,112.838636,162,112,11,19,8,0,24,20,1005,71,2,20140717200000
716,Jincheng,,35.490287,112.85794,163,112,32,24,16,7,24,20,1005,71,2,20140717200000
718,"District Government, Shuozhou",,39.320857,112.430641,122,55,31,14,20,21,23,18,1006,69,2,20140717200000
719,"City EPA, Shuozhou",,39.331495,112.407997,122,59,31,16,14,21,23,18,1006,69,2,20140717200000
720,"No.2 middle school, Shuozhou",,39.377963,112.432877,132,75,17,46,18,9,23,18,1006,69,2,20140717200000
721,Shuozhou,,39.332756,112.439672,153,75,31,46,20,21,23,18,1006,69,2,20140717200000
722,"Jinlun compound, Jinzhong",,37.697891,112.771017,168,109,27,12,15,9,22,18,1010,78,2,20140717200000
723,"Hydraulic Component Factory, Jinzhong",,37.688355,112.725844,173,94,31,13,28,5,22,18,1010,78,2,20140717200000
724,"Nandu compound, Jinzhong",,37.713148,112.732036,173,99,24,16,8,7,22,18,1010,78,2,20140717200000
725,"Yuci district government, Jinzhong",,37.698228,112.714167,-,-,-,-,-,-,-,-,0,-,-,20140717200000
726,Jinzhong,,37.687705,112.759187,173,109,31,16,28,9,22,18,1010,78,2,20140717200000
727,"Yuncheng Middle School, Yuncheng",,35.012345,111.003215,85,58,34,7,16,15,29,17,1003,38,7,20140717200000
728,"Yudou BDA, Yuncheng",,35.05065,111.029571,42,54,35,5,28,17,29,17,1003,38,7,20140717200000
730,"Regional Technical School, Yuncheng",,35.028727,110.974076,109,51,38,1,15,2,29,17,1003,38,7,20140717200000
731,"Airport new district, Yuncheng",,35.084515,111.05339,61,57,105,7,21,2,29,17,1003,38,7,20140717200000
732,Yuncheng,,35.025675,111.013344,109,58,105,7,28,17,29,17,1003,38,7,20140717200000
733,"Jiyin, Xinzhou",,38.413292,112.742432,160,91,76,1,54,13,22,18,1010,78,2,20140717200000
734,"BDA, Xinzhou",,38.450069,112.736723,165,85,13,30,10,11,22,18,1010,78,2,20140717200000
735,"Convention Center, Xinzhou",,38.492043,112.709772,174,85,26,8,6,13,22,18,1010,78,2,20140717200000
736,Xinzhou,,38.417244,112.740742,174,85,26,30,10,13,22,17,1010,73,2,20140717200000
737,"City EPA, Luliang",,37.522189,111.144365,-,-,-,-,-,-,-,-,0,-,-,20140717200000
738,"Soybean factory, Luliang",,37.51689,111.135101,152,79,6,33,18,21,17,16,0,93,4,20140717200000
739,"Water Company, Luliang",,37.53394,111.138834,153,109,6,30,23,16,17,16,0,93,4,20140717200000
740,Luliang,,25.027007,103.668566,153,109,6,33,23,21,17,16,0,93,4,20140717200000
741,"City government, Sanmenxia",,34.776251,111.198781,153,72,16,13,12,11,29,17,1003,38,7,20140717200000
743,"BDA, Sanmenxia",,34.800434,111.204332,180,96,16,11,9,4,29,17,1003,38,7,20140717200000
744,Sanmenxia,,34.771506,111.206129,180,119,20,13,12,11,29,17,1003,38,7,20140717200000
801,Hefei,,31.819449,117.232753,139,66,4,16,2,15,25,24,1008,94,2,20140717200000
745,"Food Factory, Changchun",,43.919094,125.329521,151,80,12,29,2,8,19,18,1008,94,4,20140717200000
746,"Bus Factory, Changchun",,43.912337,125.293431,127,64,11,29,2,8,19,18,1008,94,4,20140717200000
747,"Institute of Posts and Telecommunications, Changchun",,43.842368,125.285005,109,84,14,48,2,8,21,19,1009,88,4,20140717200000
748,"Laodong Park, Changchun",,43.877293,125.371519,127,72,8,33,2,9,19,18,1008,94,4,20140717200000
749,"Forest area, Changchun",,43.871825,125.331519,159,93,18,39,5,9,20,18,1008,88,7,20140717200000
750,"Jinyuetan, Changchun",,43.79031,125.460561,93,39,12,2,1,6,19,18,1008,94,4,20140717200000
751,"Shuaiwanzi, Changchun",,43.552321,125.639086,117,64,26,5,1,5,19,18,1008,94,4,20140717200000
824,"Shili, Jiujiang",,29.678969,115.992271,102,51,9,11,6,6,22,19,1009,82,7,20140717200000
752,"Economic Development Zone Sanitation Department, Changchun",,43.869221,125.42365,160,62,20,25,2,6,19,18,1008,94,4,20140717200000
753,"High-tech Zone Administrative Committee, Changchun",,43.819064,125.256375,139,83,26,13,2,6,19,18,1008,94,4,20140717200000
754,"Daishan Park, Changchun",,43.852365,125.223399,112,89,12,33,2,6,19,18,1008,94,4,20140717200000
755,Changchun,,43.819415,125.329977,127,72,8,33,2,9,19,18,1008,94,4,20140717200000
756,"Hadawan, Jilin",,43.888081,126.545727,97,33,15,11,3,9,18,18,0,99,6,20140717200000
757,"Fengman, Jilin",,43.768169,126.678802,65,22,29,2,2,3,18,18,0,99,6,20140717200000
758,"Electric Power College, Jilin",,43.827403,126.502281,78,30,24,8,3,9,18,18,0,99,6,20140717200000
759,"Jiangnan Park, Jilin",,43.83531,126.556519,63,27,18,9,2,4,18,18,0,99,6,20140717200000
760,"Dongjuzi, Jilin",,43.838597,126.590068,63,27,25,6,2,6,18,18,0,99,6,20140717200000
763,Jilin,,43.840137,126.555262,97,33,33,12,3,9,18,18,0,99,6,20140717200000
764,"Lingbei, Haerbin",,45.756979,126.548008,85,53,40,12,7,11,19,19,1006,100,4,20140717200000
765,"Songbei Commercial University, Haerbin",,45.818624,126.566963,25,40,28,8,4,6,19,19,1006,100,4,20140717200000
766,"Acheng huining, Haerbin",,45.544286,126.985183,72,39,43,4,2,6,19,19,1006,100,4,20140717200000
767,"Nangang College Street, Haerbin",,45.724121,126.604906,95,78,47,10,2,8,19,19,1006,100,4,20140717200000
768,"Taiping Hongwei Park, Haerbin",,45.775332,126.695101,172,-,39,12,2,-,19,19,1006,100,4,20140717200000
769,"Daowai Chengde Square, Haerbin",,45.768637,126.640955,95,58,39,16,3,5,19,19,1006,100,4,20140717200000
770,"Xiangfang Hongqi Street, Haerbin",,45.733936,126.691083,89,50,36,8,4,7,19,19,1006,100,4,20140717200000
771,"Dongli Heping Road, Haerbin",,45.727765,126.651974,159,77,43,18,7,4,19,19,1006,100,4,20140717200000
772,"Daoli Jianguo Road, Haerbin",,45.749715,126.59891,82,56,41,13,-,5,19,19,1006,100,4,20140717200000
773,"Pingfang Light Factory, Haerbin",,45.611951,126.620898,61,34,43,8,2,5,19,19,1006,100,4,20140717200000
774,"Hulan Normal College, Haerbin",,45.983745,126.616553,177,44,36,13,3,8,19,19,1006,100,4,20140717200000
775,"Provincial Academy of Agricultural Sciences, Haerbin",,45.686141,126.626517,82,49,39,16,3,5,19,19,1006,100,4,20140717200000
776,Haerbin,,45.805757,126.541007,85,53,43,12,7,11,19,19,1006,100,4,20140717200000
777,"Anju Compound, Qiqihaer",,47.365672,123.937016,50,31,36,4,1,5,19,19,1007,97,2,20140717200000
778,"Farming Vehicule Factory, Qiqihaer",,47.326793,123.961427,109,44,36,8,1,7,19,19,1007,97,2,20140717200000
779,"Fuqu EPA, Qiqihaer",,47.1853,123.62322,46,70,83,5,1,8,19,19,1007,97,2,20140717200000
780,"City Center Square, Qiqihaer",,47.343096,123.96192,74,44,32,3,3,5,19,19,1007,97,2,20140717200000
1217,"City Environmental Monitoring Station, Qiqihaer",,47.303639,123.957551,119,59,39,17,2,10,19,19,1007,97,2,20140717200000
781,Qiqihaer,,47.356387,123.924736,119,70,60,17,3,10,19,19,1007,97,2,20140717200000
782,"Saertu District, Daqing",,46.582368,125.152904,95,44,21,11,9,6,20,19,1006,96,2,20140717200000
783,"Datong District, Daqing",,46.036786,124.842115,87,36,44,3,5,5,20,19,1006,96,2,20140717200000
784,"Honggang District, Daqing",,46.418381,124.88973,114,39,59,6,4,5,20,19,1006,96,2,20140717200000
785,"Longfeng District, Daqing",,46.535426,125.107043,99,53,36,9,5,6,20,19,1006,96,2,20140717200000
786,"Ranghulu District, Daqing",,46.635123,124.85648,89,40,48,11,7,5,20,19,1006,96,2,20140717200000
787,Daqing,,46.591414,125.110838,114,53,59,11,9,6,20,19,1006,96,2,20140717200000
788,"Locomotive Factory, Mudanjiang",,44.610589,129.652672,99,31,42,8,3,4,19,18,1007,90,4,20140717200000
789,"No. 1 hospital, Mudanjiang",,44.567775,129.617043,155,54,33,14,3,2,19,18,1007,90,4,20140717200000
1220,"EPA building, Mudanjiang",,44.567777,129.620658,85,45,25,8,1,2,19,18,1007,90,4,20140717200000
1221,"Cultural Square, Mudanjiang",,44.586388,129.623164,87,39,23,7,5,5,19,18,1007,90,4,20140717200000
790,Mudanjiang,,44.553619,129.640246,155,45,46,14,11,5,19,18,1007,90,4,20140717200000
791,"Mingzhu Plaza, Hefei",,31.782847,117.201512,139,37,4,14,2,15,25,24,1008,94,2,20140717200000
792,"Sanli Street, Hefei",,31.874637,117.312573,104,37,9,27,1,8,25,24,1008,94,2,20140717200000
793,"Hupo Compound, Hefei",,31.868583,117.264491,119,117,10,17,2,7,25,24,1008,94,2,20140717200000
794,"Dongpu Reservoir, Hefei",,31.90319,117.165584,65,33,15,5,1,5,25,24,1008,94,2,20140717200000
795,"Changjiang middle road, Hefei",,31.855185,117.255484,93,67,3,14,2,11,25,24,1008,94,2,20140717200000
796,"Luyang District, Hefei",,31.941771,117.271504,139,55,13,9,22,5,25,24,1008,94,2,20140717200000
797,"Yaohai District, Hefei",,31.856595,117.341644,114,48,11,5,3,7,25,24,1008,94,2,20140717200000
798,"Baohe District, Hefei",,31.793644,117.307554,157,71,6,5,1,10,25,24,1008,94,2,20140717200000
799,"Lake district, Hefei",,31.736619,117.283501,112,69,17,16,4,10,25,24,1008,94,2,20140717200000
800,"High-tech zone, Hefei",,31.849755,117.129624,95,62,9,9,6,1,25,24,1008,94,2,20140717200000
802,"Hudong Road No.4 Elementary School, Maanshan",,31.684121,118.511017,124,57,6,15,7,11,27,25,1007,89,9,20140717200000
803,"Tianping Garment Factory, Maanshan",,31.64197,118.488043,127,65,10,18,5,17,27,25,1007,89,9,20140717200000
804,"City education base, Maanshan",,31.711216,118.648913,137,60,5,1,1,7,27,25,1007,89,9,20140717200000
805,"Cihu No.2 elementary school, Maanshan",,31.748546,118.515729,154,95,20,2,2,11,27,25,1007,89,9,20140717200000
806,"Maanshan steel factory power plant, Maanshan",,31.690864,118.48528,127,66,2,1,4,12,27,25,1007,89,9,20140717200000
807,Maanshan,,31.668461,118.511939,154,66,20,18,7,17,27,25,1007,89,9,20140717200000
808,"Science Innovation Center, Wuhu",,31.417056,118.375406,134,50,16,23,4,8,27,25,1007,89,9,20140717200000
809,"No.4 Water Plant, Wuhu",,31.315914,118.376231,109,52,24,18,40,6,27,25,1007,89,9,20140717200000
810,"Monitoring station, Wuhu",,31.348955,118.358154,99,50,8,3,9,5,27,25,1007,89,9,20140717200000
811,"Wuqierling Factory, Wuhu",,31.382068,118.407639,154,58,31,9,14,7,27,25,1007,89,9,20140717200000
812,Wuhu,,31.351007,118.438322,154,58,31,23,40,8,27,25,1007,89,9,20140717200000
813,"Jiangxi Foreign Affairs Office, Nanchang",,28.681036,115.897845,107,55,15,17,13,10,27,24,1007,81,0,20140717200000
814,"Provincial forestry company, Nanchang",,28.694646,115.892851,102,56,14,14,17,8,27,24,1007,81,0,20140717200000
815,"Institute of Forestry, Nanchang",,28.74099,115.818017,50,41,16,13,5,11,27,24,1007,81,0,20140717200000
816,"Jingdong town government, Nanchang",,28.693649,115.97793,57,47,21,8,5,8,27,24,1007,81,0,20140717200000
817,"Contruction Industry College, Nanchang",,28.683582,115.856915,127,69,19,14,3,13,27,24,1007,81,0,20140717200000
818,"Xianghu, Nanchang",,28.639112,115.896843,68,80,19,10,10,8,27,24,1007,81,0,20140717200000
819,"Martial Arts School, Nanchang",,28.796292,115.747122,50,54,5,2,6,5,27,24,1007,81,0,20140717200000
820,"Petrifaction Company, Nanchang",,28.609697,115.916832,50,52,18,18,7,10,27,24,1007,81,0,20140717200000
821,"Provincial Station, Nanchang",,28.681053,115.935848,53,48,21,11,14,8,27,24,1007,81,0,20140717200000
822,Nanchang,,28.679883,115.863022,102,56,19,14,17,13,27,24,1007,81,0,20140717200000
823,"Lushan Mountain Observatory, Jiujiang",,29.584073,115.998671,68,27,26,1,1,2,22,19,1009,82,7,20140717200000
825,"Maoshantou, Jiujiang",,29.702089,115.963113,70,36,10,11,2,7,22,19,1009,82,7,20140717200000
826,"Xiyuan, Jiujiang",,29.726646,115.993055,57,14,9,12,3,2,22,19,1009,82,7,20140717200000
827,"Wuqierling Factory, Jiujiang",,29.650969,116.022581,74,30,14,4,9,7,22,19,1009,82,7,20140717200000
828,"Water Scientific Research Institute, Jiujiang",,29.690223,116.067992,76,50,9,7,21,3,22,19,1009,82,7,20140717200000
829,"Zonghe Industrial Park, Jiujiang",,29.601135,115.916354,91,38,7,5,2,4,22,19,1009,82,7,20140717200000
830,"Petrochemical General Plant, Jiujiang",,29.75101,116.094516,63,39,9,11,1,4,22,19,1009,82,7,20140717200000
831,Jiujiang,,29.70254,116.007025,102,51,26,12,21,7,22,19,1009,82,7,20140717200000
832,"Tobacco Factory, Zhengzhou",,34.753419,113.687131,78,60,18,16,5,6,24,22,1007,89,2,20140717200000
833,"Textile Machinery Factory, Zhengzhou",,34.773366,113.647067,82,74,17,19,11,8,24,22,1007,89,2,20140717200000
834,"Banking College, Zhengzhou",,34.800856,113.681126,72,65,23,12,2,11,24,22,1007,89,2,20140717200000
835,"Water Supply Company, Zhengzhou",,34.807188,113.571089,82,57,22,19,10,17,24,22,1007,89,2,20140717200000
836,"Economic Development Zone Management Committee, Zhengzhou",,34.717652,113.733182,82,47,19,16,5,7,24,22,1007,89,2,20140717200000
837,"No. 47 middle school, Zhengzhou",,34.772211,113.74009,87,60,21,15,5,5,24,22,1007,89,2,20140717200000
838,"City Monitoring Station, Zhengzhou",,34.748404,113.60514,78,42,16,18,5,6,24,22,1007,89,2,20140717200000
839,"Henan Medical University, Zhengzhou",,34.752637,113.641658,68,63,3,10,6,3,24,22,1007,89,2,20140717200000
840,"Gangli Reservoir, Zhengzhou",,34.952652,113.64248,78,37,10,14,4,7,24,22,1007,89,2,20140717200000
841,Zhengzhou,,34.745417,113.631415,78,63,16,18,6,6,24,22,1007,89,2,20140717200000
842,"Henan University No.1 Hospital, Kaifeng",,34.799302,114.352706,65,27,11,6,6,6,24,22,1007,89,2,20140717200000
843,"Maternity And Child Hospital, Kaifeng",,34.795803,114.386103,70,31,12,6,8,1,24,22,1007,89,2,20140717200000
844,"Cancer Hospital, Kaifeng",,34.775428,114.350292,57,20,14,6,24,4,24,22,1007,89,2,20140717200000
845,"Yellow River Conservancy Institute, Kaifeng",,34.826066,114.324772,13,6,47,8,1,0,24,23,1007,94,4,20140717200000
846,"Shijixing Kindergarden, Kaifeng",,34.793606,114.302744,72,39,11,8,9,4,24,23,1007,94,4,20140717200000
847,Kaifeng,,34.796346,114.313426,72,39,14,8,24,6,24,23,1007,94,4,20140717200000
852,Jiaozuo,,35.215381,113.248188,144,81,45,17,17,11,24,22,1007,89,2,20140717200000
853,"Cotton Research Institute, Anyang",,36.081435,114.486451,97,56,24,9,3,5,25,21,1006,72,4,20140717200000
854,"Hongmiao Street, Anyang",,36.086733,114.326,147,83,29,17,6,7,25,21,1006,72,4,20140717200000
855,"Yinxing Compound, Anyang",,36.056519,114.36495,147,74,27,25,7,11,25,21,1006,72,4,20140717200000
856,"Tiefo Temple, Anyang",,36.110041,114.309309,158,91,21,12,8,9,25,21,1006,72,4,20140717200000
857,Anyang,,36.097767,114.398846,158,91,32,25,19,11,25,21,1006,72,4,20140717200000
858,"City Monitoring Station, Luoyang",,34.669055,112.439633,95,89,12,15,14,7,,,,,,20140717200000
859,"BDA Management Committee, Luoyang",,34.622084,112.390759,57,22,17,14,8,18,,,,,,20140717200000
860,"New municipal office, Luoyang",,34.623745,112.432973,74,33,18,14,3,9,,,,,,20140717200000
861,"City committee communist party school, Luoyang",,34.650169,112.400212,72,52,12,8,6,13,,,,,,20140717200000
862,"Henan Forestry College, Luoyang",,34.685566,112.509429,114,78,18,23,27,15,,,,,,20140717200000
863,"CITIC No.2 Elementary School, Luoyang",,34.668212,112.36907,76,50,20,23,7,9,,,,,,20140717200000
864,"Yuxi Hotel, Luoyang",,34.685949,112.472611,78,72,13,26,28,10,,,,,,20140717200000
865,Luoyang,,34.617424,112.46054,114,89,20,26,28,18,24,20,1005,71,2,20140717200000
866,"City Planning Design Institute, Pingdingshan",,33.7352,113.297916,93,46,16,10,4,6,24,23,1007,94,4,20140717200000
867,"Xinhua Hotel, Pingdingshan",,33.737754,113.328814,89,51,9,16,7,5,24,23,1007,94,4,20140717200000
868,"Engineering College, Pingdingshan",,33.772474,113.188235,57,32,15,10,9,4,24,23,1007,94,4,20140717200000
869,"High Voltage Switchgear Factory, Pingdingshan",,33.719941,113.312665,85,34,11,15,8,6,24,23,1007,94,4,20140717200000
870,Pingdingshan,,33.764754,113.199082,93,51,16,16,9,6,24,23,1007,94,4,20140717200000
871,"Economic Development Zone EPA, Changsha",,28.239029,113.087873,87,69,104,20,8,5,26,24,1006,89,4,20140717200000
872,"High-tech Zone EPA, Changsha",,28.216766,112.893403,107,42,86,10,25,5,26,24,1006,89,4,20140717200000
873,"Mapoling, Changsha",,28.197926,113.083865,119,46,155,23,16,7,26,24,1006,89,4,20140717200000
874,"Hunan Normal University, Changsha",,28.186202,112.949459,180,10,30,6,8,11,26,24,1006,89,4,20140717200000
875,"Yuqua District EPB, Changsha",,28.139661,113.008649,144,55,81,15,5,8,26,24,1006,89,4,20140717200000
876,"Wujialing, Changsha",,28.256286,112.98457,93,44,8,21,4,9,26,24,1006,89,4,20140717200000
877,"New train station, Changsha",,28.191052,113.006646,109,62,123,21,12,10,26,24,1006,89,4,20140717200000
878,"Tianxin District EPB, Changsha",,28.114406,112.989577,122,54,124,21,10,7,26,24,1006,89,4,20140717200000
879,"Hunan University of Traditional Chinese Medicine, Changsha",,28.127269,112.896395,109,62,171,6,11,6,26,24,1006,89,4,20140717200000
880,"Shaping, Changsha",,28.355246,113.00164,87,28,146,17,8,4,26,24,1006,89,4,20140717200000
881,Changsha,,28.224701,112.944264,180,10,30,6,8,11,26,24,1006,89,4,20140717200000
883,"City Monitoring Station, Xiangtan",,27.854149,112.901062,124,67,40,15,8,9,26,24,1006,89,4,20140717200000
884,"HKUST, Xiangtan",,27.908165,112.912881,117,54,105,17,10,6,26,24,1006,89,4,20140717200000
885,Xiangtan,,27.826289,112.949479,154,67,142,22,23,10,26,24,1006,89,4,20140717200000
886,"Zhuye Hospital, Zhuzhou",,27.883542,113.101131,155,85,125,23,13,17,26,24,1006,89,4,20140717200000
887,"No.4 middle school, Zhuzhou",,27.794671,113.195938,117,50,130,10,6,9,26,24,1006,89,4,20140717200000
888,"Railway station, Zhuzhou",,27.8349,113.149149,112,50,250,19,19,8,26,24,1006,89,4,20140717200000
889,"City Monitoring Station, Zhuzhou",,27.849638,113.135836,122,46,130,25,13,9,26,24,1006,89,4,20140717200000
890,"Dajing, Zhuzhou",,27.830311,113.25706,147,49,69,3,5,10,26,24,1006,89,4,20140717200000
891,Zhuzhou,,27.824409,113.139832,155,85,250,25,19,17,26,24,1006,89,4,20140717200000
896,Yueyang,,29.354548,113.134922,114,61,203,14,212,13,25,24,1007,91,0,20140717200000
897,"Dingcheng District EPB, Changde",,29.014303,111.691833,95,40,6,2,23,8,24,24,1007,99,11,20140717200000
898,"Baihe Hill, Changde",,29.072606,111.735659,70,24,10,7,1,11,24,24,1007,99,11,20140717200000
899,"Municipal Technical Supervision Bureau, Changde",,29.038038,111.6736,72,51,6,8,23,13,24,24,1007,99,11,20140717200000
900,"No.2 middle school, Changde",,28.96732,111.707138,70,51,7,7,24,8,24,24,1007,99,11,20140717200000
901,Changde,,29.028648,111.704107,124,51,30,8,27,13,24,24,1007,99,11,20140717200000
902,"Yuanjiajie, Zhangjiajie",,29.297387,110.421733,74,12,17,1,2,7,24,24,1007,99,11,20140717200000
903,"Power Administration Bureau, Zhangjiajie",,29.126345,110.47192,74,49,17,2,15,7,24,24,1007,99,11,20140717200000
906,Zhangjiajie,,29.114231,110.484134,74,49,17,2,15,19,24,24,1007,99,11,20140717200000
907,"Zhenning Garden, Nanning",,22.784688,108.304953,114,74,10,22,7,7,26,23,1003,83,2,20140717200000
908,"City Monitoring Station, Nanning",,22.819736,108.32499,59,30,6,18,4,7,26,23,1003,83,2,20140717200000
909,"Daziran Garden, Nanning",,22.802327,108.387089,63,52,16,19,4,9,26,23,1003,83,2,20140717210000
910,"Xianhu, Nanning",,22.7879,108.443064,57,50,10,22,5,6,26,23,1003,83,2,20140717210000
911,"District Agricultural Vocational College, Nanning",,22.843566,108.24292,65,42,9,12,5,7,26,23,1003,83,2,20140717210000
912,"Yinghua jiayuan, Nanning",,22.732221,108.331999,76,63,19,17,4,5,26,23,1003,83,2,20140717210000
913,"Shajing town street committee, Nanning",,22.780442,108.247914,74,76,8,14,7,8,26,23,1003,83,2,20140717210000
