locationid,stationname,chinesename,latitude,longitude,pm25,pm10,o3,no2,so2,co,temperature,dewpoint,pressure,humidity,wind,est_time
1,Dongcheng Dongsi,,39.9304,116.423239,287,147,44,39,14,22,15,15,1021,100,2,20141010170000
2,"Temple of Heaven, Dongcheng",,39.887403,116.41324,317,141,37,61,7,20,15,15,1021,100,2,20141010170000
3,West Park officials,,39.930333,116.345162,352,158,30,49,7,24,15,15,1021,100,2,20141010170000
4,West Wanshou Nishinomiya,,39.879354,116.358183,312,183,34,51,3,22,15,15,1021,100,2,20141010170000
5,Chaoyang Olympic Sports Center,,39.983406,116.403253,382,178,35,36,11,17,15,15,1021,100,2,20141010170000
6,Chaoyang Agricultural Exhibition Hall,,39.938331,116.46715,368,215,38,50,8,20,15,15,1021,100,2,20141010170000
7,Haidian Wanliu,,39.988245,116.293062,404,195,4,67,6,25,15,15,1021,100,2,20141010170000
8,The Haidian northern New Area,,40.091313,116.180194,-,171,18,44,8,20,21,15,1020,68,2,20141010170000
9,Haidian Beijing Botanical Garden,,40.003252,116.213097,356,-,27,25,6,20,15,14,1021,94,1,20141010170000
10,Fengtai garden,,39.86423,116.285037,365,-,31,71,6,24,15,14,1021,94,1,20141010170000
11,Fengtai Yungang,,39.82535,116.152237,388,-,35,90,8,18,15,14,1021,94,1,20141010170000
12,Shijingshan city,,39.915286,116.190144,384,268,9,61,3,34,15,15,1021,100,2,20141010170000
13,"Fangshan, Liangxiang",,39.743357,116.14225,398,327,19,73,4,23,15,14,1021,94,1,20141010170000
14,"Huangcunzhen, Daxing",,39.719389,116.410219,397,-,41,50,7,22,15,14,1021,94,1,20141010170000
15,BDA,,39.796197,116.51197,351,-,74,28,9,19,15,14,1021,94,1,20141010170000
16,Tongzhou New Town,,39.887113,116.6689,333,274,37,57,6,18,15,14,1021,94,1,20141010170000
17,Shunyi New Town ,,40.128111,116.660908,347,174,35,30,5,33,15,15,1021,100,2,20141010170000
18,Changping Town,,40.218245,116.236084,394,-,31,44,5,25,15,15,1021,100,2,20141010170000
19,"Mentougou, Longquan Town",,39.938397,116.112323,360,-,12,46,2,22,15,14,1021,94,1,20141010170000
20,Pinggu town,,40.144433,117.106563,367,-,50,17,14,44,15,14,1021,94,1,20141010170000
21,Huairou town,,40.329104,116.63387,320,158,33,17,2,31,15,15,1021,100,2,20141010170000
22,The town of Miyun,,40.371186,116.838053,389,-,37,48,9,36,15,14,1021,94,1,20141010170000
23,Yanqing town,,40.454217,115.978106,361,-,42,42,3,16,15,14,1021,94,1,20141010170000
24,Changping Dingling,,40.293269,116.226108,337,-,36,11,4,22,15,15,1021,100,2,20141010170000
25,Badaling Northwest,,40.36623,115.994146,354,-,44,31,21,21,15,14,1021,94,1,20141010170000
26,Miyun Reservoir,,40.500157,116.91701,363,-,104,5,18,29,15,14,1021,94,1,20141010170000
27,"Donggaocun Zhen, Pinggu",,40.10142,117.126556,308,-,68,26,32,39,15,14,1021,94,1,20141010170000
28,"Yongledianzhen, Tongzhou",,39.713192,116.78905,311,220,35,30,12,17,15,14,1021,94,1,20141010170000
29,"Yufazhen, Daxing",,39.521203,116.306026,350,-,43,18,2,17,15,14,1021,94,1,20141010170000
30,"Liulihezhen, Fangshan",,39.581169,116.006089,307,175,28,37,16,15,15,14,1021,94,1,20141010170000
31,"Qianmen E St, Dongcheng",,39.900402,116.401242,418,-,27,59,2,22,15,14,1021,94,1,20141010170000
32,Yongdingmen Inner St,,39.877401,116.400238,406,141,20,70,7,25,15,14,1021,94,1,20141010170000
33,Xizhimen N St,,39.955352,116.355187,501,-,29,63,9,24,15,14,1021,94,1,20141010170000
34,South Ring Road,,39.857377,116.37421,349,-,4,66,10,25,15,14,1021,94,1,20141010170000
35,East Fourth Ring Road,,39.940273,116.489075,406,-,13,77,4,23,15,14,1021,94,1,20141010170000
36,Beijing,,39.955906,116.474246,378,160,38,50,8,20,15,15,1021,100,2,20141010170000
37,Putuo,,31.232979,121.415378,118,53,48,13,5,4,20,18,1017,88,4,20141010170000
38,Yangpu Sipiao,,31.263795,121.540311,112,48,63,12,5,7,20,18,1017,88,4,20141010170000
39,Shanghai Normal College Primary Division,,31.199031,121.487719,113,48,52,9,4,8,20,18,1017,88,4,20141010170000
40,Dianshan Lake,,31.091338,120.982293,158,62,50,11,8,6,20,18,1017,88,4,20141010170000
41,Hongkou Liangcheng,,31.298906,121.47155,111,44,50,15,6,5,20,18,1017,88,4,20141010170000
42,Jingan,,31.224251,121.429637,123,47,49,17,9,6,20,18,1017,88,4,20141010170000
43,Shanghai Normal University,,31.163531,121.416643,107,42,55,12,7,7,20,18,1017,88,4,20141010170000
44,Chuansha,,31.188626,121.707342,91,36,70,11,8,5,20,18,1017,88,4,20141010170000
45,Zhangjiang,,31.204896,121.581215,88,38,80,8,4,6,20,18,1017,88,4,20141010170000
46,Lingshan Road,,31.226286,121.537317,99,46,84,12,10,5,20,18,1017,88,4,20141010170000
1080,City average,,31.228451,121.478227,106,45,60,12,7,6,20,18,1017,88,4,20141010170000
47,Shanghai,,31.202842,121.453493,123,48,52,17,9,8,20,18,1017,88,4,20141010170000
48,Guangzhou,,23.138517,113.263701,102,52,23,30,6,11,27,17,1011,54,2,20141010170000
49,"Huadu town, Guangzhou",,23.389121,113.220062,117,51,46,11,6,4,26,16,1011,54,2,20141010170000
50,"Luogang Zhenlong, Guangzhou",,23.308027,113.567032,139,74,35,29,10,8,26,16,1011,54,2,20141010170000
51,"LuHu, Guangzhou",,23.151743,113.281842,99,52,23,29,6,6,26,16,1011,54,2,20141010170000
52,"Tianhu, Guangzhou",,23.647433,113.629715,89,41,62,5,7,7,27,17,1011,54,2,20141010170000
53,"Zhudong, Guangzhou",,23.418406,113.078552,151,74,45,31,22,5,26,16,1011,54,2,20141010170000
54,"Modiesha station, Guangzhou",,23.103814,113.338238,74,53,30,28,9,5,26,16,1011,54,2,20141010170000
55,Zhuhai,,22.2677,113.581765,159,110,55,48,13,14,26,19,1010,65,4,20141010170000
1075,"Huicai technical school, Foshan",,23.039667,113.105492,139,62,35,28,14,6,26,16,1011,54,2,20141010170000
56,"Sanshuiyun donghai, Foshan",,23.185788,112.865368,154,68,33,38,26,7,26,16,1011,54,2,20141010170000
57,"Nanhai Bureau of Meteorology, Foshan",,23.046836,113.145764,122,54,36,28,7,7,26,16,1011,54,2,20141010170000
58,"Sanshui Monitoring Station, Foshan",,23.163551,112.890843,153,56,18,27,12,9,26,16,1011,54,2,20141010170000
1087,Foshan,,23.018995,113.126899,139,62,36,28,14,7,27,17,1011,54,2,20141010170000
59,"Ronggui street committee, Shunde",,22.762729,113.258356,134,59,33,24,7,8,26,16,1011,54,2,20141010170000
60,Shunde,,22.80246,113.298701,134,59,33,34,14,8,-,-,0,-,-,20141010170000
61,"Donghu, Jiangmen",,22.590411,113.087351,172,80,32,48,14,5,26,19,1010,65,4,20141010170000
62,"Taoyuan Atmosphere Premier Station, Jiangmen",,22.72489,112.93404,154,76,42,20,18,6,26,19,1010,65,4,20141010170000
63,Jiangmen,,22.576047,113.087351,172,80,44,48,18,16,26,19,1010,65,4,20141010170000
64,"Kengkouzi station, Zhaoqing",,23.158865,112.570287,149,69,42,10,6,9,26,16,1011,54,2,20141010170000
65,"Mugangzi station, Zhaoqing",,23.067961,112.431934,127,55,27,22,6,8,26,16,1011,54,2,20141010170000
67,Zhaoqing,,23.044571,112.470346,127,63,27,33,7,14,27,17,1011,54,2,20141010170000
68,"Jinguo Bay, Huizhou",,22.937223,114.385567,-,-,-,-,-,-,-,-,0,-,-,20141010170000
1091,"Xiabu, Huizhou",,23.077493,114.410275,104,55,34,6,8,4,26,18,1010,61,2,20141010170000
69,"Xijiao, Huizhou",,23.338178,114.112867,91,30,23,9,3,7,26,18,1010,61,2,20141010170000
70,"Jiangbei, Huizhou",,23.111706,114.415274,74,48,33,6,8,6,26,18,1010,61,2,20141010170000
71,"Huiyang chuanhu, Huizhou",,22.814485,114.329292,114,53,36,10,6,12,26,18,1010,61,2,20141010170000
72,"Daya bay management committee, Huizhou",,22.739283,114.53631,114,56,34,12,8,5,26,18,1010,61,2,20141010170000
73,Huizhou,,23.109349,114.421164,104,55,37,6,8,6,26,18,1010,61,2,20141010170000
74,"Guancheng No.2 water plant, Dongguan",,23.057294,113.753254,122,55,25,20,11,7,26,18,1010,61,2,20141010170000
75,"Dongcheng Shijing, Dongguan",,23.010039,113.799529,122,50,29,17,6,6,26,18,1010,61,2,20141010170000
76,"Nancheng Xiping, Dongguan",,22.963051,113.743494,122,45,20,31,5,5,26,18,1010,61,2,20141010170000
77,"Nancheng Yuanling, Dongguan",,23.025058,113.751308,122,50,31,10,9,9,26,18,1010,61,2,20141010170000
78,Dongguan,,23.017813,113.756958,122,55,31,31,11,9,26,18,1010,61,2,20141010170000
79,"Zimaling, Zhongshan",,22.505112,113.407183,155,67,28,34,12,10,26,19,1010,65,4,20141010170000
80,"Yangtze River tourist area, Zhongshan",,22.48589,113.439054,132,48,37,6,4,12,26,19,1010,65,4,20141010170000
81,"Huabai Park, Zhongshan",,22.51839,113.374362,154,61,18,34,13,18,26,19,1010,65,4,20141010170000
82,Zhongshan,,22.513997,113.398277,155,76,37,34,28,18,26,19,1010,65,4,20141010170000
83,"No.8 middle school, Shaoguan",,24.767777,113.583537,124,56,23,12,15,10,20,16,1013,76,2,20141010170000
83,"No.8 middle school, Shaoguan",,24.767777,113.583537,124,56,23,12,15,10,20,16,1013,76,2,20141010170000
84,"Forest area, Shaoguan",,24.796107,113.612131,134,53,29,5,12,11,20,16,1013,76,2,20141010170000
84,"Forest area, Shaoguan",,24.796106,113.612131,134,53,29,5,12,11,20,16,1013,76,2,20141010170000
86,"Shaoguan University, Shaoguan",,24.790864,113.646598,127,47,24,12,8,9,20,16,1013,76,2,20141010170000
86,"Shaoguan University, Shaoguan",,24.790864,113.646599,127,47,24,12,8,9,20,16,1013,76,2,20141010170000
88,"Qujiang Monitoring Station, Shaoguan",,24.683042,113.60157,152,110,21,36,13,11,20,16,1013,76,2,20141010170000
88,"Qujiang Monitoring Station, Shaoguan",,24.683042,113.60157,152,110,21,36,13,11,20,16,1013,76,2,20141010170000
89,Shaoguan,,24.807342,113.602712,154,110,40,36,15,13,20,16,1013,76,2,20141010170000
90,"Chaonanzi Station, Shantou",,23.251213,116.406762,119,70,31,12,10,7,24,22,1010,89,2,20141010170000
91,Shantou,,23.350642,116.686306,93,53,40,12,9,8,24,22,1010,89,2,20141010170000
92,"City Environmental Monitoring Station, Zhanjiang",,21.220431,110.397317,154,91,50,31,13,8,22,19,1011,78,1,20141010170000
93,"EPB Dormitory, Zhanjiang",,21.197376,110.406487,154,81,48,23,13,11,22,19,1011,78,1,20141010170000
94,"Xiashan Swimming Park, Zhanjiang",,21.200431,110.415655,132,61,77,23,18,11,22,19,1011,78,1,20141010170000
95,"Zhanjiang Theatre, Zhanjiang",,21.268177,110.366445,167,91,46,18,9,16,22,19,1011,78,1,20141010170000
96,"Mazhang EPA, Zhanjiang",,21.265486,110.335993,157,73,13,20,15,10,22,19,1011,78,1,20141010170000
97,"Potou District EPB, Zhanjiang",,21.247604,110.454508,192,134,47,31,9,12,22,19,1011,78,1,20141010170000
98,Zhanjiang,,21.26832,110.363883,192,134,77,31,18,16,22,19,1011,78,1,20141010170000
99,"Maogang sub-office EPB, Maoming",,21.466435,111.033462,163,79,40,7,15,4,24,17,0,66,3,20141010170000
100,"Petrochemical No. 7 elementaty school, Maoming",,21.648905,110.937861,165,81,41,10,16,8,24,17,0,66,3,20141010170000
101,"Jiankang road, Maoming",,21.662211,110.909482,165,96,27,36,8,21,24,17,0,66,3,20141010170000
102,"Gaoling, Maoming",,21.690558,110.871146,165,115,24,16,27,10,24,17,0,66,3,20141010170000
1094,Maoming,,21.660223,110.929968,165,115,41,36,27,21,24,17,0,66,3,20141010170000
103,"Jiaying University, Meizhou",,24.325415,116.12816,93,40,29,6,5,7,24,22,1010,89,2,20141010170000
104,"Mexian new town, Meizhou",,24.269283,116.084546,102,44,30,8,5,8,24,22,1010,89,2,20141010170000
105,"Environmental Monitoring Center, Meizhou",,24.262778,116.129621,122,59,27,21,13,7,24,22,1010,89,2,20141010170000
1095,Meizhou,,24.285988,116.127065,122,59,30,21,13,8,24,22,1010,89,2,20141010170000
106,"City EPA, Shanwei",,22.772349,115.370227,78,34,49,3,5,7,26,22,1011,71,2,20141010170000
107,"City government, Shanwei",,22.787161,115.375536,107,42,49,3,8,7,26,22,1011,71,2,20141010170000
108,"Xincheng Middle School, Shanwei",,22.789851,115.367124,80,41,38,4,6,10,26,22,1011,71,2,20141010170000
1099,Shanwei,,22.783576,115.38022,107,42,49,4,8,10,26,22,1011,71,2,20141010170000
109,"No.3 elementary school, Heyuan",,23.755946,114.699091,132,54,40,11,8,8,26,15,1012,42,3,20141010170000
109,"No.3 elementary school, Heyuan",,23.75435,114.703514,132,54,40,11,8,8,26,15,1012,42,3,20141010170000
111,"City water company, Heyuan",,23.754246,114.682459,127,59,40,17,8,6,26,15,1012,42,3,20141010170000
111,"City water company, Heyuan",,23.688709,114.954652,127,59,40,17,8,6,26,15,1012,42,3,20141010170000
113,"Heyuan high school, Heyuan",,23.720666,114.693879,124,53,41,8,8,6,26,15,1012,42,3,20141010170000
113,"Heyuan high school, Heyuan",,23.720037,114.699563,124,53,41,8,8,6,26,15,1012,42,3,20141010170000
115,Heyuan,,23.740888,114.705147,132,59,41,17,8,8,26,15,1012,42,3,20141010170000
116,"Yuanyang Lake, Yangjiang",,21.855869,111.983676,168,70,50,21,5,10,25,17,1011,48,2,20141010170000
1100,Yangjiang,,21.855227,111.987308,168,96,50,22,5,11,25,17,1011,48,2,20141010170000
118,"Town governement, Qingyuan",,23.708005,113.026215,107,57,33,19,19,16,26,16,1011,54,2,20141010170000
119,"Fupin district, Qingyuan",,23.624781,113.067713,124,53,24,14,10,18,26,16,1011,54,2,20141010170000
119,"Fupin district, Qingyuan",,24.185415,113.419369,124,53,24,14,10,18,26,16,1011,54,2,20141010170000
121,"Environment protection office, Qingyuan",,23.691109,113.047948,132,56,36,14,25,8,26,16,1011,54,2,20141010170000
121,"Environment protection office, Qingyuan",,23.685931,113.053239,132,56,36,14,25,8,26,16,1011,54,2,20141010170000
123,"Fengcheng Subdistrict, Qingyuan",,23.695447,113.068189,107,57,33,19,19,16,25,16,1011,57,2,20141010170000
124,Qingyuan,,23.679304,113.061513,132,57,36,19,25,18,27,17,1011,54,2,20141010170000
125,"Xiyuan Road, Chaozhou",,23.668654,116.638272,152,59,38,12,12,13,24,22,1010,89,2,20141010170000
126,"Archives Bureau, Chaozhou",,23.667881,116.649104,157,63,41,16,11,13,24,22,1010,89,2,20141010170000
127,"Municipal Corporation, Chaozhou",,23.65035,116.621859,155,71,35,15,13,13,24,22,1010,89,2,20141010170000
1101,Chaozhou,,23.654204,116.626969,157,71,41,16,13,13,24,22,1010,89,2,20141010170000
128,"Donghu Park, Jieyang",,23.532877,116.374427,99,57,43,15,13,9,24,22,1010,89,2,20141010170000
129,"Yuhu Middle School, Jieyang",,23.52682,116.414123,157,71,36,12,15,8,24,22,1010,89,2,20141010170000
130,"Experimental Primary School, Jieyang",,23.571473,116.364137,129,61,32,10,10,10,24,22,1010,89,2,20141010170000
1102,Jieyang,,23.547596,116.37754,157,71,43,18,22,10,24,22,1010,89,2,20141010170000
131,"City Environmental Monitoring Station, Yunfu",,22.936779,112.042248,144,69,23,16,6,7,26,16,1011,54,2,20141010170000
132,"The new city government headquarters, Yunfu",,22.914275,112.044475,147,68,28,8,7,17,26,16,1011,54,2,20141010170000
133,"Muyang police sub-station, Yunfu",,22.951267,112.05923,78,27,29,18,21,9,26,16,1011,54,2,20141010170000
1103,Yunfu,,22.912436,112.049811,147,69,29,18,21,17,27,17,1011,54,2,20141010170000
134,Yantian,,22.587949,114.266899,97,43,36,18,7,15,26,18,1010,61,2,20141010170000
135,Kwai Chung,,22.572837,113.867166,165,95,44,48,12,17,26,18,1010,61,2,20141010170000
135,Kwai Chung,,22.627947,114.428875,165,95,44,48,12,17,26,18,1010,61,2,20141010170000
135,Kwai Chung,,22.354168,114.134558,165,95,44,48,12,17,26,18,1010,61,2,20141010170000
137,Nanyou,,22.513802,113.928051,153,101,27,44,8,9,26,18,1010,61,2,20141010170000
138,Meisha,,22.59611,114.318345,114,52,35,6,8,11,26,18,1010,61,2,20141010170000
139,Xi xiang,,22.717524,114.252304,142,78,23,39,5,17,26,18,1010,61,2,20141010170000
140,Liyuan,,22.54732,114.101205,152,95,16,53,5,13,26,18,1010,61,2,20141010170000
1072,Kwai Chung,,22.572837,113.867166,134,46,29,12,6,11,26,18,1010,61,2,20141010170000
1072,Kwai Chung,,22.627947,114.428875,134,46,29,12,6,11,26,18,1010,61,2,20141010170000
1072,Kwai Chung,,22.354168,114.134558,134,46,29,12,6,11,26,18,1010,61,2,20141010170000
141,OCT,,22.539549,113.992458,152,79,25,45,7,13,26,18,1010,61,2,20141010170000
142,Honghu,,22.559647,114.121976,160,92,20,61,6,14,26,18,1010,61,2,20141010170000
143,Mission Hills,,22.694131,114.050496,132,57,28,20,3,9,26,18,1010,61,2,20141010170000
144,Shenzhen,,22.540382,114.062982,165,101,44,61,12,17,-,-,0,-,-,20141010170000
145,Chengdu,,30.622581,104.069564,159,79,20,18,10,8,17,16,1015,94,2,20141010170000
146,"Jinquan lianghe, Chengdu",,30.710359,103.974209,161,65,14,9,5,10,18,16,1015,88,3,20141010170000
147,"Shilidian, Chengdu",,30.684718,104.17845,159,86,12,11,6,10,18,16,1015,88,3,20141010170000
148,"Sanwayao, Chengdu",,30.568159,104.081524,153,95,12,19,7,12,18,16,1015,88,3,20141010170000
149,"Shahepu, Chengdu",,30.633685,104.120536,160,80,12,19,7,11,18,16,1015,88,3,20141010170000
150,"Liang Lane, Chengdu",,30.682601,104.076522,157,67,20,15,5,8,17,16,1015,94,2,20141010170000
151,"Caotang Temple, Chengdu",,30.651891,104.0284,151,65,20,11,6,7,17,16,1015,94,2,20141010170000
152,"Lingyansi, Chengdu",,31.025729,103.615022,42,6,37,3,1,3,17,16,1015,94,2,20141010170000
153,"Fuleshan, Mianyang",,31.472493,104.7806,161,60,17,8,5,9,21,16,1013,70,1,20141010170000
154,"High-tech Zone Water Company, Mianyang",,31.463309,104.674293,144,57,15,17,5,8,21,16,1013,70,1,20141010170000
155,"No.3 water company, Mianyang",,31.505002,104.731054,152,59,8,9,2,5,21,16,1013,70,1,20141010170000
156,Mianyang,,31.465174,104.681731,161,63,17,17,9,9,21,16,1013,70,1,20141010170000
157,"Dongshan Park, Deyang",,31.118648,104.424587,117,57,29,11,6,7,17,16,1015,94,2,20141010170000
158,"Xixiaoqu, Deyang",,31.131159,104.390972,155,65,16,8,8,8,17,16,1015,94,2,20141010170000
159,"City Procuratorate, Deyang",,31.114554,104.407986,152,70,8,7,5,14,17,16,1015,94,2,20141010170000
160,"Refractory Factory, Deyang",,31.108606,104.356506,147,56,27,6,2,5,17,16,1015,94,2,20141010170000
161,Deyang,,31.124715,104.400703,157,71,32,13,8,14,18,16,1015,88,3,20141010170000
162,"Nongnongping, Panzhihua",,26.566698,101.695438,55,23,23,22,17,7,20,12,0,54,2,20141010170000
163,"Hemenkou, Panzhihua",,26.589072,101.578312,91,43,28,9,5,8,20,12,0,54,2,20141010170000
164,"Bingcaogang, Panzhihua",,26.58143,101.718473,38,13,18,15,3,10,20,12,0,54,2,20141010170000
165,"Renhe, Panzhihua",,26.498166,101.746887,78,35,22,12,6,9,20,12,0,54,2,20141010170000
166,"Jinjina, Panzhihua",,26.553226,101.84862,70,25,19,4,2,8,20,12,0,54,2,20141010170000
167,Panzhihua,,26.578779,101.720211,91,43,28,22,17,10,20,12,0,54,2,20141010170000
168,"Shima Middle School, Yibin",,28.815979,104.599199,169,108,15,12,15,11,20,17,1014,76,0,20141010170000
169,"Municipal party committee, Yibin",,28.762654,104.624834,178,91,9,14,16,14,20,17,1014,76,0,20141010170000
170,"No. 4 middle school, Yibin",,28.783257,104.608407,187,103,14,14,14,9,20,17,1014,76,0,20141010170000
171,"City government, Yibin",,28.760477,104.644079,179,104,14,13,19,10,20,17,1014,76,0,20141010170000
172,"Huangjinzui, Yibin",,28.712319,104.578389,175,113,13,23,10,10,20,17,1014,76,0,20141010170000
173,"Shaping Middle School, Yibin",,28.795569,104.681393,180,90,13,28,15,9,20,17,1014,76,0,20141010170000
174,Yibin,,28.748384,104.645766,187,113,15,28,19,14,20,17,1014,76,0,20141010170000
175,"Datang Hill, Zigong",,29.359969,104.757388,194,123,16,10,2,7,21,14,1001,65,2,20141010170000
176,"Yanma Road, Zigong",,29.355752,104.724036,170,89,10,1,3,11,21,14,1001,65,2,20141010170000
177,"Tanmulin Street, Zigong",,29.353555,104.777397,194,121,20,7,9,7,21,14,1001,65,2,20141010170000
178,"Chunhua Road, Zigong",,29.33825,104.771895,171,81,16,11,9,11,21,14,1001,65,2,20141010170000
179,Zigong,,29.33617,104.781138,194,123,20,11,9,11,21,14,1001,65,2,20141010170000
180,"Jiushi Hill, Luzhou",,28.955347,105.434207,223,146,59,6,4,10,21,14,1001,65,1,20141010170000
181,"Xiaoshishang Port, Luzhou",,28.899583,105.447192,200,128,34,11,13,12,21,14,1001,65,1,20141010170000
182,"Lantianxian Bridge, Luzhou",,28.852766,105.4358,188,128,45,14,9,5,21,14,1001,65,1,20141010170000
183,"City Environment Monitoring Station, Luzhou",,28.895898,105.435802,246,122,41,16,9,11,21,14,1001,65,1,20141010170000
184,Luzhou,,28.868782,105.445938,246,146,59,16,13,12,21,14,1001,65,1,20141010170000
185,"City Committee, Nanchong",,30.799993,106.082906,172,99,12,8,5,6,23,17,1013,61,1,20141010170000
186,"Refinery Factory, Nanchong",,30.819412,106.10712,181,111,36,22,10,4,23,17,1013,61,1,20141010170000
187,"Gaoping District Monitoring Station, Nanchong",,30.783291,106.110417,176,116,24,32,9,9,23,17,1013,61,1,20141010170000
188,"Jialing District EPB, Nanchong",,30.761255,106.06818,179,95,32,28,9,6,23,17,1013,61,1,20141010170000
189,"City Environmental Monitoring Station, Nanchong",,30.836519,106.11272,181,104,27,16,21,8,23,17,1013,61,1,20141010170000
190,Nanchong,,30.835511,106.114717,181,116,36,32,21,9,23,17,1013,61,1,20141010170000
1249,"City Monitoring Station, Neijiang",,29.592673,105.036234,295,171,13,23,17,11,22,14,1001,64,2,20141010170000
1250,"Dongxing District Government , Neijiang",,29.592148,105.074966,299,178,7,21,15,7,21,14,1001,65,2,20141010170000
1251,"No 2 middle school, Neijiang",,29.579135,105.068548,296,174,11,19,10,8,21,14,1001,65,2,20141010170000
1252,Neijiang,,29.577653,105.06166,296,178,15,21,19,11,21,14,1001,65,2,20141010170000
1253,"City Monitoring Station, Suining",,30.610641,105.683583,189,113,44,9,4,8,20,13,0,62,2,20141010170000
1254,"Administrative center , Suining",,30.63206,105.819747,171,104,18,17,52,8,20,13,0,62,2,20141010170000
1255,Suining,,30.530053,105.596307,201,120,44,17,9,8,20,13,0,62,2,20141010170000
1256,"City Monitoring Station, Leshan",,29.560651,103.759211,153,78,26,17,28,13,19,16,0,84,2,20141010170000
1257,"Leshan Giant Buddha Scenic Area , Leshan",,29.543938,103.772706,162,80,16,20,23,8,19,16,0,84,2,20141010170000
1258,Leshan,,29.54935,103.767777,165,88,26,24,44,13,19,16,0,84,2,20141010170000
1259,"Heilongtan , Meishan",,30.047726,103.900649,202,115,11,19,6,7,17,16,1015,94,2,20141010170000
1260,"Bureau of Meteorology, Meishan",,30.084591,103.843715,190,89,16,11,3,5,17,16,1015,94,2,20141010170000
1261,"Xuguang Community , Meishan",,30.066277,103.8516,188,96,13,8,3,5,17,16,1015,94,2,20141010170000
1262,"City Monitoring Station, Meishan",,30.059205,103.836229,179,91,10,9,4,5,17,16,1015,94,2,20141010170000
1263,Meishan,,30.072618,103.85064,202,115,16,19,6,7,17,16,1015,94,2,20141010170000
1264,"Ziyang middle school, Ziyang",,30.147763,104.638024,173,97,20,9,24,8,21,14,1001,65,2,20141010170000
1265,Ziyang,,30.126054,104.63004,192,117,24,13,30,8,21,14,1001,65,2,20141010170000
191,Shenyang US Consulate,,41.785668,123.432865,330,200,24,63,63,18,12,9,1021,82,2,20141010170000
192,"Huishan, Shenyang",,41.835421,123.647773,385,228,18,47,11,19,12,9,1021,82,2,20141010170000
193,"Hunnan, Shenyang",,41.758263,123.540809,428,397,10,64,54,22,12,9,1021,82,2,20141010170000
194,"Zhangshi, Shenyang",,41.771679,123.289859,372,427,2,60,54,24,12,9,1021,82,2,20141010170000
195,"Artillery College, Shenyang",,41.835749,123.547799,228,349,35,64,24,18,12,9,1021,82,2,20141010170000
196,"Beiling, Shenyang",,41.849633,123.434146,418,492,3,70,6,21,12,9,1021,82,2,20141010170000
197,"Wenyi Road, Shenyang",,41.767444,123.416144,357,200,17,63,63,19,12,9,1021,82,2,20141010170000
198,"Xiaoheyan, Shenyang",,41.779828,123.484015,417,388,10,70,33,24,12,9,1021,82,2,20141010170000
199,"Taiyuan Street, Shenyang",,41.799646,123.406146,330,216,3,60,38,28,12,9,1021,82,2,20141010170000
200,"Ermao, Shenyang",,41.783011,123.366679,369,328,18,55,55,26,12,9,1021,82,2,20141010170000
201,"Liaoning University, Shenyang",,41.830704,123.361071,292,168,8,78,22,18,12,9,1021,82,2,20141010170000
202,Shenyang,,41.808126,123.437611,418,492,3,70,6,21,12,9,1021,82,2,20141010170000
1104,"wenhua street, Shenyang , Shenyang",,41.774139,123.441839,303,198,13,51,33,20,12,9,1021,82,2,20141010170000
1105,"Tanglin Road , Shenyang , Shenyang",,41.823665,123.562317,214,333,24,60,30,20,12,9,1021,82,2,20141010170000
203,"Ganjingzi, Dalian",,38.9747,121.616893,215,157,36,61,6,9,15,13,1022,88,0,20141010170000
204,"Zhoushuizi, Dalian",,38.951928,121.569981,189,110,15,24,1,21,15,13,1022,88,0,20141010170000
205,"Xinghai No 3 station, Dalian",,38.885779,121.568864,210,112,24,17,7,10,15,13,1022,88,0,20141010170000
206,"Qingniwa Bridge, Dalian",,38.91274,121.638018,173,85,18,42,2,11,15,13,1022,88,0,20141010170000
207,"Fujiazhuang, Dalian",,38.864647,121.629947,164,92,20,20,14,6,15,13,1022,88,0,20141010170000
208,"Qixianling, Dalian",,38.856978,121.523169,162,91,16,33,3,13,15,13,1022,88,0,20141010170000
209,"Lushun, Dalian",,38.808946,121.264063,170,93,15,16,5,8,15,13,1022,88,0,20141010170000
210,"Jinzhou, Dalian",,39.132192,121.753259,182,131,13,16,3,9,15,13,1022,88,0,20141010170000
211,"BDA, Dalian",,39.05213,121.782022,174,93,18,8,4,8,15,13,1022,88,0,20141010170000
212,"D&D Port, Dalian",,39.064087,121.981874,178,80,21,6,1,15,15,13,1022,88,0,20141010170000
213,Dalian,,38.91478,121.619625,173,92,20,42,14,11,-,-,0,-,-,20141010170000
214,"Bearing Factory, Dandong",,40.068929,124.345703,168,104,9,29,18,31,12,10,1024,90,1,20141010170000
215,"Financial school, Dandong",,40.158723,124.432593,177,102,25,41,9,17,14,11,1022,80,0,20141010170000
216,"Yuanbaoshan water, Dandong",,40.149431,124.391698,165,85,31,29,14,18,12,10,1024,90,1,20141010170000
217,"Experimental Primary School, Dandong",,39.887343,124.158056,168,94,7,34,8,14,12,10,1024,90,1,20141010170000
218,Dandong,,40.002046,124.360479,163,84,28,26,13,18,12,10,1024,90,1,20141010170000
1106,"minzhu bridge, Dandong , Dandong",,40.112974,124.373604,163,86,3,26,8,15,12,10,1024,90,1,20141010170000
1107,"yuanbaoshan, Dandong , Dandong",,40.146298,124.399081,158,72,28,12,13,18,12,10,1024,90,1,20141010170000
1108,"linjiang houjie, Dandong , Dandong",,40.152757,124.431745,163,84,5,26,11,18,12,10,1024,90,1,20141010170000
219,"BDA, Panjin",,41.157144,122.06645,244,158,27,27,7,18,14,12,0,87,3,20141010170000
220,"Xinglongtai, Panjin",,41.140948,122.111343,272,420,29,20,10,17,14,12,0,87,3,20141010170000
221,"Dingxiang, Panjin",,41.16139,121.928781,175,87,126,9,4,16,14,11,0,82,3,20141010170000
222,Panjin,,41.122089,122.076206,272,420,29,20,10,17,14,12,0,87,3,20141010170000
223,"No.3 water company, Yingkou",,40.682052,122.385352,173,102,35,30,12,16,16,13,1022,83,2,20141010170000
224,"Yingkou University, Yingkou",,40.683689,122.388285,166,108,35,44,8,13,16,13,1022,83,2,20141010170000
225,"Botanical garden, Yingkou",,40.711674,122.281568,184,98,22,49,5,23,16,13,1022,83,2,20141010170000
226,Yingkou,,40.668578,122.24059,179,110,33,39,10,16,16,13,1022,83,2,20141010170000
1109,"jinghu west street, Yingkou , Yingkou",,40.653831,122.221943,179,109,29,32,9,17,16,13,1022,83,2,20141010170000
1110,"Daqing Road , Yingkou , Yingkou",,40.709181,122.28243,178,95,14,47,5,23,16,13,1022,83,2,20141010170000
227,"Xishanpo, Huludao",,40.724078,120.921974,194,101,77,8,12,12,14,11,0,82,3,20141010170000
228,"Huagong hospital, Huludao",,40.755662,120.848435,162,123,32,28,5,11,14,11,0,82,3,20141010170000
229,"New district park, Huludao",,40.723415,120.853801,119,109,48,13,8,10,14,11,0,82,3,20141010170000
230,"Lianshan district governement, Huludao",,40.775488,120.872292,151,132,32,55,16,12,14,11,0,82,3,20141010170000
231,Huludao,,40.712501,120.842107,191,128,72,45,19,12,15,12,0,80,2,20141010170000
1111,"Dongcheng District , Huludao , Huludao",,40.775362,120.871706,114,128,28,45,19,12,,,0,,,20141010170000
1112,"huagong street, Huludao , Huludao",,40.758901,120.842935,149,112,28,33,6,12,,,0,,,20141010170000
232,Anshan,,41.110466,123.000147,368,425,28,44,41,36,12,9,1021,82,2,20141010170000
233,"Qianshan Park, Anshan",,41.033486,123.143897,168,82,29,9,6,18,11,9,1022,88,2,20141010170000
234,"Tiexi, Anshan",,41.121636,122.97506,322,304,6,37,11,36,11,9,1022,88,2,20141010170000
235,"Taiping Station, Anshan",,41.153322,123.052433,310,246,7,22,23,30,12,9,1021,82,2,20141010170000
236,"Central Station, Anshan",,41.106731,123.002736,206,174,23,24,8,29,11,9,1022,88,2,20141010170000
237,"Shengou Temple, Anshan",,41.137157,123.031901,192,127,28,12,41,27,12,9,1021,82,2,20141010170000
1113,"Qianshan , Anshan , Anshan",,41.014521,123.122538,142,60,28,7,6,17,12,9,1021,82,2,20141010170000
1114,"Tiexi Sandao jie, Anshan",,41.103264,122.978613,302,262,4,44,10,36,12,9,1021,82,2,20141010170000
1115,"Taiyang, Anshan",,41.094946,123.019037,169,110,23,12,7,24,12,9,1021,82,2,20141010170000
238,Fushun,,41.883028,123.962984,262,243,31,47,54,28,11,9,1022,88,2,20141010170000
239,"Shenfu new town, Fushun",,41.804638,123.631684,334,243,15,39,15,21,13,9,1021,77,2,20141010170000
240,"Reservoir, Fushun",,41.8464,123.802857,188,105,36,23,23,17,13,9,1021,77,2,20141010170000
241,"Train Station, Fushun",,41.89726,124.017604,237,163,14,30,13,20,13,9,1021,77,2,20141010170000
242,"Dongzhou, Fushun",,41.855578,124.044738,158,119,32,23,4,13,13,9,1021,77,2,20141010170000
243,"Xinhua, Fushun",,41.888598,123.932932,231,193,8,45,10,21,13,9,1021,77,2,20141010170000
244,"Wanghua, Fushun",,41.888825,123.093723,188,232,12,54,16,28,13,9,1021,77,2,20141010170000
245,Benxi,,41.296267,123.772371,245,213,25,48,29,45,12,9,1021,82,2,20141010170000
246,"Weining, Benxi",,41.349663,123.826071,245,213,15,17,3,38,12,9,1021,82,2,20141010170000
247,"Occupational disease hospital, Benxi",,41.305432,123.74645,119,67,5,26,6,24,12,9,1021,82,2,20141010170000
248,"Dongming, Benxi",,41.292369,123.765058,192,98,3,48,29,45,12,9,1021,82,2,20141010170000
249,"Caitun, Benxi",,41.301591,123.746039,188,148,10,34,5,34,12,9,1021,82,2,20141010170000
250,"Xihu, Benxi",,41.331332,123.773537,198,147,9,46,8,21,11,9,1022,88,2,20141010170000
251,"Dayu, Benxi",,41.308091,123.818442,158,72,25,14,10,19,12,9,1021,82,2,20141010170000
1116,"Xinlitun , Benxi , Benxi",,41.264104,123.811523,102,63,6,25,6,17,12,9,1021,82,2,20141010170000
252,Jinzhou,,41.097169,121.132647,228,130,38,54,51,13,15,12,1021,80,2,20141010170000
253,"Beihu Park, Jinzhou",,41.141447,121.137339,196,112,36,25,12,12,15,12,1021,80,2,20141010170000
254,"Monitoring station, Jinzhou",,41.113441,121.140911,217,112,42,28,11,11,15,12,1021,80,2,20141010170000
255,"Nanshan, Jinzhou",,41.570689,122.046753,216,116,29,37,13,11,15,12,1021,80,2,20141010170000
1118,"BDA, Jinzhou",,40.853915,121.061756,214,130,18,54,51,13,15,12,1021,80,2,20141010170000
1119,"tianan street, Jinzhou , Jinzhou",,41.124468,121.126119,213,109,38,26,10,11,15,12,1021,80,2,20141010170000
1120,"baigu street, Jinzhou, Jinzhou",,41.12214,121.21027,228,130,26,39,10,12,15,12,1021,80,2,20141010170000
1121,Chaoyang,,41.576022,120.456053,241,142,46,19,6,26,-,-,0,-,-,20141010170000
472,"Fukang road, Tianjin",,39.098136,117.157621,172,116,27,12,3,6,14,13,1021,94,2,20141010170000
1122,"Agricultural Area, Chaoyang",,43.93968,125.247371,219,111,7,9,5,14,17,12,1020,60,4,20141010170000
1123,Tieling,,42.225197,123.732174,354,170,24,33,22,14,-,-,0,-,-,20141010170000
260,"Waterpark, Tieling",,42.297031,123.880748,259,134,8,21,11,14,13,9,1021,77,2,20141010170000
1124,"Huigong Street West , Tieling , Tieling",,42.311115,123.845614,260,162,29,42,15,18,11,9,1022,88,2,20141010180000
1125,Liaoyang,,41.269312,123.24268,171,122,32,38,8,30,-,-,0,-,-,20141010180000
1126,"Riverside Road , Liaoyang , Liaoyang",,41.176884,123.419859,160,71,17,9,6,15,12,9,1021,82,2,20141010180000
1127,Fuxin,,42.02373,121.675733,250,163,33,17,20,19,-,-,0,-,-,20141010180000
266,"Agricultural Area, Fuxin",,42.071291,121.696445,200,102,25,9,20,14,12,9,0,81,3,20141010180000
267,"Industrial Area, Fuxin",,42.041052,121.715554,237,163,20,16,14,19,12,9,0,81,3,20141010180000
1128,"Yulong Metro , Fuxin , Fuxin",,42.035091,121.666531,250,155,33,16,20,17,12,9,0,81,3,20141010180000
1129,"Dongyuan , Fuxin , Fuxin",,42.029119,121.681553,190,152,26,21,28,15,12,9,0,81,3,20141010180000
268,"City Monitoring Station, Jinan",,36.662614,117.054645,180,129,22,48,28,20,16,11,1021,62,3,20141010180000
269,"Shandong Institute of Economics, Jinan",,36.63819,117.074975,122,122,36,44,24,9,16,11,1021,62,3,20141010180000
270,"Quancheng Plaza, Jinan",,36.661711,117.027043,165,122,16,43,19,19,16,11,1021,62,3,20141010180000
271,"Kegansuo, Jinan",,36.611582,116.99384,117,66,43,15,15,14,16,11,1021,62,3,20141010180000
272,"Agriculture Science Institute, Jinan",,36.663115,116.95063,158,116,17,45,16,26,16,11,1021,62,3,20141010180000
273,"Lanxiang technical school, Jinan",,36.700421,116.95342,160,101,11,44,30,20,16,11,1021,62,3,20141010180000
274,"Chemical factory, Jinan",,36.687463,116.994406,181,153,11,65,20,13,16,11,1021,62,3,20141010180000
275,"Provincial Seed Warehouse, Jinan",,36.685706,117.066348,164,97,18,46,13,19,16,11,1021,62,3,20141010180000
276,"Shandong Architecture University, Jinan",,36.681732,117.191868,160,116,15,29,20,13,16,11,1021,62,3,20141010180000
277,"Baosheng cable company, Jinan",,36.724638,117.130855,193,183,13,56,14,17,16,11,1021,62,3,20141010180000
278,"Paomaling, Jinan",,36.47869,117.219027,124,63,64,11,42,16,16,11,1021,62,3,20141010180000
279,"Changqing District Communist Party School, Jinan",,36.548797,116.770859,154,73,29,44,22,12,16,11,1021,62,3,20141010180000
280,"BDA, Jinan",,36.685835,117.130851,132,85,35,43,6,18,16,11,1021,62,3,20141010180000
281,Jinan,,36.651426,117.126625,180,167,43,48,30,26,16,11,1021,62,3,20141010180000
282,"Shinan district No. 1, Qingdao",,36.065534,120.40839,137,68,91,17,5,4,15,13,1021,88,1,20141010180000
283,"Shibei district No. 1, Qingdao",,36.069919,120.341264,124,62,80,3,6,6,15,13,1021,88,1,20141010180000
284,"Shibei district No. 2, Qingdao",,36.104146,120.36637,87,57,126,6,4,10,16,14,1021,88,1,20141010180000
285,"Huangdao District No. 1, Qingdao",,35.958935,120.191041,122,77,36,11,13,5,15,13,1021,88,1,20141010180000
286,"Huangdao District No. 2, Qingdao",,35.970487,120.160339,147,75,27,44,12,11,15,13,1021,88,1,20141010180000
287,"Laoshan District No. 1, Qingdao",,36.085881,120.451839,156,56,105,7,14,9,15,13,1021,88,1,20141010180000
288,"Laoshan District No. 2, Qingdao",,36.091075,120.490388,122,62,132,6,10,4,15,13,1021,88,1,20141010180000
289,"Licang District No. 1, Qingdao",,36.184872,120.38533,144,80,16,43,8,10,15,13,1021,88,1,20141010180000
290,"Licang District No. 2, Qingdao",,36.154369,120.432287,171,107,13,49,7,8,15,13,1021,88,1,20141010180000
291,"Chengyang District No. 1, Qingdao",,36.308502,120.40008,183,123,4,56,16,7,15,13,1021,88,1,20141010180000
292,"Chengyang District No. 2, Qingdao",,36.308429,120.465806,137,9,40,20,8,5,15,13,1021,88,1,20141010180000
293,Qingdao,,36.067358,120.387773,156,77,80,3,14,11,15,13,1021,88,1,20141010180000
294,"Zichuan Meteo. Stations, Zibo",,36.637916,117.960222,159,112,26,33,40,9,14,9,0,71,2,20141010180000
295,"Dongfeng Chemical factory, Zibo",,36.838576,118.050785,163,128,8,62,46,13,14,9,0,71,2,20141010180000
296,"Boshan shuangshan, Zibo",,36.497278,117.853581,102,54,10,46,15,11,14,9,0,71,2,20141010180000
297,"Linzi Putian Park, Zibo",,36.820171,118.315022,170,123,15,49,53,19,14,9,0,71,2,20141010180000
298,"Qilu Petrochemical, Zibo",,36.765907,118.254967,160,121,5,38,18,14,14,9,0,71,2,20141010180000
299,"Zhoucun sanjin Group, Zibo",,36.8044,117.85694,152,93,21,42,26,15,14,10,0,73,2,20141010180000
300,"Vocational College, Zibo",,36.825208,117.926305,172,139,10,47,60,20,14,9,0,71,2,20141010180000
301,"BDA, Zibo",,36.905214,118.021824,179,148,11,33,19,21,14,9,0,71,2,20141010180000
302,Zibo,,36.813618,118.060948,163,168,31,62,66,27,14,9,0,71,2,20141010180000
303,"Shizhong District Government, Zaozhuang",,34.850397,117.569545,160,98,34,11,70,13,18,14,1021,73,2,20141010180000
304,"Sewage treatment plant, Zaozhuang",,34.818951,117.595345,180,92,25,32,55,11,18,14,1021,73,2,20141010180000
305,"Xuecheng EPA, Zaozhuang",,34.790214,117.272455,159,65,32,27,37,7,18,14,1021,73,2,20141010180000
306,"Yicheng District government, Zaozhuang",,34.772806,117.57647,97,59,58,12,7,5,18,14,1021,73,2,20141010180000
307,"Taierzhuang EPA, Zaozhuang",,34.579462,117.741067,225,191,32,31,6,9,18,14,1021,73,2,20141010180000
308,"Shanting EPA, Zaozhuang",,35.070373,117.457691,93,52,43,16,12,11,18,14,1021,73,2,20141010180000
309,"City EPA, Zaozhuang",,34.809466,117.320608,163,96,42,9,19,6,18,14,1021,73,2,20141010180000
310,"High-tech zone, Zaozhuang",,34.821779,117.363495,173,77,38,12,29,11,18,14,1021,73,2,20141010180000
311,Zaozhuang,,34.809693,117.329634,225,191,58,31,70,13,18,14,1021,73,2,20141010180000
312,"City EPA, Dongying",,37.432052,118.672871,154,73,44,13,42,11,18,14,0,78,3,20141010180000
313,"Vocational College, Dongying",,37.438653,118.630567,155,89,44,11,11,8,18,14,0,78,3,20141010180000
314,"Xianhe Oil Production Plant, Dongying",,37.442419,118.510222,153,102,42,23,12,8,18,14,0,78,3,20141010180000
315,"Gengjin village, Dongying",,37.445072,118.55839,158,89,29,35,14,7,18,14,0,78,3,20141010180000
316,"City environmental company, Dongying",,37.466599,118.508012,152,75,47,22,7,7,18,14,0,78,3,20141010180000
317,"Hekou  district, Dongying",,37.883786,118.522171,153,88,51,9,7,5,18,14,0,78,3,20141010180000
318,"BDA, Dongying",,37.435162,118.701827,154,67,90,7,9,12,18,14,0,78,3,20141010180000
319,Dongying,,37.435429,118.680434,158,102,51,35,42,11,18,14,0,78,3,20141010180000
320,"Bearing Factory, Yantai",,37.544126,121.376956,189,78,33,49,8,8,,,0,,,20141010180000
321,"Xijiao Chemical Station, Yantai",,37.547148,121.323695,160,63,40,18,4,10,,,0,,,20141010180000
322,"Fushan Monitoring Stations, Yantai",,37.472245,121.260116,155,50,15,12,4,11,,,0,,,20141010180000
323,"Mouping EPA, Yantai",,37.376681,121.586509,155,73,31,1,5,9,,,0,,,20141010180000
324,"Laishan EPA, Yantai",,37.478422,121.44829,152,61,50,9,3,5,,,0,,,20141010180000
325,"Laishan Shengquan Industrial Park, Yantai",,37.4271,121.408386,160,87,41,22,7,7,,,0,,,20141010180000
326,"China Agricultural University, Yantai",,37.423568,121.511838,139,70,59,10,6,7,,,0,,,20141010180000
327,"BDA EPA, Yantai",,37.560827,121.257954,162,71,17,49,5,10,,,0,,,20141010180000
329,"Dajijia, Yantai",,37.673849,121.071465,157,67,17,18,5,7,,,0,,,20141010180000
330,Yantai,,37.464793,121.453142,189,80,40,18,4,10,18,15,0,81,3,20141010180000
331,"BDA, Weifang",,36.720022,119.054064,184,128,24,40,13,6,,,0,,,20141010180000
332,"Business School, Weifang",,36.682442,119.105909,181,143,25,37,16,4,,,0,,,20141010180000
333,"Hanting District, Weifang",,36.773484,119.199705,174,99,38,22,16,5,,,0,,,20141010180000
334,"Gongda Company, Weifang",,36.657635,119.167266,185,123,34,37,12,5,,,0,,,20141010180000
335,"City EPA, Weifang",,36.701272,119.16838,188,130,22,34,16,5,,,0,,,20141010180000
336,"City Arbitration Committee, Weifang",,36.702422,119.145927,187,117,41,39,16,8,,,0,,,20141010180000
337,"Xinhui Group, Weifang",,36.641581,119.11679,195,132,28,33,11,8,,,0,,,20141010180000
338,"Jincheng Middle School, Weifang",,36.773611,119.115539,172,93,47,24,12,4,,,0,,,20141010180000
339,Weifang,,36.707217,119.167638,195,143,47,47,18,8,18,14,0,78,3,20141010180000
340,"City Monitoring Station, Jining",,35.408443,116.623917,170,108,19,44,18,15,16,15,1020,92,0,20141010180000
1090,"Shengdi Hollidays Resort, Jining",,35.424746,116.699093,162,79,13,51,23,4,16,15,1020,92,0,20141010180000
341,"Sewage treatment plant, Jining",,35.364286,116.609177,176,97,14,37,8,11,16,15,1020,92,0,20141010180000
342,"Electrochemical Factory, Jining",,35.390473,116.552956,160,87,17,43,23,19,16,15,1020,92,0,20141010180000
343,"Rencheng BDA, Jining",,35.390484,116.662995,276,93,19,28,29,9,16,15,1020,92,0,20141010180000
344,"Agricultural School, Jining",,35.44235,116.601682,163,109,12,42,8,11,16,15,1020,92,0,20141010180000
345,"BDA Huojucheng, Jining",,35.436377,116.642953,169,123,21,41,11,13,16,15,1020,92,0,20141010180000
346,Jining,,35.414473,116.59239,276,123,13,51,29,4,16,15,1020,92,0,20141010180000
347,"Taishan monitoring station, Taian",,36.194362,117.159648,119,84,8,31,6,15,9,8,0,85,5,20141010180000
348,"Shandong Electric Power School, Taian",,36.176071,117.12413,158,99,19,38,9,16,9,8,0,85,5,20141010180000
349,"Population Education school, Taian",,36.194417,117.104131,114,96,32,29,7,10,9,8,0,85,5,20141010180000
350,"Houfeng company, Taian",,36.204863,117.19015,161,88,10,18,6,15,9,8,0,85,5,20141010180000
351,"Nongda new campus, Taian",,36.170179,117.165191,149,84,7,36,15,17,9,8,0,85,5,20141010180000
352,"Transportation technical school, Taian",,36.202126,117.047068,82,65,8,35,4,10,9,8,0,85,5,20141010180000
353,"ICT Technology, Taian",,36.116621,117.107458,174,100,7,33,51,17,9,8,0,85,5,20141010180000
354,Taian,,36.200502,117.093682,174,100,32,38,51,17,9,8,0,85,5,20141010180000
355,"City Environmental Monitoring Station, Weihai",,37.513939,122.067058,107,65,44,17,19,6,18,15,0,81,3,20141010180000
356,"Woodworking Factory, Weihai",,37.325455,122.160777,117,56,53,8,4,5,18,15,0,81,3,20141010180000
357,"Lantian Hotel, Weihai",,37.514641,122.146276,127,57,68,8,7,9,18,15,0,81,3,20141010180000
358,"Zhang village government, Weihai",,37.485561,122.049436,154,50,34,18,6,5,18,15,0,81,3,20141010180000
359,"Gao District Bank, Weihai",,37.534919,122.056294,142,64,51,11,7,5,18,15,0,80,3,20141010180000
360,"Huxia technical school, Weihai",,37.427951,122.130811,144,69,40,10,9,6,18,15,0,81,3,20141010180000
361,Weihai,,37.5141,122.125477,154,69,68,18,19,9,18,15,0,81,3,20141010180000
362,"City governement square, Rizhao",,35.4075,119.526008,109,63,26,24,8,4,16,14,1021,83,1,20141010180000
363,"Port Authority, Rizhao",,35.381297,119.55396,124,73,18,17,3,6,16,14,1021,83,1,20141010180000
364,"City Monitoring Station, Rizhao",,35.388683,119.496405,132,63,19,40,10,7,16,14,1021,83,1,20141010180000
365,"Professor Garden, Rizhao",,35.462161,119.574193,76,50,47,3,4,7,16,14,1021,83,1,20141010180000
366,"Vocational and Technical College, Rizhao",,35.441939,119.538187,68,29,46,4,4,3,16,14,1021,83,1,20141010180000
367,"Lanshan EPA branch, Rizhao",,35.293405,119.345716,97,58,38,22,9,4,16,14,1021,83,1,20141010180000
368,"Jinma Industrial Park, Rizhao",,35.373339,119.514108,117,83,23,35,9,4,16,14,1021,83,1,20141010180000
369,Rizhao,,35.416089,119.532316,124,83,20,17,5,6,16,14,1021,83,1,20141010180000
370,"Vegetable oil factory, Laiwu",,36.205028,117.700917,147,67,16,43,16,11,14,11,1022,71,2,20141010180000
371,"Nursing home, Laiwu",,36.266067,117.652769,102,61,20,26,6,12,14,11,1022,71,2,20141010180000
372,"Xinyi middle school, Laiwu",,36.245086,117.739025,80,44,20,22,15,18,14,11,1022,71,2,20141010180000
373,"Risheng International School, Laiwu",,36.208125,117.730959,132,63,8,18,11,8,14,11,1022,71,2,20141010180000
374,"Gangcheng EPA, Laiwu",,36.066836,117.871823,114,60,9,28,12,16,14,11,1022,71,2,20141010180000
375,"City EPA, Laiwu",,36.228913,117.694797,102,53,14,21,16,18,14,11,1022,71,2,20141010180000
376,Laiwu,,36.213688,117.682612,147,67,20,43,16,18,-,-,0,-,-,20141010180000
377,"Lunan Pharmaceutical Factory, Linyi",,35.061671,118.299527,152,113,19,43,7,7,13,11,0,88,2,20141010180000
378,"Yihe compound, Linyi",,35.056752,118.34739,95,91,20,37,8,7,13,11,0,89,2,20141010180000
379,"Linyi University, Linyi",,35.114777,118.293414,181,125,13,42,60,12,13,11,0,88,2,20141010180000
380,City EPA,Nanfang,35.104871,118.353518,91,91,26,31,7,7,13,11,0,88,2,20141010180000
381,"Xinguang woolen factory, Linyi",,34.981004,118.282,144,82,14,43,18,8,13,11,0,88,2,20141010180000
382,"Hongfu Baijiu Factory, Linyi",,34.998788,118.257275,172,127,9,39,6,13,13,11,0,88,2,20141010180000
384,"Hedong insurance company, Linyi",,35.089354,118.40812,152,95,20,49,8,7,13,11,0,88,2,20141010180000
385,"Jianghua vehicule center, Linyi",,35.010082,118.435749,177,94,18,35,8,7,13,11,0,88,2,20141010180000
386,Linyi,,35.10428,118.362202,181,127,26,43,18,13,13,11,0,88,2,20141010180000
387,"Heima group, Dezhou",,37.466063,116.314134,182,103,27,27,19,12,18,9,1020,46,1,20141010180000
388,"Monitoring station, Dezhou",,37.433107,116.377312,195,156,11,33,11,15,18,9,1020,46,1,20141010180000
389,"Supervision Station, Dezhou",,37.449689,116.324709,175,109,22,20,21,14,18,9,1020,46,1,20141010180000
390,"Huayu technical school, Dezhou",,37.462809,116.357559,270,105,18,52,15,11,18,9,1020,46,1,20141010180000
391,"Shuangyi group, Dezhou",,37.478848,116.316362,199,124,25,38,10,14,18,9,1020,46,1,20141010180000
392,Dezhou,,37.434959,116.363366,199,156,27,52,21,16,18,9,1020,46,1,20141010180000
393,"Dongchang District Government, Liaocheng",,36.444473,115.971733,285,172,12,33,17,29,16,15,1020,84,0,20141010180000
394,"Light Machinery Factory No. 2, Liaocheng",,36.456788,116.002383,371,320,23,77,17,18,16,15,1020,84,0,20141010180000
395,"City committee communist party school, Liaocheng",,36.479537,115.989288,233,186,13,56,22,21,16,15,1020,84,0,20141010180000
396,"Customs, Liaocheng",,36.431933,115.956974,287,233,11,46,13,18,16,15,1020,84,0,20141010180000
397,"Hongshun Garden, Liaocheng",,36.471124,115.960319,239,172,9,83,25,28,16,15,1020,84,0,20141010180000
398,"BDA, Liaocheng",,36.459407,116.043621,259,172,14,37,22,22,16,15,1020,84,0,20141010180000
399,Liaocheng,,36.456792,115.991051,371,320,23,83,25,29,16,15,1020,84,0,20141010180000
400,"City EPA, Binzhou",,37.38024,118.026895,160,59,19,22,19,12,17,15,1021,85,2,20141010180000
401,"Beizhong new school, Binzhou",,37.38374,117.988996,169,77,18,16,31,17,17,15,1021,85,2,20141010180000
402,"No.2 water factory, Binzhou",,37.36155,118.002648,176,102,9,13,10,15,17,15,1021,85,2,20141010180000
403,"Keling Chemical factory, Binzhou",,37.396138,117.943609,160,70,18,20,3,13,17,15,1021,85,2,20141010180000
404,"Yinhe logistics company, Binzhou",,37.356122,117.943326,181,98,15,25,32,11,17,15,1021,85,2,20141010180000
405,"Bilin compond, Binzhou",,37.36815,117.978964,169,99,18,15,8,11,17,15,1021,85,2,20141010180000
406,Binzhou,,37.382639,117.976606,181,102,19,25,32,17,17,15,1021,85,2,20141010180000
407,"Bureau of Meteorology, Heze",,35.248625,115.428775,189,139,9,22,13,18,15,12,0,80,2,20141010180000
408,"Sewage treatment plant, Heze",,35.222517,115.531511,200,117,8,23,7,15,15,12,0,80,2,20141010180000
409,"Municipal CPPCC, Heze",,35.237125,115.480591,179,131,16,33,14,17,15,12,0,83,2,20141010180000
410,"Huarun Pharmaceutical Company, Heze",,35.261463,115.524873,175,112,8,28,8,14,15,12,0,80,2,20141010180000
411,"Heze University, Heze",,35.269706,115.460934,181,103,19,58,12,15,15,12,0,80,2,20141010180000
412,Heze,,35.233354,115.486503,190,142,19,58,14,18,15,12,0,80,2,20141010180000
413,"Shiji Park, Shijiazhuang",,38.03155,114.547873,233,151,14,12,6,14,14,14,1020,100,1,20141010180000
414,"Xinan College, Shijiazhuang",,38.012764,114.473163,271,182,5,27,18,13,14,14,1020,100,1,20141010180000
415,"Chemical College, Shijiazhuang",,38.055503,114.569816,315,166,8,35,6,11,14,14,1020,100,1,20141010180000
416,"Worker hospital, Shijiazhuang",,38.051784,114.461209,254,184,34,29,7,13,14,14,1020,100,1,20141010180000
417,"Northwest Water Company, Shijiazhuang",,38.140638,114.508038,346,288,31,30,3,7,14,14,1020,100,1,20141010180000
418,"High-tech zone, Shijiazhuang",,38.040482,114.610775,371,239,21,39,11,12,14,14,1020,100,1,20141010180000
419,"Fenglong Montain, Shijiazhuang",,37.910829,114.360264,168,110,189,13,52,12,15,15,1021,100,1,20141010180000
1130,"Zhengding Unicom, Shijiazhuang",,38.159458,114.59879,416,459,19,57,12,15,15,15,1021,100,1,20141010180000
1131,"Luancheng Communications, Shijiazhuang",,37.906534,114.638785,338,369,46,83,33,15,15,15,1021,100,1,20141010180000
1132,"Gaocheng Experimental School, Shijiazhuang",,38.039518,114.867812,437,427,30,37,39,17,15,15,1021,100,1,20141010180000
1133,"Wuji EPA, Shijiazhuang",,38.17862,114.997012,458,390,81,25,29,16,15,15,1021,100,1,20141010180000
1134,"Shenze Power Supply Bureau, Shijiazhuang",,38.197674,115.219126,410,330,41,42,13,14,15,15,1021,100,1,20141010180000
1135,"Zhaoxian EPA, Shijiazhuang",,37.77171,114.775957,363,240,43,76,52,13,15,15,1021,100,1,20141010180000
1136,"Gaoyi County City Hall, Shijiazhuang",,37.623535,114.612729,386,411,40,49,35,16,15,15,1021,100,1,20141010180000
1137,"Zanhuang County City Hall, Shijiazhuang",,37.672898,114.398269,316,186,35,26,9,10,15,15,1021,100,1,20141010180000
1138,"Jingxing Bureau of Meteorology, Shijiazhuang",,38.038788,114.158406,331,292,39,50,16,14,15,15,1021,100,1,20141010180000
1139,"Pingshan Ye River, Shijiazhuang",,38.266657,114.210275,386,364,29,47,7,16,15,15,1021,100,1,20141010180000
420,Shijiazhuang,,38.042926,114.520834,371,239,8,49,18,14,14,14,1020,100,1,20141010180000
421,"No. 12 middle school, Tangshan",,39.659306,118.190271,298,262,31,54,27,11,-,-,0,-,-,20141010180000
422,"Ceramics Company, Tangshan",,39.669255,118.225185,229,160,36,38,21,15,13,13,1021,100,1,20141010180000
423,"Commodities Bureau, Tangshan",,39.642301,118.191265,235,181,28,33,16,13,13,13,1021,100,1,20141010180000
424,"Leidazhanzi Station, Tangshan",,39.644375,118.150383,187,111,43,24,11,15,13,13,1021,100,1,20141010180000
425,"Supply and marketing cooperatives, Tangshan",,39.632334,118.17232,212,131,40,27,17,15,13,13,1021,100,1,20141010180000
1140,"Guye District City Hall, Tangshan",,39.741379,118.460246,225,172,24,38,11,18,15,14,1021,94,1,20141010180000
1141,"Kaiping Stations, Tangshan",,39.675246,118.275149,271,177,38,38,16,12,15,14,1021,94,1,20141010180000
1142,"Fengnan District City Hall, Tangshan",,39.5834,118.097454,193,135,55,28,9,15,15,14,1021,94,1,20141010180000
1143,"Fengrun City Hall, Tangshan",,39.840355,118.175338,236,165,14,44,32,25,15,14,1021,94,1,20141010180000
1144,"Qianxi EPA, Tangshan",,40.153339,118.317265,275,184,14,43,13,57,15,14,1021,94,1,20141010180000
1145,"Caofeidian Xinli  Primary School, Tangshan",,39.291232,118.462182,179,88,47,47,28,8,15,14,1021,94,1,20141010180000
1146,"Zunhua EPA, Tangshan",,40.206249,117.997315,371,273,16,38,33,63,15,14,1021,94,1,20141010180000
1147,"Qianan No.1 middle school, Tangshan",,40.004248,118.717055,311,183,23,46,23,26,15,14,1021,94,1,20141010180000
1266,"Luannan County , Tangshan",,39.511132,118.686928,188,97,33,33,7,13,15,14,1021,94,1,20141010180000
1267,"Yutian County , Tangshan",,39.908249,117.751417,319,307,20,58,17,41,15,14,1021,94,1,20141010180000
426,Tangshan,,39.632175,118.186472,283,181,43,48,26,15,-,-,0,-,-,20141010180000
427,"City Monitoring Station, Qinhuangdao",,39.958109,119.607773,180,95,12,62,3,10,,,0,,,20141010180000
428,"Beidaihe, Qinhuangdao",,39.829209,119.53194,168,63,21,24,17,8,,,0,,,20141010180000
429,"Shanhai Pass, Qinhuangdao",,40.019298,119.767898,155,125,9,33,6,6,,,0,,,20141010180000
430,"Contruction Plazz, Qinhuangdao",,39.943187,119.542912,172,103,20,54,6,8,,,0,,,20141010180000
431,"City government, Qinhuangdao",,39.93711,119.612769,195,94,2,42,7,8,,,0,,,20141010180000
1148,"Qinglong EPA, Qinhuangdao",,40.419223,118.958002,243,146,38,18,54,22,15,14,0,94,1,20141010180000
1149,"Changli EPA, Qinhuangdao",,39.714369,119.173237,206,137,33,33,7,4,,,0,,,20141010180000
1268,"Lulong County Bureau of Meteorology , Qinhuangdao",,39.901091,118.904857,258,145,30,26,6,13,15,14,0,94,1,20141010180000
432,Qinhuangdao,,39.936485,119.606263,195,103,2,42,7,8,-,-,0,-,-,20141010180000
433,"CongTai Park, Handan",,36.620197,114.501891,161,149,49,27,22,12,15,15,0,97,0,20141010180000
434,"City EPA, Handan",,36.618145,114.518822,235,167,8,101,25,22,15,15,0,97,0,20141010180000
435,"East Sewage Factory, Handan",,36.616064,114.548714,267,305,12,26,12,15,15,15,0,97,0,20141010180000
436,"Mine Hospital, Handan",,36.578149,114.509854,246,197,9,47,6,18,15,15,0,97,0,20141010180000
1150,"Fengfeng mine Inland Revenue Department, Handan",,36.423085,114.245994,360,253,28,26,48,13,18,14,0,72,1,20141010180000
1151,"Shexian EPA, Handan",,36.589084,113.692341,329,200,37,36,14,27,,,0,,,20141010180000
1152,"Ci County Vocational Education Center, Handan",,36.380247,114.390119,294,155,41,31,26,18,,,0,,,20141010180000
1153,"Yongnian government guesthouse, Handan",,36.783297,114.502905,275,190,33,27,20,10,15,15,0,97,0,20141010180000
1154,"Wuan BDA, Handan",,36.686223,114.269009,333,236,12,48,17,18,,,0,,,20141010180000
1085,Handan,,36.625683,114.544812,267,305,9,101,25,22,15,15,0,97,0,20141010180000
437,"Road and Bridge Corporation, Xingtai",,37.096415,114.538799,309,190,9,50,6,14,15,15,1021,97,0,20141010180000
438,"Dahuo fontain, Xingtai",,37.097563,114.488001,254,144,8,26,5,13,15,15,1021,97,0,20141010180000
439,"Xingtai Normal College, Xingtai",,37.053404,114.531819,295,265,3,34,14,25,15,15,1021,97,0,20141010180000
440,"Environment protection office, Xingtai",,37.06253,114.490985,279,208,25,24,8,14,15,15,1021,97,0,20141010180000
1155,"Cultural centers within the mound, Xingtai",,37.293569,114.524873,280,151,42,9,8,16,15,15,1021,97,0,20141010180000
383,Xingtai,,37.071066,114.510749,295,265,17,34,14,25,15,15,1021,97,0,20141010180000
441,"City Monitoring Station, Baoding",,38.871737,115.527103,249,151,19,33,22,14,16,15,1020,89,1,20141010180000
442,"Surface water Company, Baoding",,38.842891,115.467326,240,172,19,40,15,14,16,15,1020,89,1,20141010180000
443,"Huadian II, Baoding",,38.896748,115.528102,329,255,36,11,61,1,16,15,1020,89,1,20141010180000
444,"Reception Center, Baoding",,38.911905,115.477301,420,430,14,41,5,7,16,15,1020,89,1,20141010180000
445,"Film Factory, Baoding",,38.876949,115.448383,404,432,14,30,12,10,16,15,1020,89,1,20141010180000
446,"Natatorium, Baoding",,38.863815,115.499212,223,154,21,31,25,22,16,15,1020,89,1,20141010180000
1156,"Qingyuan City Hall, Baoding",,38.771758,115.502189,246,144,24,31,16,13,16,15,1020,89,1,20141010180000
1157,"Xushui EPA, Baoding",,39.025781,115.668023,387,357,3,33,57,17,16,15,1020,89,1,20141010180000
1158,"Zhouzhou Monitoring Stations, Baoding",,39.493241,116.040187,261,164,43,19,17,16,16,15,1020,89,1,20141010180000
1159,"Gaobeidian EPA, Baoding",,39.3329,115.885891,260,164,2,32,15,13,16,15,1020,89,1,20141010180000
447,Baoding,,38.874791,115.471124,419,432,21,42,25,22,16,15,1020,89,1,20141010180000
448,"Century Compound, Zhangjiakou",,40.770279,114.909106,53,59,34,6,7,8,15,9,1019,59,5,20141010180000
449,"North Pumping Station, Zhangjiakou",,40.874362,114.910119,172,82,86,9,2,9,15,9,1019,59,5,20141010180000
450,"Hardware Warehouse, Zhangjiakou",,40.81232,114.887119,97,70,89,39,14,19,15,9,1019,59,5,20141010180000
451,"Tanji Chang, Zhangjiakou",,40.796301,114.89811,158,119,56,9,18,9,15,9,1019,59,5,20141010180000
1160,"Xiahuayuan EPA, Zhangjiakou",,40.509345,115.302442,307,265,92,13,8,13,15,9,1019,59,5,20141010180000
1161,"Huaian EPA, Zhangjiakou",,40.68157,114.398646,246,160,48,22,18,7,15,9,1019,59,5,20141010180000
1162,"Huailai Fuqian Primary School, Zhangjiakou",,40.422204,115.530285,284,164,36,21,4,9,15,9,1019,59,5,20141010180000
1269,"Zhangbei EPA , Zhangjiakou",,41.166775,114.732369,248,140,114,11,6,11,15,9,1019,59,5,20141010180000
1270,"Kangbao County Environmental Protection Agency , Zhangjiakou",,41.837866,114.591246,259,138,129,11,5,9,15,9,1019,59,5,20141010180000
1271,"Guyuan County welfare , Zhangjiakou",,41.669984,115.687401,273,146,74,16,6,11,15,9,1019,59,5,20141010180000
1272,"Shangyi County Environmental Protection Bureau , Zhangjiakou",,41.086638,113.984688,281,161,84,21,19,11,15,9,1019,59,5,20141010180000
1273,"Yuxian Secondary School , Zhangjiakou",,39.84699,114.601986,221,129,133,15,8,7,15,9,1019,59,5,20141010180000
1274,"Yang County Vocational Education Center , Zhangjiakou",,40.106343,114.134732,250,168,56,25,8,11,15,9,1019,59,5,20141010180000
1275,"Wan county Environmental Protection Agency , Zhangjiakou",,40.770459,114.75033,313,172,69,28,34,13,15,9,1019,59,5,20141010180000
473,"Nankou road, Tianjin",,39.174022,117.199688,172,126,16,22,3,19,13,13,1021,100,1,20141010180000
1276,"Zhuolu County Environmental Protection Agency , Zhangjiakou",,40.374273,115.221393,274,148,32,2,-,15,15,9,1019,59,5,20141010180000
452,Zhangjiakou,,40.825744,114.893659,172,119,86,9,18,9,15,9,1019,59,5,20141010180000
453,"Railway, Chengde",,40.917557,117.972331,250,170,12,31,5,21,10,10,1022,99,1,20141010180000
454,"Cultural Center, Chengde",,40.974625,117.824437,214,140,3,16,4,21,10,10,1022,99,1,20141010180000
455,"Bank of China, Chengde",,40.985582,117.958304,238,151,2,20,19,20,10,10,1022,99,1,20141010180000
456,"BDA, Chengde",,40.937567,117.969325,263,206,4,19,6,21,10,10,1022,99,1,20141010180000
457,"Ligong, Chengde",,41.012579,117.94428,300,195,8,7,3,17,10,10,1022,99,1,20141010180000
1163,"Chengde County EPA, Chengde",,40.776643,118.17646,282,230,20,23,1,32,10,10,1022,99,1,20141010180000
1164,"Xinglong County City Hall, Chengde",,40.424301,117.513488,227,129,22,13,5,41,10,10,1022,99,1,20141010180000
1165,"Luanping EPA, Chengde",,40.950792,117.350715,281,183,66,22,5,25,10,10,1022,99,1,20141010180000
1166,"Fengning County City Hall, Chengde",,41.216739,116.658037,267,161,108,1,9,15,10,10,1022,99,1,20141010180000
1277,"Longhua EPA , Chengde",,41.311956,117.739605,263,143,33,18,10,20,10,10,1022,99,1,20141010180000
458,Chengde,,40.955652,117.968737,300,206,12,31,19,21,10,10,1022,99,1,20141010180000
459,"Municipal EPB, Cangzhou",,38.323507,116.876746,181,101,28,24,9,5,13,13,1021,100,1,20141010180000
460,"Cangxian Urban Construction Bureau, Cangzhou",,38.299495,116.890734,185,105,16,25,9,9,13,13,1021,100,1,20141010180000
461,"TV Broadcast Station, Cangzhou",,38.325525,116.863761,175,91,28,22,22,2,13,13,1021,100,1,20141010180000
1167,"Qing County City Hall, Cangzhou",,38.589643,116.815876,189,93,26,10,4,0,13,13,1021,100,1,20141010180000
1168,"Poyoushi City Hall, Cangzhou",,38.089516,116.590575,232,148,12,28,6,8,13,13,1021,100,1,20141010180000
1169,"Huanghua Finance Bureau Training Center, Cangzhou",,38.377793,117.343356,192,107,36,14,4,2,13,13,1021,100,1,20141010180000
462,Cangzhou,,38.305035,116.844625,185,105,28,25,22,9,13,13,1021,100,1,20141010180000
463,"Environmental Monitoring Supervision Center, Langfang",,39.558157,116.720995,326,149,29,16,13,17,13,13,1021,100,1,20141010180000
464,"TCM Medical Material Company, Langfang",,39.519096,116.689914,278,157,19,18,11,21,13,13,1021,100,1,20141010180000
465,"BDA, Langfang",,39.576175,116.779041,326,202,12,41,19,17,13,13,1021,100,1,20141010180000
466,"North China Institute of Aerospace, Langfang",,39.53517,116.743027,288,183,17,34,14,23,13,13,1021,100,1,20141010180000
1170,"Guan Party School, Langfang",,39.446185,116.311026,282,171,42,28,11,18,13,13,1021,100,1,20141010180000
1171,"Xianghe EPA, Langfang",,39.76725,117.015252,307,184,48,33,7,16,13,13,1021,100,1,20141010180000
1172,"Wenan County EPA, Langfang",,38.880927,116.47001,222,128,49,19,11,12,13,13,1021,100,1,20141010180000
1173,"Three Rivers Department of Transportation, Langfang",,39.989419,117.091528,316,191,23,38,24,38,13,13,1021,100,1,20141010180000
1278,"Yongqing EPA , Langfang",,39.329071,116.510917,248,146,44,36,12,13,13,13,1021,100,1,20141010180000
1279,"Dacheng EPA, Langfang",,38.712628,116.665751,200,108,41,14,12,13,13,13,1021,100,1,20141010180000
467,Langfang,,39.539148,116.689668,326,202,29,41,19,23,13,13,1021,100,1,20141010180000
468,"Hengshui City EPB, Hengshui",,37.739679,115.695929,213,119,11,36,12,11,15,7,0,62,1,20141010180000
469,"Environmental Monitoring Station, Hengshui",,37.738593,115.648837,227,125,28,44,7,10,15,7,0,62,1,20141010180000
470,"Electrical Machine North Factory, Hengshui",,37.758686,115.70094,192,132,11,39,11,12,15,7,0,62,1,20141010180000
1174,"Anping EPA, Hengshui",,38.238559,115.537988,246,126,24,27,45,13,15,7,0,62,1,20141010180000
1175,"Jizhou EPA, Hengshui",,37.548552,115.58679,254,171,16,68,21,16,15,7,0,62,1,20141010180000
1280,"Zaoqiang EPA, Hengshui",,37.520698,115.714936,222,138,30,52,14,14,15,7,0,62,1,20141010180000
1281,"Wuyi EPA, Hengshui",,37.801554,115.898697,203,135,21,17,14,7,15,7,0,62,1,20141010180000
1282,"Wuqiang EPA , Hengshui",,38.03557,115.959767,215,138,12,1,18,16,15,7,0,62,1,20141010180000
1283,"Raoyang EPA , Hengshui",,38.230652,115.741041,258,178,25,20,15,11,15,7,0,62,1,20141010180000
1284,"Gucheng County , Hengshui",,37.347569,115.966707,200,113,37,53,17,11,15,7,0,62,1,20141010180000
471,Hengshui,,37.739562,115.676066,227,132,28,44,11,12,15,7,0,62,1,20141010180000
1176,"Xinji City Hall, Xinji",,37.949711,115.230084,244,162,14,51,51,18,15,7,0,62,1,20141010180000
474,"Qinjian street, Tianjin",,39.166588,117.15104,165,66,19,28,4,15,13,13,1020,100,1,20141010180000
475,"Nanjing Road, Tianjin",,39.120958,117.195112,169,121,30,11,6,9,13,13,1020,100,1,20141010180000
476,"Dazhigu No.8 road, Tianjin",,39.111811,117.25147,164,110,11,18,5,8,13,13,1020,100,1,20141010180000
477,"Qianjin street, Tianjin",,39.09371,117.207981,169,131,22,19,5,9,13,13,1020,100,1,20141010180000
478,"Huaihe street, Tianjin",,39.227167,117.191293,232,124,3,36,3,12,13,13,1020,100,1,20141010180000
479,"Xiangshan street, Tianjin",,39.134752,117.275125,193,112,12,16,3,15,13,13,1020,100,1,20141010180000
480,"Yuejin Road, Tianjin",,39.088177,117.320884,162,115,12,39,3,10,13,13,1020,100,1,20141010180000
482,"No.4 street, Tianjin",,39.035228,117.713424,144,59,59,46,6,10,13,13,1021,100,1,20141010180000
483,"Yongming road, Tianjin",,38.840392,117.463805,158,100,24,36,2,7,13,13,1021,100,1,20141010180000
484,"Xinhua street, Tianjin",,39.138671,117.010083,-,-,-,-,-,-,-,-,0,-,-,20141010180000
485,"Jingu Road, Tianjin",,38.985659,117.381254,-,-,-,-,-,-,-,-,0,-,-,20141010180000
486,"Tanggu Yingkou street, Tianjin",,39.021768,117.656454,-,-,-,-,-,-,-,-,0,-,-,20141010180000
487,"Hexi Yijing road, Tianjin",,39.248392,117.798043,-,-,-,-,-,-,-,-,0,-,-,20141010180000
488,"Jianshe Road, Tianjin",,39.720075,117.310588,-,-,-,-,-,-,-,-,0,-,-,20141010180000
489,"Quanzhou South road, Tianjin",,39.373857,117.050329,-,-,-,-,-,-,-,-,0,-,-,20141010180000
490,"Donghuan road, Tianjin",,40.043144,117.451062,-,-,-,-,-,-,-,-,0,-,-,20141010180000
491,"Tuanpowa, Tianjin",,38.920418,117.16299,160,133,21,21,4,23,13,13,1021,100,1,20141010180000
493,"Beiwei No.2 road, Tianjin",,38.943857,116.920624,-,-,-,-,-,-,-,-,0,-,-,20141010180000
494,"Haitai fazhan No.2 road, Tianjin",,39.079608,117.096583,-,-,-,-,-,-,-,-,0,-,-,20141010180000
495,"Hangtian road, Tianjin",,39.152244,117.381309,177,138,19,25,3,10,13,13,1021,100,1,20141010180000
496,"Hanbei road, Tianjin",,39.159768,117.770477,155,98,28,17,3,13,13,13,1021,100,1,20141010180000
497,"Baobai highway, Tianjin",,39.51757,117.349635,-,-,-,-,-,-,-,-,0,-,-,20141010180000
498,Tianjin,,39.085164,117.207281,169,131,30,19,6,9,13,13,1020,100,1,20141010180000
499,"Wolong bridge, Hangzhou",,30.24371,120.132762,158,63,28,19,10,7,20,16,1017,78,3,20141010180000
500,"Hemu primary school, Hangzhou",,30.309669,120.124507,161,63,31,20,23,8,20,16,1017,78,3,20141010180000
501,"Zhejiang Agricultural University, Hangzhou",,30.265601,120.197583,163,73,27,25,17,7,20,16,1017,78,3,20141010180000
502,"Xiasha, Hangzhou",,30.303516,120.352618,163,66,25,20,12,7,20,16,1017,78,3,20141010180000
503,"Yunqi, Hangzhou",,30.178555,120.093142,152,76,20,25,12,7,20,16,1017,78,3,20141010180000
504,"Xixi, Hangzhou",,30.272425,120.068144,162,59,24,22,12,7,20,16,1017,78,3,20141010180000
505,"Chengxiang town, Hangzhou",,30.179493,120.274184,147,61,27,21,14,8,20,16,1017,78,3,20141010180000
506,"Qiandao lake, Hangzhou",,29.638139,119.031092,114,52,69,4,6,4,20,16,1017,78,3,20141010180000
507,"Linping town, Hangzhou",,30.415948,120.305059,160,60,35,14,15,7,20,16,1017,78,3,20141010180000
509,"No.2 Middle School, Hangzhou",,30.044303,119.956356,157,87,23,13,8,8,20,16,1017,78,3,20141010180000
510,"City Hall, Hangzhou",,30.234185,119.723503,151,73,76,9,7,6,20,16,1017,78,3,20141010180000
511,"No. 4 middle school, Hangzhou",,30.229428,119.699591,142,65,-,1,10,7,20,16,1017,78,3,20141010180000
512,Hangzhou,,30.271756,120.159765,171,76,36,25,23,8,21,16,1017,73,4,20141010180000
513,"City Station, Wenzhou",,28.009715,120.679129,93,47,8,28,9,5,19,17,0,93,4,20141010180000
514,"Ouhai, Wenzhou",,28.001846,120.641982,89,42,10,25,5,7,19,17,0,93,4,20141010180000
515,"Longwan, Wenzhou",,27.968122,120.768393,91,51,9,32,9,7,19,17,0,93,4,20141010180000
516,"Nanpu, Wenzhou",,27.981763,120.683685,89,48,8,20,4,9,19,17,0,93,4,20141010180000
517,Wenzhou,,27.990985,120.703425,129,63,12,32,9,9,19,17,0,93,4,20141010190000
518,"Monitoring station, Jiaxing",,30.75437,120.767373,152,65,36,11,11,8,19,18,1017,94,3,20141010190000
519,"Jiaxing University, Jiaxing",,30.745099,120.735004,153,65,43,12,9,6,19,18,1017,94,3,20141010190000
520,"Qinghe Primary School, Jiaxing",,30.775685,120.747969,137,68,41,5,9,7,20,18,1017,88,3,20141010190000
521,Jiaxing,,30.751627,120.762862,153,65,43,12,11,8,20,18,1017,88,3,20141010190000
522,"Chengbei water plant, Huzhou",,30.891155,120.096593,97,50,42,10,6,7,19,17,1016,88,3,20141010190000
523,"Jishan new village, Huzhou",,30.859939,120.120168,119,52,45,8,6,6,19,17,1016,88,3,20141010190000
524,"Town west water plant, Huzhou",,30.862371,120.084577,93,55,45,10,6,5,19,17,1016,88,3,20141010190000
525,Huzhou,,30.892304,120.091694,119,55,45,10,6,7,19,17,1016,88,3,20141010190000
526,"Donghu middle school, Shaoxing",,29.990447,120.647547,167,0,30,22,16,16,20,16,1017,78,3,20141010190000
527,"City EPA station, Shaoxing",,30.001695,120.584318,147,65,37,27,28,5,20,16,1017,78,3,20141010190000
528,"Chengdong BDA committee, Shaoxing",,29.986643,120.613578,142,65,31,25,19,4,20,16,1017,78,3,20141010190000
529,"Paojiang station, Shaoxing",,30.07574,120.62154,164,87,33,31,34,7,20,16,1017,78,3,20141010190000
530,"Shaoxing technical school, Shaoxing",,29.930983,120.577131,97,76,7,14,5,10,20,16,1017,78,3,20141010190000
531,"Library, Shaoxing",,29.706266,120.253183,151,80,14,15,15,12,20,16,1017,78,3,20141010190000
532,"Transporation management station, Shaoxing",,29.726405,120.221602,152,90,15,37,10,11,20,16,1017,78,3,20141010190000
533,"Dongpu Town Governement, Shaoxing",,30.049601,120.539893,269,222,24,29,15,8,20,16,1017,78,3,20141010190000
534,Shaoxing,,29.993122,120.590182,147,65,37,27,28,5,-,-,0,-,-,20141010190000
535,"City Monitoring Station, Jinhua",,29.100031,119.690373,152,74,9,24,8,7,18,18,0,98,2,20141010190000
536,"No.15 middle school, Jinhua",,29.074022,119.652121,156,73,14,21,10,7,18,18,0,98,2,20141010190000
537,"No.4 middle school, Jinhua",,29.110109,119.653654,164,92,9,29,17,7,18,18,0,98,2,20141010190000
538,"Beiyuan, Jinhua",,29.332898,120.083351,151,68,20,20,24,12,18,18,0,98,2,20141010190000
539,"Jiangdong, Jinhua",,29.302486,120.095291,162,75,20,26,22,11,18,18,0,98,2,20141010190000
540,Jinhua,,29.076083,119.65215,164,92,14,29,17,7,18,18,0,98,2,20141010190000
541,"EPA building, Quzhou",,28.937291,118.876081,137,56,16,16,19,7,19,18,1016,90,2,20141010190000
542,"Experimental school, Quzhou",,28.961502,118.880916,153,70,17,22,41,6,19,18,1016,90,2,20141010190000
543,"Quzhou University, Quzhou",,28.971452,118.860052,154,73,9,22,7,8,19,18,1016,90,2,20141010190000
544,Quzhou,,28.966994,118.864252,154,73,17,22,41,8,19,18,1016,90,2,20141010190000
545,"Putuo east port, Zhoushan",,29.951412,122.317679,65,31,49,1,3,3,21,19,1015,88,3,20141010190000
546,"Dinghai tanfeng, Zhoushan",,30.018014,122.126566,59,32,48,2,4,10,21,19,1015,88,3,20141010190000
547,Zhoushan,,29.983049,122.210763,70,37,49,2,4,10,21,19,1015,88,3,20141010190000
548,"Taizhou EPA building, Taizhou",,28.651216,121.42331,70,28,35,4,3,5,20,19,0,93,4,20141010190000
549,"Luqiao Tian Yang Wang, Taizhou",,28.574364,121.381194,85,37,30,3,3,3,20,19,0,93,4,20141010190000
550,"Huangyan EPA building, Taizhou",,28.656151,121.285064,89,37,17,4,1,12,20,19,0,93,4,20141010190000
551,"Yu Zhuang Qian, Lishui",,28.419638,119.883884,152,64,9,19,4,6,20,18,1017,88,0,20141010190000
552,"Monitoring station building, Lishui",,28.444379,119.923103,153,64,4,12,9,6,20,18,1017,88,0,20141010190000
553,"Liandu primary school, Lishui",,28.450912,119.939332,162,72,3,22,7,8,20,18,1017,88,0,20141010190000
554,Lishui,,28.464224,119.927201,162,72,9,22,9,8,20,18,1017,88,0,20141010190000
1248,Jingningxian,,27.977454,119.634837,87,48,4,12,2,9,20,18,1017,88,0,20141010190000
555,Taigu Primary School,,29.864178,121.60022,72,37,37,8,10,4,21,19,1015,88,3,20141010190000
556,Qianhu shuihan,,29.862459,121.5328,80,39,32,6,4,6,21,19,1015,88,3,20141010190000
557,Sanjiang secondary schools,,29.891563,121.568427,85,40,41,10,9,7,21,19,1015,88,3,20141010190000
558,Longsai Hospital,,29.957301,121.726734,63,25,46,4,6,4,21,19,1015,88,3,20141010190000
559,Beilun District EPB,,29.911633,121.850773,72,39,35,8,3,4,21,19,1015,88,3,20141010190000
560,Wanli University,,29.821314,121.574364,76,35,42,8,3,5,21,19,1015,88,3,20141010190000
561,Qianhu water plant,,29.774416,121.648136,74,35,35,9,4,5,21,19,1015,88,3,20141010190000
562,Municipal management station,,29.899182,121.626691,109,51,37,10,6,6,21,19,1015,88,3,20141010190000
1177,Daxie Literary Museum,,29.9027,121.986447,74,29,39,3,3,5,21,19,1015,88,3,20141010190000
1178,Cixi EPB,,30.165807,121.248991,93,41,48,6,3,9,21,19,1015,88,3,20141010190000
1179,Cixi Experimently Primary School,,30.179808,121.268672,97,51,50,7,4,6,21,19,1015,88,3,20141010190000
1180,"Yongsan Park, Yuyao",,30.050842,121.162477,99,55,45,9,4,7,21,19,1015,88,3,20141010190000
1181,"Qilupu Water Company, Yuyao",,30.039112,121.133416,109,50,45,16,7,6,21,19,1015,88,3,20141010190000
1182,Fenghua EPB,,29.666557,121.42069,74,34,42,5,5,6,21,19,1015,88,3,20141010190000
1183,"Yuelong station, Ninghai",,29.296505,121.445872,78,36,33,6,4,5,21,19,1015,88,3,20141010190000
1184,"Wenfeng Primary School, Xiangshan",,29.470908,121.889544,68,34,35,7,4,4,21,19,1015,88,3,20141010190000
1185,"Chengnan Primary School, Ninghai",,29.293812,121.43666,76,31,38,5,4,6,21,19,1015,88,3,20141010190000
1186,"Xingang Primary School, Xiangshan",,29.203878,121.952514,61,33,39,2,3,4,21,19,1015,88,3,20141010190000
1356,Haishu City Monitoring Center,,29.86835,121.539341,80,40,33,6,4,6,21,19,1015,88,3,20141010190000
1357,Fenghua Xikou government,,29.693164,121.29331,65,26,43,4,3,5,21,19,1015,88,3,20141010190000
1294,Ningbo,,29.865766,121.548164,109,51,46,10,10,7,21,19,1015,88,3,20141010190000
1187,Fuyang,,30.046157,119.96468,157,87,23,13,8,8,-,-,0,-,-,20141010190000
1188,Yiwu,,29.304353,120.079794,162,75,20,26,24,12,-,-,0,-,-,20141010190000
1189,Zhuji,,29.711185,120.240748,152,90,15,37,15,12,20,16,1017,78,3,20141010190000
563,"Shanxi Road , Nanjing",,32.06795,118.779216,158,91,28,27,3,4,18,17,1018,94,2,20141010190000
564,"Ruijin Road , Nanjing",,32.029321,118.80817,160,74,18,20,16,5,18,17,1018,94,2,20141010190000
565,"Xuanwu Lake, Nanjing",,32.075423,118.800188,164,91,19,44,4,4,18,17,1018,94,2,20141010190000
566,"Olympic Center, Nanjing",,32.007171,118.742217,155,77,30,9,5,7,18,17,1018,94,2,20141010190000
567,"Xianlin University Town , Nanjing",,32.106958,118.919882,132,69,33,30,4,5,18,17,1018,94,2,20141010190000
568,Nanjing,,32.058179,118.802061,158,93,36,32,12,4,18,16,1018,88,2,20141010190000
569,"Shangfang hill , Suzhou",,31.24502,120.565211,149,54,41,13,7,5,19,17,1016,88,3,20141010190000
570,"Wuzhong District , Suzhou",,31.268105,120.61717,142,42,38,14,8,6,19,17,1016,88,3,20141010190000
571,"Suzhou New District , Suzhou",,31.297277,120.547262,151,52,38,23,13,6,19,17,1016,88,3,20141010190000
572,"Suzhou Industrial Area, Suzhou",,31.307603,120.673257,153,56,46,17,10,5,19,17,1016,88,3,20141010190000
573,"Xiangcheng district, Suzhou",,31.368674,120.645209,154,56,48,15,18,7,19,17,1016,88,3,20141010190000
574,Suzhou,,31.296701,120.589493,155,52,46,14,11,5,19,17,1016,88,3,20141010190000
575,"South suburb , Nantong",,31.957836,120.917218,149,54,99,10,8,3,18,16,1003,91,3,20141010190000
576,"Xinghu park, Nantong",,31.927873,120.944254,154,58,80,16,10,6,18,16,1003,91,3,20141010190000
577,"Zilang school, Nantong",,32.039638,120.814358,134,58,53,12,6,0,18,16,1003,91,3,20141010190000
578,Nantong,,31.978005,120.898555,154,63,99,16,11,10,18,16,1003,91,3,20141010190000
579,Lianyungang,,34.595509,119.226814,152,84,21,27,10,7,8,8,1016,96,0,20141010190000
580,"Hongmen police substation, Lianyungang",,34.588692,119.146693,127,78,26,33,7,6,15,14,1021,97,0,20141010190000
581,"Xugou Nuclear Expert Village , Lianyungang",,34.749957,119.373707,109,73,22,38,9,8,15,14,1021,97,0,20141010190000
582,"Hengrui pharmaceutical company, BDA, Lianyungang",,34.697574,119.353668,89,66,25,36,5,6,15,14,1021,97,0,20141010190000
583,"City Monitoring Station, Lianyungang",,34.586791,119.186929,162,78,28,32,6,7,15,14,1021,97,0,20141010190000
584,"Yellow river new village , Xuzhou",,34.271542,117.177241,95,52,18,20,6,7,18,14,1021,73,2,20141010190000
585,"Tongshan Veterinary Hospital , Xuzhou",,34.307086,117.197766,97,64,26,15,2,4,15,13,1020,87,0,20141010190000
586,"New Town , Xuzhou",,34.213992,117.261718,91,61,27,9,3,4,15,13,1020,87,0,20141010190000
587,"Taoyuan road, Xuzhou",,34.289822,117.249721,114,61,27,8,3,8,18,14,1021,73,2,20141010190000
588,"Agricultural Science Academy , Xuzhou",,34.27655,117.299079,72,53,6,12,5,3,15,13,1020,87,0,20141010190000
589,"Tongshan EPA, Xuzhou",,34.179384,117.171798,70,53,2,2,6,4,18,14,1021,73,2,20141010190000
590,Xuzhou,,34.20346,117.289825,124,54,28,20,6,8,15,13,1020,87,0,20141010190000
591,Yangzhou,,32.39233,119.418446,159,69,10,19,10,5,11,9,0,90,6,20141010190000
592,"Hanjiang Monitoring Station, Yangzhou",,32.374218,119.394484,91,49,31,6,6,3,15,14,0,89,3,20141010190000
593,"No. 4 Hospital, Yangzhou",,32.401394,119.44444,13,52,39,5,15,4,16,14,0,87,3,20141010190000
594,"City Monitoring Station, Yangzhou",,32.406588,119.41591,114,54,35,12,18,4,16,14,0,87,3,20141010190000
595,"University Town , Wuxi",,31.484752,120.273571,142,66,48,8,15,6,19,17,1016,88,3,20141010190000
596,"Shibei High School , Wuxi",,31.619969,120.279584,168,83,40,20,20,10,19,17,1016,88,3,20141010190000
597,"Yuhong Elementary School , Wuxi",,31.561155,120.249588,155,72,49,12,15,9,19,17,1016,88,3,20141010190000
598,Wuxi,,31.488746,120.31575,155,64,49,26,38,8,-,-,0,-,-,20141010190000
599,Changzhou,,31.808037,119.979205,172,86,6,22,36,13,11,9,0,88,5,20141010190000
600,"Chengjian School, Changzhou",,31.776476,119.937681,144,66,49,12,11,4,16,15,1003,89,3,20141010190000
601,"Changzhou Engineering Institute , Changzhou",,31.806828,119.966724,144,58,58,10,9,6,17,15,1003,88,3,20141010190000
602,"Wujin Monitoring Station, Changzhou",,31.701788,119.939676,152,59,41,23,5,7,17,15,1003,88,3,20141010190000
603,"City Monitoring Station, Changzhou",,31.777201,119.979426,152,57,65,12,6,6,16,15,1003,89,3,20141010190000
604,Zhenjiang,,32.18597,119.431281,170,79,4,39,15,13,9,8,0,93,5,20141010190000
605,"New District Administrative office , Zhenjiang",,32.186174,119.685021,137,57,48,12,5,9,18,17,1018,94,2,20141010190000
606,"Vocational Education Center , Zhenjiang",,32.212973,119.496253,122,52,30,15,4,9,18,17,1018,94,2,20141010190000
607,"Dantu Monitoring Station , Zhenjiang",,32.130026,119.435432,117,48,34,20,10,6,18,17,1018,94,2,20141010190000
608,"City Monitoring Station, Zhenjiang",,32.202178,119.439766,127,54,36,15,9,13,17,16,1018,94,2,20141010190000
609,"Gaogang Adminstrative office , Taizhoushi",,32.300768,119.886757,155,70,42,8,11,6,15,14,0,89,3,20141010190000
610,"Students Innovation Park , Taizhoushi",,32.461672,119.892761,163,-,35,8,21,3,16,14,0,87,3,20141010190000
611,Taizhoushi,,32.453555,119.927852,156,80,42,20,24,7,15,14,0,89,3,20141010190000
612,"Yancheng power station , Yancheng",,33.400859,120.123067,127,52,33,12,7,4,-,-,0,-,-,20141010190000
613,Yancheng,,33.345939,120.168504,144,52,30,5,3,7,11,10,1016,95,4,20141010190000
614,"Wenfeng Middle School , Yancheng",,33.370531,120.134041,112,49,18,19,25,5,-,-,0,-,-,20141010190000
615,"BDA Management Committe, Yancheng",,33.393191,120.22978,95,36,31,12,5,3,-,-,0,-,-,20141010190000
616,"City Monitoring Station, Yancheng",,33.390623,120.164423,129,62,31,13,3,4,15,14,0,89,3,20141010190000
617,Suqian,,33.960666,118.281004,160,87,24,7,5,7,11,10,0,91,6,20141010190000
618,"Suqian College , Suqian",,33.951472,118.298523,93,50,35,26,8,5,14,13,0,91,2,20141010190000
619,"Suqian Middle School , Suqian",,33.95784,118.249505,89,60,27,26,3,2,15,13,0,89,2,20141010190000
620,"Suyu District Environmental Protection Agency , Suqian",,33.94932,118.326569,109,56,42,4,5,6,15,13,0,89,2,20141010190000
621,"City Monitoring Station, Suqian",,33.956982,118.277022,104,39,24,5,6,5,14,13,0,91,2,20141010190000
622,Taizhou,,28.653436,121.425185,89,37,35,4,3,12,20,19,0,93,4,20141010190000
623,Donghu Liyuan,,30.572324,114.377844,165,94,39,18,24,9,17,15,1017,88,2,20141010190000
624,Yuehu Lake,,30.554662,114.256937,157,70,32,51,6,6,17,15,1017,88,2,20141010190000
625,Hankou Huaqiao ,,30.61724,114.287652,152,70,44,22,10,8,17,15,1017,88,2,20141010190000
626,Wuchang Ziyang ,,30.530801,114.309438,161,86,24,30,12,7,17,15,1017,88,2,20141010190000
627,Qingshan Ganghua,,30.622435,114.375599,159,65,33,32,9,7,17,15,1017,88,2,20141010190000
628,Dunkou Xinou,,30.480091,114.162176,158,83,27,33,9,8,17,15,1017,88,2,20141010190000
629,Donghu Gaoxin,,30.48095,114.40724,163,95,32,28,6,9,17,15,1017,88,2,20141010190000
630,Wujianshan,,30.63114,114.135907,155,71,37,33,1,10,17,15,1017,88,2,20141010190000
631,Yuanshun Road,,30.297142,113.858587,154,67,74,8,2,6,17,15,1017,88,2,20141010190000
632,Wuhan,,30.590689,114.310838,165,94,44,51,24,7,17,15,1017,88,2,20141010190000
1190,"Silingsan Factory, Yichang",,30.713288,111.306585,1,1,17,0,0,7,17,14,1018,77,1,20141010190000
633,Yichang,,30.689528,111.292131,1,1,23,0,0,11,17,14,1018,77,1,20141010190000
633,Yichang,,30.689528,111.292131,1,1,23,0,0,11,17,14,1018,77,1,20141010190000
1191,"City Library , Jingzhou",,30.31494,112.260844,1,1,21,0,0,8,17,14,1018,83,2,20141010190000
1192,"City committee communist party school, Jingzhou",,30.35054,112.20743,1,1,25,0,0,15,17,14,1018,83,2,20141010190000
1193,"kerong EPA, Jingzhou",,30.302965,112.29443,1,1,46,0,0,10,17,14,1018,83,2,20141010190000
634,Jingzhou,,30.332608,112.245451,1,1,25,0,0,15,17,14,1018,83,2,20141010190000
634,Jingzhou,,30.332608,112.245451,1,1,25,0,0,15,17,14,1018,83,2,20141010190000
635,Huangshi,,30.19723,115.043908,163,81,34,30,14,29,17,15,1019,92,3,20141010190000
635,Huangshi,,30.19723,115.043908,163,81,34,30,14,29,17,15,1019,92,3,20141010190000
1194,"Chenjiaying, Huangshi",,30.232823,115.067923,155,80,20,13,1,29,17,,1019,92,3,20141010190000
1195,"Chenjiawan , Huangshi",,30.200422,115.082138,155,80,28,17,5,22,17,,1019,92,3,20141010190000
1196,"Xinxialu, Huangshi",,30.17332,114.954357,157,81,34,18,14,22,17,,1019,92,3,20141010190000
1197,"Tie montian, Huangshi",,30.203885,114.906439,163,73,24,30,1,19,17,,1019,92,3,20141010190000
1198,"BDA, Huangshi",,30.207491,115.031739,161,76,30,1,8,25,17,,1019,92,3,20141010190000
636,Shiyan,,32.627208,110.803311,201,125,15,17,10,5,9,,1020,90,1,20141010190000
636,Shiyan,,32.627208,110.803311,201,125,15,17,10,5,9,,1020,90,1,20141010190000
1199,"Wudang Mountain , Shiyan",,32.392921,111.047655,178,82,20,4,3,7,9,,,90,1,20141010190000
1200,"Riverside Village , Shiyan",,32.647286,110.785335,201,112,7,17,1,5,9,,,90,1,20141010190000
1201,"Liujiagou , Shiyan",,32.636732,110.731129,194,105,10,9,10,3,9,,,90,1,20141010190000
637,Xiangyang,,32.007029,112.128496,386,171,16,10,9,18,12,,1020,85,1,20141010190000
638,Ezhou,,30.389244,114.899884,159,88,32,18,19,11,17,15,1027,97,1,20141010190000
638,Ezhou,,30.389244,114.899884,159,88,32,18,19,11,17,15,1027,97,1,20141010190000
1203,"City government, Ezhou",,30.391836,114.892822,153,59,28,13,5,11,17,,1027,97,1,20141010190000
1204,"Zhaojiaba, Ezhou",,30.368966,114.90365,161,78,30,6,1,10,17,,1027,97,1,20141010190000
1205,"Fankou BDA, Ezhou",,30.410759,114.818225,159,88,32,18,19,9,17,,1027,97,1,20141010190000
639,Jingmen,,31.033208,112.205093,243,126,27,16,18,10,13,14,1013,89,2,20141010190000
639,Jingmen,,31.033208,112.205093,243,126,27,16,18,10,13,14,1013,89,2,20141010190000
640,Xiaogan,,30.922089,113.922387,155,80,49,9,8,10,21,16,1016,73,4,20141010190000
640,Xiaogan,,30.922089,113.922387,155,80,49,9,8,10,21,16,1016,73,4,20141010190000
1206,"wenhua street, Shenyang , Xiaogan",,30.925856,113.92104,155,80,49,9,8,10,21,15,1016,73,4,20141010190000
641,Huanggang,,30.45124,114.877378,134,62,45,16,13,12,17,15,1027,97,1,20141010190000
641,Huanggang,,30.45124,114.877378,134,62,45,16,13,12,17,15,1027,97,1,20141010190000
1208,"Dazhou Island, Huanggang",,30.446205,114.900323,134,62,40,16,13,9,17,,1027,97,1,20141010190000
1209,"Workers Center , Huanggang",,30.469244,114.912504,132,52,45,6,5,12,17,,1027,97,1,20141010190000
642,Xianning,,29.838978,114.327898,155,76,43,16,42,20,14,15,991,93,1,20141010190000
642,Xianning,,29.838978,114.327898,155,76,43,16,42,20,14,15,991,93,1,20141010190000
1210,"Municipal Development and Reform Commission , Xianning",,29.818645,114.328461,153,72,36,9,42,20,14,,991,93,1,20141010190000
1211,"Xianan District Governement, Xianning",,29.51107,114.181864,153,73,5,6,5,21,13,,1000,92,1,20141010190000
1212,"Yangtze River Industrial Park , Xianning",,29.883098,114.32909,154,74,43,10,11,16,14,,991,93,1,20141010190000
1213,"Qianshan Park, Xianning",,29.815351,114.328689,155,76,29,16,12,11,14,,991,93,1,20141010190000
643,Suizhou,,31.688342,113.388675,187,117,36,10,8,15,13,,1014,89,3,20141010190000
643,Suizhou,,31.688342,113.388675,187,117,36,10,8,15,13,,1014,89,3,20141010190000
1338,"City committee communist party school, Suizhou",,31.725316,113.3648,188,124,45,12,1,10,13,,1014,89,3,20141010190000
1339,"Forestry Bureau, Suizhou",,31.690065,113.383157,187,102,38,16,5,13,13,,1014,89,3,20141010190000
645,Xiantao,,30.360228,113.460616,170,97,47,13,7,12,15,15,1027,91,3,20141010190000
645,Xiantao,,30.360228,113.460616,170,97,47,13,7,12,15,15,1027,91,3,20141010190000
1214,"Xiangcheng Yundong Street, Xiangfan",,32.017716,112.16102,389,157,20,17,12,13,12,,1020,85,1,20141010190000
1359,"Fancheng Xinhua Road , Xiangfan",,32.0544,112.145224,382,184,13,3,6,23,12,,1020,85,1,20141010190000
655,"City Environmental Monitoring Station, Baotou",,40.657201,109.886738,253,225,22,5,4,8,,,0,,,20141010190000
656,"Donghe EPB, Baotou",,40.586213,110.002224,151,425,16,14,7,10,,,0,,,20141010190000
657,"Baotou shopping mall, Baotou",,40.508334,109.819085,202,203,19,5,8,7,,,0,,,20141010190000
658,"Huilong logistics, Baotou",,40.633436,109.879821,250,404,18,11,5,2,,,0,,,20141010190000
659,Baotou,,40.658597,109.846051,321,656,24,8,6,9,7,6,0,85,3,20141010190000
660,"Huatai Automobile Mall, Eerduosi",,39.837048,109.972209,152,81,81,4,2,3,6,5,1021,85,3,20141010190000
661,"Olympus Garden, Eerduosi",,39.789171,109.987742,147,69,48,4,2,6,6,5,1021,85,3,20141010190000
662,Eerduosi,,39.609284,109.78704,152,81,81,4,3,6,6,5,1021,85,3,20141010190000
663,"Tianyi Road, Chifeng",,42.275552,118.88507,198,138,46,3,19,10,13,8,1019,64,3,20141010190000
664,"Songshan No.1 Middle School, Chifeng",,42.329307,118.793045,212,159,32,17,11,8,13,8,1019,64,3,20141010190000
665,"Hada Street, Chifeng",,42.280714,118.988235,200,159,27,13,51,7,13,8,1019,64,3,20141010190000
666,"Songshan Road, Chifeng",,42.171487,118.89501,241,219,46,7,14,9,13,8,1019,64,3,20141010190000
667,Chifeng,,42.259752,118.893027,241,219,46,17,51,10,13,8,1019,64,3,20141010190000
674,Fuzhou,,26.071406,119.301294,57,25,33,8,3,5,24,17,1011,65,6,20141010190000
675,"Xidong, Xiamen",,24.815345,118.161848,50,16,45,5,3,4,25,16,1010,57,6,20141010190000
676,"Hongwen, Xiamen",,24.473969,118.156281,59,30,46,6,2,4,25,16,1010,57,6,20141010190000
677,"Gulangyu, Xiamen",,24.443168,118.068571,55,19,40,4,2,4,25,16,1010,57,6,20141010190000
678,"Huli, Xiamen",,24.51235,118.099146,65,27,31,2,1,3,25,16,1010,57,6,20141010190000
679,Xiamen,,24.477187,118.094402,65,27,40,4,2,4,-,-,0,-,-,20141010190000
680,"Qingyuan Montain, Quanzhou",,24.939503,118.598337,46,13,23,1,1,3,25,16,1010,57,6,20141010190000
681,"Tushan Street, Quanzhou",,24.90867,118.586397,46,20,36,6,1,3,25,16,1010,57,6,20141010190000
682,"Wanan, Quanzhou",,24.304154,118.070903,55,18,83,5,3,3,25,16,1010,57,6,20141010190000
683,Quanzhou,,24.87179,118.68001,57,20,83,6,3,3,25,16,1010,57,6,20141010190000
687,"Jiancaoping, Taiyuan",,37.887889,112.528383,253,182,33,12,11,14,15,10,1021,72,4,20141010190000
688,"Jianhe, Taiyuan",,37.910779,112.579258,278,283,15,21,10,15,15,10,1021,72,4,20141010190000
689,"Shanglan, Taiyuan",,38.011589,112.440679,235,131,28,12,10,15,15,10,1021,72,4,20141010190000
690,"Jinyuan, Taiyuan",,37.713164,112.475552,241,154,32,15,24,11,15,10,1021,72,4,20141010190000
691,"Xiaodian, Taiyuan",,37.782137,112.483533,248,145,16,6,29,12,15,10,1021,72,4,20141010190000
692,"Taoyuan, Taiyuan",,37.869752,112.543332,276,163,22,32,10,17,15,10,1021,72,4,20141010190000
693,"Wucheng, Taiyuan",,37.819998,112.576252,320,226,25,19,9,19,15,10,1021,72,4,20141010190000
694,"Nanzhai, Taiyuan",,37.985902,112.555312,240,158,31,6,8,16,15,10,1021,72,4,20141010190000
695,"Jinsheng, Taiyuan",,37.781205,112.494494,207,150,38,17,21,13,15,10,1021,72,4,20141010190000
696,Taiyuan,,37.871115,112.555178,276,182,33,32,11,17,-,-,0,-,-,20141010190000
697,"Monitoring station, Changzhi",,36.194062,113.10389,227,140,30,24,28,18,13,13,0,100,1,20141010190000
698,"Auditing bureau, Changzhi",,36.212787,113.095221,263,139,27,21,10,16,13,13,0,100,1,20141010190000
699,"Qinghua station, Changzhi",,36.154328,113.116385,231,120,25,31,9,19,13,13,0,100,1,20141010190000
700,"No.8 middle school, Changzhi",,36.185451,113.099481,289,151,29,12,22,22,,,0,,,20141010190000
701,Changzhi,,36.195553,113.12292,289,151,29,21,22,22,13,11,0,79,3,20141010190000
702,"Yungang Hotel, Datong",,40.076997,113.278079,164,73,31,8,5,7,11,9,1018,86,1,20141010190000
703,"college of education, Datong",,40.085608,113.27808,175,76,24,12,3,10,11,9,1018,86,1,20141010190000
704,Datong,,40.078016,113.307143,196,147,36,14,12,19,11,9,1018,86,1,20141010190000
705,"Technical Schools, Linfen",,36.07131,111.509046,-,-,-,-,-,-,-,-,0,-,-,20141010200000
706,"Municipal party committee, Linfen",,36.087425,111.508771,137,57,11,2,8,19,10,8,0,88,1,20141010200000
1073,"City Monitoring Station, Linfen",,36.097676,111.518739,163,79,16,14,8,20,10,8,0,88,1,20141010200000
707,"South Airport, Linfen",,36.041614,111.497968,169,72,6,17,9,21,10,8,0,88,1,20141010200000
708,Linfen,,36.087944,111.525098,169,79,11,17,11,26,10,8,0,88,1,20141010200000
709,"City center, Yangquan",,37.848012,113.578636,289,230,36,29,10,10,15,10,1021,72,4,20141010200000
710,Yangquan,,37.857475,113.586921,251,230,31,64,28,21,15,10,1021,72,4,20141010200000
711,"Water Company, Jincheng",,35.504787,112.857245,152,99,18,16,6,12,13,11,1021,79,3,20141010200000
712,"Baiyun shopping mall, Jincheng",,35.492858,112.841566,188,110,14,12,15,12,13,11,1021,79,3,20141010200000
713,"City EPA, Jincheng",,35.488422,112.858528,34,81,6,28,16,13,13,11,1021,79,3,20141010200000
714,"Institute of Technology, Jincheng",,35.484844,112.878073,119,142,27,41,17,12,13,11,1021,79,3,20141010200000
715,"No.1 middle school, Jincheng",,35.478725,112.838636,91,83,18,17,20,8,13,11,1021,79,3,20141010200000
716,Jincheng,,35.490287,112.85794,188,142,27,41,20,13,13,11,1021,79,3,20141010200000
718,"District Government, Shuozhou",,39.320857,112.430641,192,115,44,19,23,15,16,10,1020,63,1,20141010200000
719,"City EPA, Shuozhou",,39.331495,112.407997,192,90,44,12,13,15,16,10,1020,63,1,20141010200000
720,"No.2 middle school, Shuozhou",,39.377963,112.432877,182,80,41,10,10,14,16,10,1020,63,1,20141010200000
721,Shuozhou,,39.332756,112.439672,192,127,44,15,26,15,16,10,1020,63,1,20141010200000
722,"Jinlun compound, Jinzhong",,37.697891,112.771017,178,95,33,7,11,11,15,10,1021,72,4,20141010200000
723,"Hydraulic Component Factory, Jinzhong",,37.688355,112.725844,188,106,24,17,19,12,15,10,1021,72,4,20141010200000
724,"Nandu compound, Jinzhong",,37.713148,112.732036,192,109,10,6,6,11,15,10,1021,72,4,20141010200000
725,"Yuci district government, Jinzhong",,37.698228,112.714167,190,103,20,6,7,10,15,10,1021,72,4,20141010200000
726,Jinzhong,,37.687705,112.759187,192,109,33,17,19,12,15,10,1021,72,4,20141010200000
727,"Yuncheng Middle School, Yuncheng",,35.012345,111.003215,142,73,54,8,17,14,17,12,1019,63,4,20141010200000
728,"Yudou BDA, Yuncheng",,35.05065,111.029571,154,77,36,5,5,2,17,12,1019,63,4,20141010200000
730,"Regional Technical School, Yuncheng",,35.028727,110.974076,161,66,45,6,9,11,17,12,1019,63,4,20141010200000
731,"Airport new district, Yuncheng",,35.084515,111.05339,160,72,34,6,11,18,17,12,1019,63,4,20141010200000
732,Yuncheng,,35.025675,111.013344,161,77,54,8,17,18,-,-,0,-,-,20141010200000
733,"Jiyin, Xinzhou",,38.413292,112.742432,-,156,-,20,10,-,15,10,1021,72,4,20141010200000
734,"BDA, Xinzhou",,38.450069,112.736723,242,132,17,2,14,11,15,10,1021,72,4,20141010200000
735,"Convention Center, Xinzhou",,38.492043,112.709772,317,171,21,7,14,18,15,10,1021,72,4,20141010200000
736,Xinzhou,,38.417244,112.740742,317,171,21,20,14,18,15,10,1021,72,4,20141010200000
737,"City EPA, Luliang",,37.522189,111.144365,203,91,10,33,19,25,15,14,0,87,3,20141010200000
738,"Soybean factory, Luliang",,37.51689,111.135101,206,151,7,44,20,32,15,14,0,87,3,20141010200000
739,"Water Company, Luliang",,37.53394,111.138834,192,149,16,31,11,29,15,14,0,87,3,20141010200000
740,Luliang,,25.027007,103.668566,206,151,16,44,20,32,15,14,0,87,3,20141010200000
741,"City government, Sanmenxia",,34.776251,111.198781,183,94,16,29,9,7,17,12,1019,63,4,20141010200000
743,"BDA, Sanmenxia",,34.800434,111.204332,174,98,10,17,17,7,17,12,1019,63,4,20141010200000
744,Sanmenxia,,34.771506,111.206129,188,106,22,29,19,13,17,12,1019,63,4,20141010200000
745,"Food Factory, Changchun",,43.919094,125.329521,270,154,7,25,12,16,9,0,1021,54,4,20141010200000
746,"Bus Factory, Changchun",,43.912337,125.293431,275,186,5,30,9,14,9,0,1021,54,4,20141010200000
747,"Institute of Posts and Telecommunications, Changchun",,43.842368,125.285005,236,138,28,32,8,15,9,0,1021,54,4,20141010200000
748,"Laodong Park, Changchun",,43.877293,125.371519,217,175,5,38,11,17,9,0,1021,54,4,20141010200000
749,"Forest area, Changchun",,43.871825,125.331519,239,180,4,32,10,19,9,0,1021,54,4,20141010200000
750,"Jinyuetan, Changchun",,43.79031,125.460561,248,126,12,28,6,14,9,0,1021,54,4,20141010200000
751,"Shuaiwanzi, Changchun",,43.552321,125.639086,-,-,-,-,-,-,-,-,0,-,-,20141010200000
752,"Economic Development Zone Sanitation Department, Changchun",,43.869221,125.42365,278,140,7,32,7,14,9,0,1021,54,4,20141010200000
753,"High-tech Zone Administrative Committee, Changchun",,43.819064,125.256375,235,146,12,22,7,15,9,0,1021,54,4,20141010200000
754,"Daishan Park, Changchun",,43.852365,125.223399,246,175,7,36,10,13,9,0,1021,54,4,20141010200000
755,Changchun,,43.819415,125.329977,236,175,28,38,11,17,-,-,0,-,-,20141010200000
756,"Hadawan, Jilin",,43.888081,126.545727,76,69,17,19,4,23,7,-1,0,54,3,20141010200000
757,"Fengman, Jilin",,43.768169,126.678802,70,23,31,3,2,4,7,-1,0,54,3,20141010200000
758,"Electric Power College, Jilin",,43.827403,126.502281,180,393,6,26,5,17,7,-1,0,54,3,20141010200000
759,"Jiangnan Park, Jilin",,43.83531,126.556519,87,44,19,14,4,5,7,-1,0,54,3,20141010200000
760,"Dongjuzi, Jilin",,43.838597,126.590068,57,36,21,6,3,4,7,-1,0,54,3,20141010200000
763,Jilin,,43.840137,126.555262,180,69,33,26,6,23,7,-1,0,54,3,20141010200000
764,"Lingbei, Haerbin",,45.756979,126.548008,76,41,22,27,14,9,7,1,1021,66,3,20141010200000
765,"Songbei Commercial University, Haerbin",,45.818624,126.566963,68,44,22,16,7,5,7,1,1021,66,3,20141010200000
766,"Acheng huining, Haerbin",,45.544286,126.985183,177,78,20,10,5,6,7,1,1021,66,3,20141010200000
767,"Nangang College Street, Haerbin",,45.724121,126.604906,80,31,23,18,7,6,7,1,1021,66,3,20141010200000
768,"Taiping Hongwei Park, Haerbin",,45.775332,126.695101,63,33,21,20,32,2,7,1,1021,66,3,20141010200000
769,"Daowai Chengde Square, Haerbin",,45.768637,126.640955,87,48,15,33,41,4,7,1,1021,66,3,20141010200000
770,"Xiangfang Hongqi Street, Haerbin",,45.733936,126.691083,70,43,210,6,2,33,7,1,1021,66,3,20141010200000
771,"Dongli Heping Road, Haerbin",,45.727765,126.651974,85,40,21,22,8,3,7,1,1021,66,3,20141010200000
772,"Daoli Jianguo Road, Haerbin",,45.749715,126.59891,76,32,18,28,10,5,7,1,1021,66,3,20141010200000
773,"Pingfang Light Factory, Haerbin",,45.611951,126.620898,-,-,-,-,-,-,-,-,0,-,-,20141010200000
774,"Hulan Normal College, Haerbin",,45.983745,126.616553,95,34,25,6,4,3,7,1,1021,66,3,20141010200000
775,"Provincial Academy of Agricultural Sciences, Haerbin",,45.686141,126.626517,76,46,22,24,11,3,7,1,1021,66,3,20141010200000
776,Haerbin,,45.805757,126.541007,76,44,22,16,14,9,-,-,0,-,-,20141010200000
777,"Anju Compound, Qiqihaer",,47.365672,123.937016,59,18,29,1,3,4,10,4,1020,55,5,20141010200000
778,"Farming Vehicule Factory, Qiqihaer",,47.326793,123.961427,34,14,25,4,4,5,10,4,1020,55,5,20141010200000
779,"Fuqu EPA, Qiqihaer",,47.1853,123.62322,65,27,28,1,4,9,10,4,1020,55,5,20141010200000
780,"City Center Square, Qiqihaer",,47.343096,123.96192,30,19,25,1,4,9,10,4,1020,55,5,20141010200000
1217,"City Environmental Monitoring Station, Qiqihaer",,47.303639,123.957551,57,27,25,2,1,4,10,4,1020,55,5,20141010200000
781,Qiqihaer,,47.356387,123.924736,65,27,29,4,4,9,10,4,1020,55,5,20141010200000
782,"Saertu District, Daqing",,46.582368,125.152904,53,19,27,11,6,2,9,2,1021,50,5,20141010200000
783,"Datong District, Daqing",,46.036786,124.842115,57,20,30,4,5,3,9,2,1021,50,5,20141010200000
784,"Honggang District, Daqing",,46.418381,124.88973,59,19,29,11,5,3,9,2,1021,50,5,20141010200000
785,"Longfeng District, Daqing",,46.535426,125.107043,65,21,31,6,5,4,9,2,1021,50,5,20141010200000
786,"Ranghulu District, Daqing",,46.635123,124.85648,61,27,30,8,7,2,9,2,1021,50,5,20141010200000
787,Daqing,,46.591414,125.110838,65,27,31,11,7,4,9,2,1021,50,5,20141010200000
788,"Locomotive Factory, Mudanjiang",,44.610589,129.652672,153,79,37,16,8,6,3,-2,1027,63,1,20141010200000
789,"No. 1 hospital, Mudanjiang",,44.567775,129.617043,119,60,31,15,4,7,3,-2,1027,63,1,20141010200000
1220,"EPA building, Mudanjiang",,44.567777,129.620658,137,56,8,13,2,4,3,-2,1027,63,1,20141010200000
1221,"Cultural Square, Mudanjiang",,44.586388,129.623164,142,59,2,22,20,5,3,-2,1027,63,1,20141010200000
790,Mudanjiang,,44.553619,129.640246,153,79,37,22,20,7,3,-2,1027,63,1,20141010200000
791,"Mingzhu Plaza, Hefei",,31.782847,117.201512,149,88,25,38,16,11,17,15,1018,88,2,20141010200000
792,"Sanli Street, Hefei",,31.874637,117.312573,127,57,73,20,7,4,17,15,1018,88,2,20141010200000
793,"Hupo Compound, Hefei",,31.868583,117.264491,134,57,46,5,14,4,17,15,1018,88,2,20141010200000
794,"Dongpu Reservoir, Hefei",,31.90319,117.165584,112,54,70,5,5,4,17,15,1018,88,2,20141010200000
795,"Changjiang middle road, Hefei",,31.855185,117.255484,134,72,8,7,2,8,17,15,1018,88,2,20141010200000
796,"Luyang District, Hefei",,31.941771,117.271504,119,57,61,2,15,5,17,15,1018,88,2,20141010200000
797,"Yaohai District, Hefei",,31.856595,117.341644,139,60,21,3,5,12,17,15,1018,88,2,20141010200000
798,"Baohe District, Hefei",,31.793644,117.307554,154,142,10,6,3,16,17,15,1018,88,2,20141010200000
799,"Lake district, Hefei",,31.736619,117.283501,129,73,18,27,2,6,17,15,1018,88,2,20141010200000
800,"High-tech zone, Hefei",,31.849755,117.129624,132,82,13,12,4,6,17,15,1018,88,2,20141010200000
801,Hefei,,31.819449,117.232753,149,88,25,38,16,11,-,-,0,-,-,20141010200000
802,"Hudong Road No.4 Elementary School, Maanshan",,31.684121,118.511017,119,47,39,10,5,6,17,16,1018,94,2,20141010200000
803,"Tianping Garment Factory, Maanshan",,31.64197,118.488043,132,53,94,8,10,9,17,16,1018,94,2,20141010200000
804,"City education base, Maanshan",,31.711216,118.648913,132,69,38,2,5,2,17,16,1018,94,2,20141010200000
805,"Cihu No.2 elementary school, Maanshan",,31.748546,118.515729,147,70,23,7,7,6,17,16,1018,94,2,20141010200000
806,"Maanshan steel factory power plant, Maanshan",,31.690864,118.48528,153,100,23,3,8,6,17,16,1018,94,2,20141010200000
807,Maanshan,,31.668461,118.511939,153,100,94,10,10,9,17,16,1018,94,2,20141010200000
808,"Science Innovation Center, Wuhu",,31.417056,118.375406,99,33,48,4,5,9,17,16,1018,94,2,20141010200000
809,"No.4 Water Plant, Wuhu",,31.315914,118.376231,109,38,11,9,9,11,17,16,1018,94,2,20141010200000
810,"Monitoring station, Wuhu",,31.348955,118.358154,97,57,21,17,10,9,17,16,1018,94,2,20141010200000
811,"Wuqierling Factory, Wuhu",,31.382068,118.407639,129,55,40,3,4,4,17,16,1018,94,2,20141010200000
812,Wuhu,,31.351007,118.438322,129,57,48,17,10,11,17,16,1018,94,2,20141010200000
813,"Jiangxi Foreign Affairs Office, Nanchang",,28.678027,115.903436,156,73,32,19,17,9,20,17,1016,72,1,20141010200000
814,"Provincial forestry company, Nanchang",,28.69065,115.898546,162,73,32,14,17,7,20,17,1016,72,1,20141010200000
815,"Institute of Forestry, Nanchang",,28.731518,115.82478,129,59,37,7,9,10,20,17,1016,72,1,20141010200000
816,"Jingdong town government, Nanchang",,28.680659,115.972736,129,61,38,9,10,6,20,17,1016,72,1,20141010200000
817,"Contruction Industry College, Nanchang",,28.684018,115.865891,152,54,38,15,17,11,20,17,1016,72,1,20141010200000
818,"Xianghu, Nanchang",,28.637831,115.9033,159,84,40,19,32,9,20,17,1016,72,1,20141010200000
819,"Martial Arts School, Nanchang",,28.794538,115.752876,107,41,21,7,6,7,20,17,1016,72,1,20141010200000
820,"Petrifaction Company, Nanchang",,28.608634,115.912999,155,90,41,16,13,8,20,17,1016,72,1,20141010200000
821,"Provincial Station, Nanchang",,28.677155,115.941896,153,69,38,13,15,7,20,17,1016,72,1,20141010200000
822,Nanchang,,28.679883,115.863022,162,90,41,19,32,11,20,17,1016,72,1,20141010200000
939,Sanya,,18.251142,109.515993,147,74,43,7,2,9,23,20,1010,83,1,20141010200000
823,"Lushan Mountain Observatory, Jiujiang",,29.5751,115.998926,50,15,45,8,2,5,14,13,1018,94,4,20141010200000
824,"Shili, Jiujiang",,29.668119,115.992381,144,65,39,6,15,5,14,13,1018,94,4,20141010200000
825,"Maoshantou, Jiujiang",,29.700819,115.967192,104,66,36,10,9,4,14,13,1018,94,4,20141010200000
826,"Xiyuan, Jiujiang",,29.723929,115.998206,104,64,28,11,10,4,14,13,1018,94,4,20141010200000
827,"Wuqierling Factory, Jiujiang",,29.640802,116.022713,114,70,44,11,30,4,14,13,1018,94,4,20141010200000
828,"Water Scientific Research Institute, Jiujiang",,29.679179,116.068081,114,63,36,9,11,1,14,13,1018,94,4,20141010200000
829,"Zonghe Industrial Park, Jiujiang",,29.592047,115.916335,114,61,40,20,15,6,14,13,1018,94,4,20141010200000
830,"Petrochemical General Plant, Jiujiang",,29.738832,116.09463,104,57,35,21,8,3,14,13,1018,94,4,20141010200000
831,Jiujiang,,29.70254,116.007025,144,70,45,21,30,6,14,13,1018,94,4,20141010200000
1332,"Feiyu, Xinyu",,27.844697,115.000136,152,71,42,4,16,,18,,1015,84,1,20141010200000
1333,"Beigang, Xinyu",,27.932491,115.103767,152,71,40,5,13,,18,,1015,84,1,20141010200000
1334,"No.2 water factory, Xinyu",,27.839577,114.933915,155,80,20,5,10,,18,,1015,84,1,20141010200000
1335,"Bureau of Meteorology, Xinyu",,27.81048,114.936507,142,85,37,6,13,,18,,1015,84,1,20141010200000
1336,Xinyu,,27.814351,114.922194,155,85,42,6,16,11,18,17,1015,84,1,20141010200000
832,"Tobacco Factory, Zhengzhou",,34.753419,113.687131,220,130,18,32,7,19,13,13,1020,100,1,20141010200000
833,"Textile Machinery Factory, Zhengzhou",,34.773366,113.647067,215,117,18,32,11,32,13,13,1020,100,1,20141010200000
834,"Banking College, Zhengzhou",,34.800856,113.681126,259,131,6,50,15,17,13,13,1020,100,1,20141010200000
835,"Water Supply Company, Zhengzhou",,34.807188,113.571089,206,173,7,47,18,13,13,13,1020,100,1,20141010200000
836,"Economic Development Zone Management Committee, Zhengzhou",,34.717652,113.733182,230,193,7,67,27,15,13,13,1020,100,1,20141010200000
837,"No. 47 middle school, Zhengzhou",,34.772211,113.74009,189,131,14,29,9,8,13,13,1020,100,1,20141010200000
838,"City Monitoring Station, Zhengzhou",,34.748404,113.60514,208,130,9,28,7,22,13,13,1020,100,1,20141010200000
839,"Henan Medical University, Zhengzhou",,34.752637,113.641658,237,140,17,43,14,19,13,13,1020,100,1,20141010200000
840,"Gangli Reservoir, Zhengzhou",,34.952652,113.64248,194,103,7,11,16,12,13,13,1020,100,1,20141010200000
841,Zhengzhou,,34.745417,113.631415,237,140,17,43,14,23,-,-,0,-,-,20141010200000
842,"Henan University No.1 Hospital, Kaifeng",,34.799302,114.352706,196,122,9,31,5,14,13,13,1020,100,1,20141010200000
843,"Maternity And Child Hospital, Kaifeng",,34.795803,114.386103,185,122,14,25,6,14,13,13,1020,100,1,20141010200000
844,"Cancer Hospital, Kaifeng",,34.775428,114.350292,192,137,4,8,5,13,13,13,1020,100,1,20141010200000
845,"Yellow River Conservancy Institute, Kaifeng",,34.826066,114.324772,13,116,36,9,24,9,13,13,1020,100,1,20141010200000
846,"Shijixing Kindergarden, Kaifeng",,34.793606,114.302744,230,141,4,33,14,20,13,13,1020,100,1,20141010200000
847,Kaifeng,,34.796346,114.313426,230,141,9,33,14,20,13,13,1020,100,1,20141010200000
852,Jiaozuo,,35.215381,113.248188,244,156,8,38,57,18,13,13,1020,100,1,20141010200000
853,"Cotton Research Institute, Anyang",,36.081435,114.486451,174,125,3,54,11,15,15,13,1021,84,2,20141010200000
854,"Hongmiao Street, Anyang",,36.086733,114.326,181,109,3,21,20,37,15,13,1021,84,2,20141010200000
855,"Yinxing Compound, Anyang",,36.056519,114.36495,243,128,7,19,15,24,15,13,1021,84,2,20141010200000
856,"Tiefo Temple, Anyang",,36.110041,114.309309,250,105,6,14,23,31,15,13,1021,84,2,20141010200000
857,Anyang,,36.097767,114.398846,250,125,22,30,26,31,15,13,1021,84,2,20141010200000
858,"City Monitoring Station, Luoyang",,34.669055,112.439633,157,64,4,18,11,5,16,,1021,89,1,20141010200000
859,"BDA Management Committee, Luoyang",,34.622084,112.390759,153,67,7,14,16,9,16,,1021,89,1,20141010200000
860,"New municipal office, Luoyang",,34.623745,112.432973,159,71,15,22,7,23,16,,1021,89,1,20141010200000
