locationid,stationname,chinesename,latitude,longitude,pm25,pm10,o3,no2,so2,co,temperature,dewpoint,pressure,humidity,wind,est_time
1,Dongcheng Dongsi,,39.9304,116.423239,22,42,25,9,8,5,-7,-16,1029,49,1,20141212170000
2,"Temple of Heaven, Dongcheng",,39.887403,116.41324,27,42,23,10,10,4,-5,-15,1028,46,1,20141212170000
3,West Park officials,,39.930333,116.345162,30,25,19,10,9,5,-7,-16,1029,49,1,20141212170000
4,West Wanshou Nishinomiya,,39.879354,116.358183,50,32,25,12,11,10,-7,-16,1029,49,1,20141212170000
5,Chaoyang Olympic Sports Center,,39.983406,116.403253,-,-,-,-,-,-,-,-,0,-,-,20141212170000
6,Chaoyang Agricultural Exhibition Hall,,39.938331,116.46715,25,31,27,9,6,4,-7,-16,1029,49,1,20141212170000
7,Haidian Wanliu,,39.988245,116.293062,34,25,17,10,9,5,-5,-15,1028,46,1,20141212170000
8,The Haidian northern New Area,,40.091313,116.180194,28,26,18,5,8,3,-5,-15,1028,46,1,20141212170000
9,Haidian Beijing Botanical Garden,,40.003252,116.213097,40,27,26,1,8,3,-5,-15,1028,46,1,20141212170000
10,Fengtai garden,,39.86423,116.285037,161,85,5,38,22,16,-5,-15,1028,46,1,20141212170000
11,Fengtai Yungang,,39.82535,116.152237,88,53,6,15,7,7,-5,-15,1028,46,1,20141212170000
12,Shijingshan city,,39.915286,116.190144,104,80,21,31,10,10,-5,-15,1028,46,1,20141212170000
13,"Fangshan, Liangxiang",,39.743357,116.14225,183,108,6,30,22,22,-5,-15,1028,46,1,20141212170000
14,"Huangcunzhen, Daxing",,39.719389,116.410219,198,119,8,40,34,14,-5,-15,1028,46,1,20141212170000
15,BDA,,39.796197,116.51197,163,70,10,33,24,13,-5,-15,1028,46,1,20141212170000
16,Tongzhou New Town,,39.887113,116.6689,180,89,8,29,20,14,-5,-15,1028,46,1,20141212170000
17,Shunyi New Town ,,40.128111,116.660908,107,60,20,26,6,6,-5,-15,1028,46,1,20141212170000
18,Changping Town,,40.218245,116.236084,129,67,25,22,13,9,-5,-15,1028,46,1,20141212170000
19,"Mentougou, Longquan Town",,39.938397,116.112323,99,54,10,24,15,14,-5,-15,1028,46,1,20141212170000
20,Pinggu town,,40.144433,117.106563,81,53,15,13,6,10,-5,-15,1028,46,1,20141212170000
21,Huairou town,,40.329104,116.63387,93,39,26,8,6,6,-7,-16,1029,49,1,20141212170000
22,The town of Miyun,,40.371186,116.838053,100,61,16,23,7,6,-5,-15,1028,46,1,20141212170000
23,Yanqing town,,40.454217,115.978106,29,20,32,1,2,3,-5,-15,1028,46,1,20141212170000
24,Changping Dingling,,40.293269,116.226108,171,88,25,16,10,6,-5,-15,1028,46,1,20141212170000
25,Badaling Northwest,,40.36623,115.994146,40,24,22,7,4,2,-5,-15,1028,46,1,20141212170000
26,Miyun Reservoir,,40.500157,116.91701,45,19,24,3,2,2,-5,-15,1028,46,1,20141212170000
27,"Donggaocun Zhen, Pinggu",,40.10142,117.126556,61,52,19,10,3,3,-5,-15,1028,46,1,20141212170000
28,"Yongledianzhen, Tongzhou",,39.713192,116.78905,221,83,3,40,17,13,-5,-15,1028,46,1,20141212170000
29,"Yufazhen, Daxing",,39.521203,116.306026,176,81,11,25,11,14,-5,-15,1028,46,1,20141212170000
30,"Liulihezhen, Fangshan",,39.581169,116.006089,206,156,9,30,27,22,-5,-15,1028,46,1,20141212170000
31,"Qianmen E St, Dongcheng",,39.900402,116.401242,28,28,15,5,9,6,-5,-15,1028,46,1,20141212170000
32,Yongdingmen Inner St,,39.877401,116.400238,58,30,8,11,10,7,-5,-15,1028,46,1,20141212170000
33,Xizhimen N St,,39.955352,116.355187,42,43,13,11,8,6,-5,-15,1028,46,1,20141212170000
34,South Ring Road,,39.857377,116.37421,92,57,2,35,17,13,-5,-15,1028,46,1,20141212170000
35,East Fourth Ring Road,,39.940273,116.489075,52,34,14,13,5,8,-5,-15,1028,46,1,20141212170000
36,Beijing,,39.955906,116.474246,50,42,14,9,7,5,-5,-15,1028,46,1,20141212170000
37,Putuo,,31.232979,121.415378,168,109,19,40,32,12,3,-6,1032,52,3,20141212170000
38,Yangpu Sipiao,,31.263795,121.540311,158,90,20,37,22,11,3,-6,1032,52,3,20141212170000
39,Shanghai Normal College Primary Division,,31.199031,121.487719,160,90,19,41,28,12,3,-6,1032,52,3,20141212170000
40,Dianshan Lake,,31.091338,120.982293,158,79,21,37,18,12,3,-6,1032,52,3,20141212170000
41,Hongkou Liangcheng,,31.298906,121.47155,164,82,18,36,21,13,3,-6,1032,52,3,20141212170000
42,Jingan,,31.224251,121.429637,173,112,33,40,31,13,3,-6,1032,52,3,20141212170000
43,Shanghai Normal University,,31.163531,121.416643,177,112,22,39,34,12,3,-6,1032,52,3,20141212170000
44,Chuansha,,31.188626,121.707342,175,95,19,35,22,12,3,-6,1032,52,3,20141212170000
45,Zhangjiang,,31.204896,121.581215,156,89,14,38,23,10,3,-6,1032,52,3,20141212170000
46,Lingshan Road,,31.226286,121.537317,157,141,89,37,21,11,4,-6,1031,49,4,20141212170000
1080,City average,,31.228451,121.478227,166,97,5,38,26,11,3,-6,1032,52,3,20141212170000
47,Shanghai,,31.202842,121.453493,171,99,7,42,27,11,3,-6,1032,52,3,20141212170000
48,Guangzhou,,23.138517,113.263701,109,74,17,17,13,9,12,-4,1028,33,3,20141212170000
49,"Huadu town, Guangzhou",,23.389121,113.220062,112,64,40,10,13,13,11,-6,1028,30,5,20141212170000
50,"Luogang Zhenlong, Guangzhou",,23.308027,113.567032,112,81,44,26,8,4,11,-6,1028,30,5,20141212170000
51,"LuHu, Guangzhou",,23.151743,113.281842,119,65,40,22,11,10,11,-6,1028,30,5,20141212170000
52,"Tianhu, Guangzhou",,23.647433,113.629715,95,63,48,5,20,9,11,-6,1028,30,5,20141212170000
53,"Zhudong, Guangzhou",,23.418406,113.078552,137,73,40,15,21,13,11,-6,1028,30,5,20141212170000
54,"Modiesha station, Guangzhou",,23.103814,113.338238,107,66,26,19,11,2,11,-6,1028,30,5,20141212170000
55,Zhuhai,,22.2677,113.581765,149,72,29,14,11,9,15,4,1025,48,11,20141212170000
1075,"Huicai technical school, Foshan",,23.039667,113.105492,85,59,38,22,11,8,11,-5,1028,33,5,20141212170000
56,"Sanshuiyun donghai, Foshan",,23.185788,112.865368,109,56,31,16,14,8,11,-5,1028,33,5,20141212170000
57,"Nanhai Bureau of Meteorology, Foshan",,23.046836,113.145764,97,58,38,21,11,6,11,-5,1028,33,5,20141212170000
58,"Sanshui Monitoring Station, Foshan",,23.163551,112.890843,114,53,26,24,22,10,11,-5,1028,33,5,20141212170000
1087,Foshan,,23.018995,113.126899,97,58,38,21,11,6,12,-4,1028,33,3,20141212170000
59,"Ronggui street committee, Shunde",,22.762729,113.258356,104,61,29,16,9,8,11,-5,1028,33,5,20141212170000
60,Shunde,,22.80246,113.298701,89,59,40,16,14,6,-,-,0,-,-,20141212170000
61,"Donghu, Jiangmen",,22.590411,113.087351,144,65,40,20,5,4,15,4,1025,48,11,20141212170000
62,"Taoyuan Atmosphere Premier Station, Jiangmen",,22.72489,112.93404,159,91,23,23,25,10,15,4,1025,48,11,20141212170000
63,Jiangmen,,22.576047,113.087351,144,65,40,20,5,4,15,4,1025,48,11,20141212170000
64,"Kengkouzi station, Zhaoqing",,23.158865,112.570287,177,110,37,9,10,8,11,-5,1028,33,5,20141212170000
65,"Mugangzi station, Zhaoqing",,23.067961,112.431934,152,68,41,13,16,7,11,-5,1028,33,5,20141212170000
67,Zhaoqing,,23.044571,112.470346,151,66,38,5,10,7,11,-5,1028,33,5,20141212170000
68,"Jinguo Bay, Huizhou",,22.937223,114.385567,134,71,45,7,15,5,12,-1,1026,41,5,20141212170000
1091,"Xiabu, Huizhou",,23.077493,114.410275,124,67,40,8,15,10,12,-1,1026,41,5,20141212170000
69,"Xijiao, Huizhou",,23.338178,114.112867,104,47,34,7,8,9,12,-1,1026,41,5,20141212170000
70,"Jiangbei, Huizhou",,23.111706,114.415274,122,75,48,4,15,2,12,-1,1026,41,5,20141212170000
71,"Huiyang chuanhu, Huizhou",,22.814485,114.329292,114,72,35,10,14,7,12,-1,1026,41,5,20141212170000
72,"Daya bay management committee, Huizhou",,22.739283,114.53631,127,68,38,9,14,7,12,-1,1026,41,5,20141212170000
73,Huizhou,,23.109349,114.421164,122,75,48,4,15,2,12,-1,1026,41,5,20141212170000
74,"Guancheng No.2 water plant, Dongguan",,23.057294,113.753254,107,64,44,17,16,7,12,-1,1026,41,5,20141212170000
75,"Dongcheng Shijing, Dongguan",,23.010039,113.799529,129,62,47,12,14,8,12,-1,1026,41,5,20141212170000
76,"Nancheng Xiping, Dongguan",,22.963051,113.743494,129,64,47,29,12,6,12,-1,1026,41,5,20141212170000
77,"Nancheng Yuanling, Dongguan",,23.025058,113.751308,132,62,48,12,13,9,12,-1,1026,41,5,20141212170000
78,Dongguan,,23.017813,113.756958,132,62,48,12,13,9,12,-1,1026,41,5,20141212170000
79,"Zimaling, Zhongshan",,22.505112,113.407183,142,71,29,17,15,8,15,4,1025,48,11,20141212170000
80,"Yangtze River tourist area, Zhongshan",,22.48589,113.439054,144,77,31,17,15,9,15,4,1025,48,11,20141212170000
81,"Huabai Park, Zhongshan",,22.51839,113.374362,149,81,19,22,10,13,15,4,1025,48,8,20141212170000
82,Zhongshan,,22.513997,113.398277,142,71,29,17,15,8,15,4,1025,48,11,20141212170000
83,"No.8 middle school, Shaoguan",,24.767777,113.583537,129,71,33,14,23,4,8,-6,1032,24,3,20141212170000
83,"No.8 middle school, Shaoguan",,24.767777,113.583537,129,71,33,14,23,4,8,-6,1032,24,3,20141212170000
84,"Forest area, Shaoguan",,24.796106,113.612131,142,72,38,10,16,10,8,-6,1032,24,3,20141212170000
84,"Forest area, Shaoguan",,24.796107,113.612131,142,72,38,10,16,10,8,-6,1032,24,3,20141212170000
86,"Shaoguan University, Shaoguan",,24.790864,113.646598,129,53,38,10,14,9,8,-6,1032,24,3,20141212170000
86,"Shaoguan University, Shaoguan",,24.790864,113.646599,129,53,38,10,14,9,8,-6,1032,24,3,20141212170000
88,"Qujiang Monitoring Station, Shaoguan",,24.683042,113.60157,134,68,40,10,15,6,8,-6,1032,24,3,20141212170000
88,"Qujiang Monitoring Station, Shaoguan",,24.683042,113.60157,134,68,40,10,15,6,8,-6,1032,24,3,20141212170000
89,Shaoguan,,24.807342,113.602712,142,72,38,10,16,10,8,-6,1032,24,3,20141212170000
90,"Chaonanzi Station, Shantou",,23.251213,116.406762,159,77,28,13,8,11,12,1,1026,47,3,20141212170000
90,"Chaonanzi Station, Shantou",,23.251174,116.406606,159,77,28,13,8,11,12,1,1026,47,3,20141212170000
91,Shantou,,23.350642,116.686306,132,73,28,15,21,10,12,1,1026,47,3,20141212170000
92,"City Environmental Monitoring Station, Zhanjiang",,21.220431,110.397317,117,58,35,12,11,15,14,6,1026,50,3,20141212170000
93,"EPB Dormitory, Zhanjiang",,21.197376,110.406487,132,60,31,9,11,9,14,6,1026,50,3,20141212170000
94,"Xiashan Swimming Park, Zhanjiang",,21.200431,110.415655,122,67,29,3,16,16,14,6,1026,50,3,20141212170000
95,"Zhanjiang Theatre, Zhanjiang",,21.268177,110.366445,149,62,35,6,10,12,14,6,1026,50,3,20141212170000
96,"Mazhang EPA, Zhanjiang",,21.265486,110.335993,139,60,14,8,10,16,14,6,1026,50,3,20141212170000
97,"Potou District EPB, Zhanjiang",,21.247604,110.454508,134,63,38,,7,16,14,6,1026,50,3,20141212170000
98,Zhanjiang,,21.26832,110.363883,149,62,35,6,15,12,14,6,1026,50,3,20141212170000
99,"Maogang sub-office EPB, Maoming",,21.466435,111.033462,147,55,32,3,6,6,13,7,0,67,5,20141212170000
100,"Petrochemical No. 7 elementaty school, Maoming",,21.648905,110.937861,156,63,38,7,16,9,13,7,0,67,5,20141212170000
101,"Jiankang road, Maoming",,21.662211,110.909482,159,71,31,11,30,9,13,7,0,67,5,20141212170000
102,"Gaoling, Maoming",,21.690558,110.871146,152,65,28,10,19,8,13,7,0,67,5,20141212170000
1094,Maoming,,21.660223,110.929968,159,71,31,11,30,9,13,7,0,67,5,20141212170000
103,"Jiaying University, Meizhou",,24.325415,116.12816,132,61,40,14,11,9,12,1,1026,47,3,20141212170000
104,"Mexian new town, Meizhou",,24.269283,116.084546,137,58,38,8,12,10,12,1,1026,47,3,20141212170000
105,"Environmental Monitoring Center, Meizhou",,24.262778,116.129621,144,68,38,14,10,8,12,1,1026,47,3,20141212170000
1095,Meizhou,,24.285988,116.127065,144,68,38,14,10,8,12,1,1026,47,3,20141212170000
106,"City EPA, Shanwei",,22.772349,115.370227,137,63,33,6,8,10,14,-2,1026,22,2,20141212170000
107,"City government, Shanwei",,22.787161,115.375536,151,64,37,6,12,8,14,-2,1026,22,2,20141212170000
108,"Xincheng Middle School, Shanwei",,22.789851,115.367124,154,65,21,7,8,8,14,-2,1026,22,2,20141212170000
1099,Shanwei,,22.783576,115.38022,154,65,21,7,8,8,14,-2,1026,22,2,20141212170000
109,"No.3 elementary school, Heyuan",,23.75435,114.703514,38,49,41,10,14,7,9,-6,1030,20,4,20141212170000
109,"No.3 elementary school, Heyuan",,23.755946,114.699091,38,49,41,10,14,7,9,-6,1030,20,4,20141212170000
111,"City water company, Heyuan",,23.688709,114.954652,57,53,40,10,14,7,9,-6,1030,20,4,20141212170000
111,"City water company, Heyuan",,23.754246,114.682459,57,53,40,10,14,7,9,-6,1030,20,4,20141212170000
113,"Heyuan high school, Heyuan",,23.720666,114.693879,65,47,42,11,15,9,9,-6,1030,20,4,20141212170000
113,"Heyuan high school, Heyuan",,23.720037,114.699563,65,47,42,11,15,9,9,-6,1030,20,4,20141212170000
115,Heyuan,,23.740888,114.705147,65,47,42,11,15,9,9,-6,1030,20,4,20141212170000
116,"Yuanyang Lake, Yangjiang",,21.855869,111.983676,137,55,29,11,6,11,12,5,1026,52,6,20141212170000
1100,Yangjiang,,21.855227,111.987308,137,55,29,11,6,11,12,5,1026,52,6,20141212170000
118,"Town governement, Qingyuan",,23.708005,113.026215,21,28,32,10,12,11,11,-5,1028,33,5,20141212170000
119,"Fupin district, Qingyuan",,23.624781,113.067713,30,10,31,16,21,9,11,-5,1028,33,5,20141212170000
121,"Environment protection office, Qingyuan",,23.685931,113.053239,78,12,32,16,23,8,11,-5,1028,33,5,20141212170000
121,"Environment protection office, Qingyuan",,23.691109,113.047948,78,12,32,16,23,8,11,-5,1028,33,5,20141212170000
123,"Fengcheng Subdistrict, Qingyuan",,23.695447,113.068189,21,28,32,10,12,11,11,-5,1028,33,5,20141212170000
124,Qingyuan,,23.679304,113.061513,78,12,32,16,23,8,11,-5,1028,33,5,20141212170000
125,"Xiyuan Road, Chaozhou",,23.668654,116.638272,134,67,48,3,6,10,12,1,1026,47,3,20141212170000
126,"Archives Bureau, Chaozhou",,23.667881,116.649104,129,63,35,7,8,8,12,1,1026,47,3,20141212170000
127,"Municipal Corporation, Chaozhou",,23.65035,116.621859,134,67,30,10,8,9,12,1,1026,47,3,20141212170000
1101,Chaozhou,,23.654204,116.626969,134,67,30,10,8,9,12,1,1026,47,3,20141212170000
128,"Donghu Park, Jieyang",,23.532877,116.374427,134,57,37,12,15,9,13,1,1026,44,4,20141212170000
129,"Yuhu Middle School, Jieyang",,23.52682,116.414123,157,68,32,47,20,7,12,1,1026,47,3,20141212170000
130,"Experimental Primary School, Jieyang",,23.571473,116.364137,139,61,32,17,31,10,12,1,1026,47,3,20141212170000
1102,Jieyang,,23.547596,116.37754,153,66,37,15,25,10,13,1,1026,44,4,20141212170000
131,"City Environmental Monitoring Station, Yunfu",,22.936779,112.042248,153,76,36,6,15,8,11,-5,1028,33,5,20141212170000
132,"The new city government headquarters, Yunfu",,22.914275,112.044475,157,64,33,6,10,9,11,-5,1028,33,5,20141212170000
133,"Muyang police sub-station, Yunfu",,22.951267,112.05923,63,50,38,6,15,7,11,-5,1028,33,5,20141212170000
1103,Yunfu,,22.912436,112.049811,157,64,33,6,10,9,11,-5,1028,33,5,20141212170000
134,Yantian,,22.587949,114.266899,153,69,22,5,14,9,12,-1,1026,41,5,20141212170000
135,Kwai Chung,,22.572837,113.867166,152,87,33,13,12,12,12,-1,1026,41,5,20141212170000
135,Kwai Chung,,22.354168,114.134558,152,87,33,13,12,12,12,-1,1026,41,5,20141212170000
137,Nanyou,,22.513802,113.928051,151,80,38,16,13,7,12,-1,1026,41,5,20141212170000
138,Meisha,,22.59611,114.318345,147,69,37,8,14,10,12,-1,1026,41,5,20141212170000
139,Xi xiang,,22.717524,114.252304,137,63,33,5,13,15,12,-1,1026,41,5,20141212170000
140,Liyuan,,22.54732,114.101205,139,69,23,18,15,13,12,-1,1026,41,5,20141212170000
1072,Kwai Chung,,22.627947,114.428875,149,57,42,10,13,9,12,-1,1026,41,5,20141212170000
1072,Kwai Chung,,22.354168,114.134558,149,57,42,10,13,9,12,-1,1026,41,5,20141212170000
141,OCT,,22.539549,113.992458,152,63,14,28,5,12,12,-1,1026,41,5,20141212170000
142,Honghu,,22.559647,114.121976,153,72,32,44,9,9,15,2,1026,42,5,20141212170000
143,Mission Hills,,22.694131,114.050496,139,59,44,8,11,10,12,-1,1026,41,5,20141212170000
144,Shenzhen,,22.540382,114.062982,153,87,44,28,15,15,-,-,0,-,-,20141212170000
145,Chengdu,,30.622581,104.069564,161,105,31,37,19,8,6,1,1031,70,1,20141212170000
146,"Jinquan lianghe, Chengdu",,30.710359,103.974209,174,145,32,38,14,10,7,0,1032,61,1,20141212170000
147,"Shilidian, Chengdu",,30.684718,104.17845,169,146,29,38,8,8,7,0,1032,61,1,20141212170000
148,"Sanwayao, Chengdu",,30.568159,104.081524,152,111,34,39,6,7,5,-2,1031,61,1,20141212170000
149,"Shahepu, Chengdu",,30.633685,104.120536,168,155,28,33,4,9,7,0,1032,61,1,20141212170000
150,"Liang Lane, Chengdu",,30.682601,104.076522,169,126,26,41,24,9,7,0,1032,61,1,20141212170000
151,"Caotang Temple, Chengdu",,30.651891,104.0284,158,105,31,37,19,8,7,0,1032,61,1,20141212170000
152,"Lingyansi, Chengdu",,31.025729,103.615022,173,96,35,14,14,6,7,0,1032,61,1,20141212170000
153,"Fuleshan, Mianyang",,31.472493,104.7806,124,64,35,27,7,7,7,-4,1034,32,1,20141212170000
154,"High-tech Zone Water Company, Mianyang",,31.463309,104.674293,155,72,31,27,12,8,7,-4,1034,32,1,20141212170000
155,"No.3 water company, Mianyang",,31.505002,104.731054,152,76,91,21,7,7,7,-4,1034,32,1,20141212170000
156,Mianyang,,31.465174,104.681731,155,77,91,28,12,12,7,-4,1034,32,1,20141212170000
157,"Dongshan Park, Deyang",,31.118648,104.424587,114,51,18,25,9,6,7,0,1032,61,1,20141212170000
158,"Xixiaoqu, Deyang",,31.131159,104.390972,155,77,20,29,10,8,7,0,1032,61,1,20141212170000
159,"City Procuratorate, Deyang",,31.114554,104.407986,114,65,22,33,10,11,7,0,1032,61,1,20141212170000
160,"Refractory Factory, Deyang",,31.108606,104.356506,159,64,38,30,5,5,7,0,1032,61,1,20141212170000
161,Deyang,,31.124715,104.400703,159,64,38,30,9,6,7,0,1032,61,1,20141212170000
162,"Nongnongping, Panzhihua",,26.566698,101.695438,114,59,34,15,5,9,6,0,0,59,1,20141212170000
163,"Hemenkou, Panzhihua",,26.589072,101.578312,163,95,34,25,68,17,6,0,0,59,1,20141212170000
164,"Bingcaogang, Panzhihua",,26.58143,101.718473,104,70,28,26,13,9,6,0,0,59,1,20141212170000
165,"Renhe, Panzhihua",,26.498166,101.746887,65,40,33,16,3,12,6,0,0,59,1,20141212170000
166,"Jinjina, Panzhihua",,26.553226,101.84862,102,66,34,28,23,6,6,0,0,59,1,20141212170000
167,Panzhihua,,26.578779,101.720211,163,95,34,28,68,17,6,0,0,59,1,20141212170000
168,"Shima Middle School, Yibin",,28.815979,104.599199,168,115,21,22,13,8,5,3,1034,79,1,20141212170000
169,"Municipal party committee, Yibin",,28.762654,104.624834,149,71,23,14,21,8,5,3,1034,79,1,20141212170000
170,"No. 4 middle school, Yibin",,28.783257,104.608407,161,93,24,21,17,7,5,3,1034,79,1,20141212170000
171,"City government, Yibin",,28.760477,104.644079,153,94,27,23,11,6,5,3,1034,79,1,20141212170000
172,"Huangjinzui, Yibin",,28.712319,104.578389,153,82,26,17,8,7,5,3,1034,79,1,20141212170000
173,"Shaping Middle School, Yibin",,28.795569,104.681393,139,66,26,9,4,7,5,3,1034,79,1,20141212170000
174,Yibin,,28.748384,104.645766,168,115,27,23,21,8,5,3,1034,79,1,20141212170000
175,"Datang Hill, Zigong",,29.359969,104.757388,-,-,-,-,-,-,-,-,0,-,-,20141212170000
176,"Yanma Road, Zigong",,29.355752,104.724036,174,116,16,17,6,5,6,-1,0,55,1,20141212170000
177,"Tanmulin Street, Zigong",,29.353555,104.777397,170,75,27,9,11,3,6,-1,0,55,1,20141212170000
178,"Chunhua Road, Zigong",,29.33825,104.771895,183,112,27,20,22,9,6,-1,0,55,1,20141212170000
179,Zigong,,29.33617,104.781138,183,116,27,20,22,9,6,-1,0,55,1,20141212170000
180,"Jiushi Hill, Luzhou",,28.955347,105.434207,114,55,27,5,3,3,5,-2,0,54,1,20141212170000
181,"Xiaoshishang Port, Luzhou",,28.899583,105.447192,104,71,26,10,11,5,5,-2,0,54,1,20141212170000
182,"Lantianxian Bridge, Luzhou",,28.852766,105.4358,109,81,27,29,5,5,5,-2,0,54,1,20141212170000
183,"City Environment Monitoring Station, Luzhou",,28.895898,105.435802,95,61,18,35,26,4,5,-2,0,54,1,20141212170000
184,Luzhou,,28.868782,105.445938,114,81,27,29,11,5,5,-2,0,54,1,20141212170000
185,"City Committee, Nanchong",,30.799993,106.082906,167,111,119,19,9,4,6,1,1034,66,0,20141212170000
186,"Refinery Factory, Nanchong",,30.819412,106.10712,172,118,13,44,41,4,6,1,1034,66,0,20141212170000
187,"Gaoping District Monitoring Station, Nanchong",,30.783291,106.110417,159,98,13,40,56,10,6,1,1034,66,0,20141212170000
188,"Jialing District EPB, Nanchong",,30.761255,106.06818,184,147,19,49,18,11,6,1,1034,66,0,20141212170000
189,"City Environmental Monitoring Station, Nanchong",,30.836519,106.11272,173,89,16,19,38,9,6,1,1034,66,0,20141212170000
190,Nanchong,,30.835511,106.114717,184,147,119,49,41,11,6,1,1034,66,0,20141212170000
1249,"City Monitoring Station, Neijiang",,29.592673,105.036234,160,89,13,17,11,6,5,-1,0,57,0,20141212170000
1250,"Dongxing District Government , Neijiang",,29.592148,105.074966,164,68,18,7,8,4,5,-1,0,57,0,20141212170000
1251,"No 2 middle school, Neijiang",,29.579135,105.068548,164,80,23,7,9,2,5,-1,0,57,0,20141212170000
1252,Neijiang,,29.577653,105.06166,164,89,23,17,10,6,5,-1,0,57,0,20141212170000
1253,"City Monitoring Station, Suining",,30.517431,105.564623,154,90,21,31,11,6,6,-1,0,56,1,20141212170000
1254,"Administrative center , Suining",,30.530907,105.593309,147,83,14,1,12,13,5,-1,0,57,0,20141212170000
1255,Suining,,30.530053,105.596307,168,93,18,28,18,13,5,-1,0,57,0,20141212170000
1256,"City Monitoring Station, Leshan",,29.560651,103.759211,149,71,22,17,11,5,3,-4,0,53,2,20141212170000
1257,"Leshan Giant Buddha Scenic Area , Leshan",,29.543938,103.772706,151,72,27,16,9,4,3,-4,0,53,2,20141212170000
1258,Leshan,,29.54935,103.767777,151,74,27,27,11,7,3,-4,0,53,2,20141212170000
1259,"Heilongtan , Meishan",,30.047726,103.900649,154,71,33,4,1,2,7,0,1032,61,1,20141212170000
1260,"Bureau of Meteorology, Meishan",,30.084591,103.843715,173,94,18,29,12,8,7,0,1032,61,1,20141212170000
1261,"Xuguang Community , Meishan",,30.066277,103.8516,169,95,20,33,7,7,7,0,1032,61,1,20141212170000
1262,"City Monitoring Station, Meishan",,30.059205,103.836229,168,105,12,30,4,7,7,0,1032,61,1,20141212170000
1263,Meishan,,30.072618,103.85064,173,105,18,33,12,8,7,0,1032,61,1,20141212170000
1264,"Ziyang middle school, Ziyang",,30.147763,104.638024,139,76,25,5,9,7,5,-1,0,57,0,20141212170000
1265,Ziyang,,30.126054,104.63004,153,88,27,17,12,10,5,-1,0,57,0,20141212170000
1377,"Dazhou Technical College, Dazhou",,31.277414,107.531672,137,78,6,26,2,7,8,,1037,73,1,20141212170000
1378,"City Environmental Monitoring Station, Dazhou",,31.212692,107.529474,156,71,10,22,3,7,8,,1037,73,1,20141212170000
1379,"Civic Center, Dazhou",,31.203669,107.465774,160,137,8,22,4,14,8,,1037,73,1,20141212170000
191,Shenyang US Consulate,,41.785668,123.432865,112,55,,25,58,,-16,-20,1025,72,1,20141212170000
192,"Huishan, Shenyang",,41.835421,123.647773,95,35,27,16,9,4,-18,-21,1025,78,1,20141212170000
193,"Hunnan, Shenyang",,41.758263,123.540809,95,44,19,26,57,5,-16,-20,1025,72,1,20141212170000
194,"Zhangshi, Shenyang",,41.771679,123.289859,91,52,12,25,15,7,-18,-21,1025,78,1,20141212170000
195,"Artillery College, Shenyang",,41.835749,123.547799,68,54,24,26,64,9,-16,-20,1025,72,1,20141212170000
196,"Beiling, Shenyang",,41.849633,123.434146,122,50,16,22,28,5,-16,-19,1026,78,2,20141212170000
197,"Wenyi Road, Shenyang",,41.767444,123.416144,107,55,22,25,58,5,-16,-20,1025,72,1,20141212170000
198,"Xiaoheyan, Shenyang",,41.779828,123.484015,87,39,18,24,63,6,-18,-21,1025,78,1,20141212170000
199,"Taiyuan Street, Shenyang",,41.799646,123.406146,124,53,11,22,32,8,-16,-20,1025,72,1,20141212170000
200,"Ermao, Shenyang",,41.783011,123.366679,114,53,24,23,41,6,-16,-20,1025,72,1,20141212170000
201,"Liaoning University, Shenyang",,41.830704,123.361071,124,41,21,22,21,6,-16,-20,1025,72,1,20141212170000
202,Shenyang,,41.808126,123.437611,124,53,11,22,32,8,-16,-20,1025,72,1,20141212170000
1104,"wenhua street, Shenyang , Shenyang",,41.774139,123.441839,107,55,10,25,58,5,-16,-20,1025,72,1,20141212170000
1105,"Tanglin Road , Shenyang , Shenyang",,41.823665,123.562317,68,49,4,28,56,10,-18,-21,1025,78,1,20141212170000
203,"Ganjingzi, Dalian",,38.9747,121.616893,68,56,9,8,8,3,-4,-14,1027,46,1,20141212170000
204,"Zhoushuizi, Dalian",,38.951928,121.569981,57,37,22,6,11,5,-4,-14,1027,46,1,20141212170000
205,"Xinghai No 3 station, Dalian",,38.885779,121.568864,61,31,20,16,35,3,-4,-14,1027,46,1,20141212170000
206,"Qingniwa Bridge, Dalian",,38.91274,121.638018,59,30,15,10,16,4,-4,-13,1027,50,2,20141212170000
207,"Fujiazhuang, Dalian",,38.864647,121.629947,59,37,6,27,15,4,-4,-14,1027,46,1,20141212170000
208,"Qixianling, Dalian",,38.856978,121.523169,63,30,24,54,15,16,-4,-13,1027,50,2,20141212170000
209,"Lushun, Dalian",,38.808946,121.264063,50,22,14,3,3,4,-4,-14,1027,46,1,20141212170000
210,"Jinzhou, Dalian",,39.132192,121.753259,57,37,18,3,5,23,-4,-13,1027,50,2,20141212170000
211,"BDA, Dalian",,39.05213,121.782022,55,34,16,1,11,9,-4,-14,1027,46,1,20141212170000
212,"D&D Port, Dalian",,39.064087,121.981874,61,35,21,4,18,4,-4,-14,1027,46,1,20141212170000
213,Dalian,,38.91478,121.619625,59,30,15,10,16,4,-4,-13,1027,50,2,20141212170000
214,"Bearing Factory, Dandong",,40.068929,124.345703,104,54,18,10,18,18,-10,-15,1026,53,1,20141212170000
215,"Financial school, Dandong",,40.158723,124.432593,151,60,14,22,30,9,-10,-15,1026,53,1,20141212170000
216,"Yuanbaoshan water, Dandong",,40.149431,124.391698,97,35,19,6,18,8,-10,-15,1026,53,1,20141212170000
217,"Experimental Primary School, Dandong",,39.887343,124.158056,157,77,16,22,21,14,-10,-15,1026,53,1,20141212170000
218,Dandong,,40.002046,124.360479,157,77,14,22,30,14,-10,-15,1026,53,1,20141212170000
1106,"minzhu bridge, Dandong , Dandong",,40.112974,124.373604,157,77,7,22,21,14,-10,-15,1026,53,1,20141212170000
1107,"yuanbaoshan, Dandong , Dandong",,40.146298,124.399081,97,35,14,6,18,9,-10,-15,1026,53,1,20141212170000
1108,"linjiang houjie, Dandong , Dandong",,40.152757,124.431745,151,60,6,22,30,8,-10,-15,1026,53,1,20141212170000
219,"BDA, Panjin",,41.157144,122.06645,104,54,14,22,15,10,-12,-18,0,59,3,20141212170000
220,"Xinglongtai, Panjin",,41.140948,122.111343,102,57,16,20,32,8,-12,-18,0,59,3,20141212170000
221,"Dingxiang, Panjin",,41.16139,121.928781,91,60,28,21,33,5,-12,-18,0,59,3,20141212170000
222,Panjin,,41.122089,122.076206,102,57,28,20,32,8,-12,-18,0,59,3,20141212170000
223,"No.3 water company, Yingkou",,40.682052,122.385352,57,37,30,16,24,5,-9,-17,1028,39,1,20141212170000
224,"Yingkou University, Yingkou",,40.683689,122.388285,21,32,28,10,30,4,-9,-17,1028,39,1,20141212170000
225,"Botanical garden, Yingkou",,40.711674,122.281568,50,22,29,14,8,7,-9,-17,1028,39,1,20141212170000
226,Yingkou,,40.668578,122.24059,55,38,19,14,28,5,-9,-17,1028,39,1,20141212170000
1109,"jinghu west street, Yingkou , Yingkou",,40.653831,122.221943,55,38,19,14,28,5,-9,-17,1028,39,1,20141212170000
1110,"Daqing Road , Yingkou , Yingkou",,40.709181,122.28243,50,22,13,14,8,7,-9,-17,1028,39,1,20141212170000
227,"Xishanpo, Huludao",,40.724078,120.921974,80,18,18,22,53,25,,,0,,,20141212170000
228,"Huagong hospital, Huludao",,40.755662,120.848435,76,23,23,15,19,14,,,0,,,20141212170000
229,"New district park, Huludao",,40.723415,120.853801,65,28,19,17,8,21,,,0,,,20141212170000
230,"Lianshan district governement, Huludao",,40.775488,120.872292,109,51,21,22,30,21,,,0,,,20141212170000
231,Huludao,,40.712501,120.842107,80,31,8,17,18,15,,,0,,,20141212170000
1111,"Dongcheng District , Huludao , Huludao",,40.775362,120.871706,109,51,8,22,30,21,,,0,,,20141212170000
1112,"huagong street, Huludao , Huludao",,40.758901,120.842935,80,31,8,17,18,15,,,0,,,20141212170000
232,Anshan,,41.110466,123.000147,164,85,13,21,44,25,-18,-21,1025,78,1,20141212170000
233,"Qianshan Park, Anshan",,41.033486,123.143897,112,55,24,19,27,5,-18,-21,1025,78,1,20141212170000
234,"Tiexi, Anshan",,41.121636,122.97506,169,94,15,17,40,16,-18,-21,1025,78,1,20141212170000
235,"Taiping Station, Anshan",,41.153322,123.052433,124,59,14,12,32,23,-18,-21,1025,78,1,20141212170000
236,"Central Station, Anshan",,41.106731,123.002736,154,72,16,17,53,37,-18,-21,1025,78,1,20141212170000
237,"Shengou Temple, Anshan",,41.137157,123.031901,97,52,17,27,53,11,-18,-21,1025,78,1,20141212170000
1113,"Qianshan , Anshan , Anshan",,41.014521,123.122538,87,47,13,21,15,5,-16,-20,1025,72,1,20141212170000
1114,"Tiexi Sandao jie, Anshan",,41.103264,122.978613,170,95,6,17,51,15,-16,-19,1026,78,2,20141212170000
1115,"Taiyang, Anshan",,41.094946,123.019037,154,72,5,17,53,37,-18,-21,1025,78,1,20141212170000
238,Fushun,,41.883028,123.962984,175,88,5,27,46,30,-18,-21,1025,78,1,20141212170000
239,"Shenfu new town, Fushun",,41.804638,123.631684,154,67,18,20,15,19,-18,-21,1025,78,1,20141212170000
240,"Reservoir, Fushun",,41.8464,123.802857,153,70,21,27,16,11,-16,-20,1025,72,1,20141212170000
241,"Train Station, Fushun",,41.89726,124.017604,171,84,19,27,61,16,-18,-21,1025,78,1,20141212170000
242,"Dongzhou, Fushun",,41.855578,124.044738,173,91,19,23,28,17,-16,-20,1025,72,1,20141212170000
243,"Xinhua, Fushun",,41.888598,123.932932,175,88,19,22,20,30,-18,-21,1025,78,1,20141212170000
244,"Wanghua, Fushun",,41.888825,123.093723,153,73,16,23,46,18,-18,-21,1025,78,1,20141212170000
1367,"Dongzhou district, Fushun , Fushun",,41.864885,124.044353,173,91,8,23,28,17,-16,-20,1025,72,1,20141212170000
1368,"Wanghua district, Fushun , Fushun",,41.849112,123.815882,153,73,3,23,46,18,-18,-21,1025,78,1,20141212170000
245,Benxi,,41.296267,123.772371,139,66,21,31,29,37,-18,-21,1025,78,1,20141212170000
246,"Weining, Benxi",,41.349663,123.826071,139,48,38,20,3,4,-18,-21,1025,78,1,20141212170000
247,"Occupational disease hospital, Benxi",,41.305432,123.74645,85,50,19,21,22,16,-18,-21,1025,78,1,20141212170000
248,"Dongming, Benxi",,41.292369,123.765058,93,18,11,31,29,37,-18,-21,1025,78,1,20141212170000
249,"Caitun, Benxi",,41.301591,123.746039,89,40,13,7,25,24,-18,-21,1025,78,1,20141212170000
250,"Xihu, Benxi",,41.331332,123.773537,139,66,21,14,22,26,-18,-21,1025,78,1,20141212170000
251,"Dayu, Benxi",,41.308091,123.818442,85,42,20,21,50,7,-16,-19,1026,78,2,20141212170000
1116,"Xinlitun , Benxi , Benxi",,41.264104,123.811523,85,50,3,21,22,16,-18,-21,1025,78,1,20141212170000
252,Jinzhou,,41.097169,121.132647,178,103,30,30,53,24,-8,-22,1028,19,2,20141212170000
253,"Beihu Park, Jinzhou",,41.141447,121.137339,82,37,18,21,55,16,-8,-22,1028,19,2,20141212170000
254,"Monitoring station, Jinzhou",,41.113441,121.140911,102,51,26,19,40,7,-8,-22,1028,19,2,20141212170000
1369,"Baigu Water Plant, Jinzhou",,41.123847,121.206296,74,44,30,15,12,2,-8,-22,1028,19,2,20141212170000
255,"Nanshan, Jinzhou",,41.570689,122.046753,168,85,28,20,33,25,-8,-22,1028,19,2,20141212170000
1118,"BDA, Jinzhou",,40.853915,121.061756,178,103,21,30,53,24,-8,-22,1028,19,2,20141212170000
1119,"tianan street, Jinzhou , Jinzhou",,41.124468,121.126119,76,47,7,17,26,8,-8,-22,1028,19,2,20141212170000
1120,"baigu street, Jinzhou, Jinzhou",,41.12214,121.21027,74,44,11,15,12,2,-8,-22,1028,19,2,20141212170000
1121,Chaoyang,,41.576022,120.456053,97,35,11,18,18,18,-,-,0,-,-,20141212170000
1122,"Agricultural Area, Chaoyang",,43.93968,125.247371,25,12,10,5,4,22,-7,-24,1028,11,2,20141212170000
1123,Tieling,,42.225197,123.732174,129,66,20,21,19,10,-,-,0,-,-,20141212170000
260,"Waterpark, Tieling",,42.297031,123.880748,-,-,-,-,-,-,-,-,0,-,-,20141212170000
1124,"Huigong Street West , Tieling , Tieling",,42.311115,123.845614,99,99,7,21,19,10,-18,-21,1025,78,1,20141212170000
1125,Liaoyang,,41.269312,123.24268,152,69,4,21,53,16,-,-,0,-,-,20141212170000
1126,"Riverside Road , Liaoyang , Liaoyang",,41.176884,123.419859,155,67,2,19,45,28,-18,-21,1025,78,1,20141212170000
1127,Fuxin,,42.02373,121.675733,156,97,14,19,32,15,-,-,0,-,-,20141212170000
266,"Agricultural Area, Fuxin",,42.071291,121.696445,57,47,10,6,11,15,-14,-18,0,69,3,20141212170000
267,"Industrial Area, Fuxin",,42.041052,121.715554,156,97,7,19,25,7,-14,-18,0,69,3,20141212170000
1128,"Yulong Metro , Fuxin , Fuxin",,42.035091,121.666531,30,24,9,10,10,4,-14,-18,0,69,3,20141212170000
1129,"Dongyuan , Fuxin , Fuxin",,42.029119,121.681553,53,21,15,13,19,9,-14,-18,0,69,3,20141212170000
268,"City Monitoring Station, Jinan",,36.662614,117.054645,153,77,20,34,57,9,-2,-16,1030,19,2,20141212170000
269,"Shandong Institute of Economics, Jinan",,36.63819,117.074975,104,71,13,22,47,4,-2,-16,1030,19,2,20141212170000
270,"Quancheng Plaza, Jinan",,36.661711,117.027043,102,73,9,34,48,8,-2,-16,1030,19,2,20141212170000
271,"Kegansuo, Jinan",,36.611582,116.99384,124,72,16,16,26,13,-2,-16,1030,19,2,20141212170000
272,"Agriculture Science Institute, Jinan",,36.663115,116.95063,154,123,21,32,58,12,-2,-16,1030,19,2,20141212170000
273,"Lanxiang technical school, Jinan",,36.700421,116.95342,157,108,5,33,58,10,-2,-16,1030,19,2,20141212170000
274,"Chemical factory, Jinan",,36.687463,116.994406,132,85,6,42,50,6,-2,-16,1030,19,2,20141212170000
275,"Provincial Seed Warehouse, Jinan",,36.685706,117.066348,5,64,13,38,58,12,-2,-16,1030,19,2,20141212170000
276,"Shandong Architecture University, Jinan",,36.681732,117.191868,117,70,7,27,56,8,-2,-16,1030,19,2,20141212170000
277,"Baosheng cable company, Jinan",,36.724638,117.130855,152,128,6,29,54,15,-2,-16,1030,19,2,20141212170000
278,"Paomaling, Jinan",,36.47869,117.219027,134,67,21,8,35,7,-2,-16,1030,19,2,20141212170000
279,"Changqing District Communist Party School, Jinan",,36.548797,116.770859,129,89,8,86,36,9,-2,-16,1030,19,2,20141212170000
280,"BDA, Jinan",,36.685835,117.130851,85,51,21,24,43,8,-2,-16,1030,19,2,20141212170000
281,Jinan,,36.651426,117.126625,153,77,20,34,57,9,-2,-16,1030,19,2,20141212170000
282,"Shinan district No. 1, Qingdao",,36.065534,120.40839,153,87,12,22,56,5,-3,-11,1030,55,0,20141212170000
283,"Shibei district No. 1, Qingdao",,36.069919,120.341264,122,41,7,20,35,6,-3,-11,1030,55,0,20141212170000
284,"Shibei district No. 2, Qingdao",,36.104146,120.36637,139,57,10,35,33,9,-3,-11,1030,55,0,20141212170000
285,"Huangdao District No. 1, Qingdao",,35.958935,120.191041,134,75,16,16,32,4,-3,-11,1030,55,0,20141212170000
286,"Huangdao District No. 2, Qingdao",,35.970487,120.160339,91,51,11,11,2,6,-3,-11,1030,55,0,20141212170000
287,"Laoshan District No. 1, Qingdao",,36.085881,120.451839,154,62,9,44,50,15,-3,-11,1030,55,0,20141212170000
288,"Laoshan District No. 2, Qingdao",,36.091075,120.490388,168,91,11,34,50,12,-3,-11,1030,55,0,20141212170000
289,"Licang District No. 1, Qingdao",,36.184872,120.38533,164,89,5,33,40,11,-3,-11,1030,55,0,20141212170000
290,"Licang District No. 2, Qingdao",,36.154369,120.432287,155,77,7,28,31,17,-3,-11,1030,55,0,20141212170000
291,"Chengyang District No. 1, Qingdao",,36.308502,120.40008,179,99,8,36,49,8,-3,-11,1030,55,0,20141212170000
292,"Chengyang District No. 2, Qingdao",,36.308429,120.465806,177,79,12,16,34,13,-3,-11,1030,55,0,20141212170000
293,Qingdao,,36.067358,120.387773,153,87,12,22,56,5,-3,-11,1030,55,0,20141212170000
294,"Zichuan Meteo. Stations, Zibo",,36.637916,117.960222,-,-,-,-,-,-,-,-,0,-,-,20141212170000
295,"Dongfeng Chemical factory, Zibo",,36.838576,118.050785,175,263,19,55,192,18,-3,-18,0,30,3,20141212170000
296,"Boshan shuangshan, Zibo",,36.497278,117.853581,156,106,4,28,56,17,-3,-18,0,30,3,20141212170000
297,"Linzi Putian Park, Zibo",,36.820171,118.315022,170,161,5,34,73,27,-3,-18,0,30,3,20141212170000
298,"Qilu Petrochemical, Zibo",,36.765907,118.254967,161,139,3,33,43,29,-3,-18,0,30,3,20141212170000
299,"Zhoucun sanjin Group, Zibo",,36.8044,117.85694,181,119,10,29,68,23,-3,-18,0,30,3,20141212170000
300,"Vocational College, Zibo",,36.825208,117.926305,170,121,9,38,65,23,-3,-18,0,30,3,20141212170000
301,"BDA, Zibo",,36.905214,118.021824,173,120,8,31,73,23,-3,-18,0,30,3,20141212170000
302,Zibo,,36.813618,118.060948,192,263,19,55,192,22,-3,-18,0,30,3,20141212170000
303,"Shizhong District Government, Zaozhuang",,34.850397,117.569545,290,286,22,11,61,14,-3,-7,1032,67,0,20141212170000
304,"Sewage treatment plant, Zaozhuang",,34.818951,117.595345,285,322,12,27,144,21,-3,-7,1032,67,0,20141212170000
305,"Xuecheng EPA, Zaozhuang",,34.790214,117.272455,175,103,40,28,25,9,-3,-7,1032,67,0,20141212170000
306,"Yicheng District government, Zaozhuang",,34.772806,117.57647,185,148,25,32,38,10,-3,-7,1032,67,0,20141212170000
307,"Taierzhuang EPA, Zaozhuang",,34.579462,117.741067,169,100,44,32,48,12,-3,-7,1032,67,0,20141212170000
308,"Shanting EPA, Zaozhuang",,35.070373,117.457691,174,109,32,19,23,8,-3,-7,1032,67,0,20141212170000
309,"City EPA, Zaozhuang",,34.809466,117.320608,169,101,3,15,19,5,-3,-7,1032,67,0,20141212170000
310,"High-tech zone, Zaozhuang",,34.821779,117.363495,252,157,11,22,57,11,-3,-7,1032,67,0,20141212170000
311,Zaozhuang,,34.809693,117.329634,290,286,22,11,61,14,-3,-7,1032,67,0,20141212170000
312,"City EPA, Dongying",,37.432052,118.672871,161,90,26,34,55,10,0,-13,0,35,5,20141212170000
313,"Vocational College, Dongying",,37.438653,118.630567,153,92,13,31,39,8,0,-13,0,36,6,20141212170000
314,"Xianhe Oil Production Plant, Dongying",,37.442419,118.510222,177,128,8,36,55,11,0,-13,0,36,6,20141212170000
315,"Gengjin village, Dongying",,37.445072,118.55839,162,96,28,28,28,8,0,-13,0,35,5,20141212170000
316,"City environmental company, Dongying",,37.466599,118.508012,169,100,62,35,46,8,0,-13,0,35,5,20141212170000
317,"Hekou  district, Dongying",,37.883786,118.522171,160,88,10,35,23,8,0,-13,0,36,6,20141212170000
318,"BDA, Dongying",,37.435162,118.701827,157,86,9,36,51,10,0,-13,0,36,6,20141212170000
319,Dongying,,37.435429,118.680434,161,90,26,34,55,10,0,-13,0,35,5,20141212170000
320,"Bearing Factory, Yantai",,37.544126,121.376956,38,50,19,7,10,6,,,0,,,20141212170000
321,"Xijiao Chemical Station, Yantai",,37.547148,121.323695,57,31,28,3,7,3,,,0,,,20141212170000
322,"Fushan Monitoring Stations, Yantai",,37.472245,121.260116,46,26,17,9,33,6,,,0,,,20141212170000
323,"Mouping EPA, Yantai",,37.376681,121.586509,38,48,23,8,10,7,,,0,,,20141212170000
324,"Laishan EPA, Yantai",,37.478422,121.44829,53,29,20,6,8,4,,,0,,,20141212170000
325,"Laishan Shengquan Industrial Park, Yantai",,37.4271,121.408386,42,32,16,12,5,4,,,0,,,20141212170000
326,"China Agricultural University, Yantai",,37.423568,121.511838,50,34,21,3,7,5,,,0,,,20141212170000
327,"BDA EPA, Yantai",,37.560827,121.257954,72,29,24,2,3,3,,,0,,,20141212170000
329,"Dajijia, Yantai",,37.673849,121.071465,38,34,19,3,3,3,,,0,,,20141212170000
330,Yantai,,37.464793,121.453142,38,50,19,7,10,6,,,0,,,20141212170000
331,"BDA, Weifang",,36.720022,119.054064,171,146,6,39,58,12,,,0,,,20141212170000
332,"Business School, Weifang",,36.682442,119.105909,161,114,8,28,38,7,,,0,,,20141212170000
333,"Hanting District, Weifang",,36.773484,119.199705,169,124,8,31,85,13,,,0,,,20141212170000
334,"Gongda Company, Weifang",,36.657635,119.167266,167,113,25,32,50,9,,,0,,,20141212170000
335,"City EPA, Weifang",,36.701272,119.16838,182,139,11,35,58,10,,,0,,,20141212170000
336,"City Arbitration Committee, Weifang",,36.702422,119.145927,169,117,15,31,62,11,,,0,,,20141212170000
337,"Xinhui Group, Weifang",,36.641581,119.11679,177,125,8,29,35,14,,,0,,,20141212170000
338,"Jincheng Middle School, Weifang",,36.773611,119.115539,182,130,15,31,74,10,,,0,,,20141212170000
339,Weifang,,36.707217,119.167638,163,125,23,34,64,10,,,0,,,20141212170000
340,"City Monitoring Station, Jining",,35.408443,116.623917,158,91,7,30,39,17,-3,-10,1031,47,1,20141212170000
1090,"Shengdi Hollidays Resort, Jining",,35.424746,116.699093,170,137,6,39,65,14,-3,-10,1031,47,1,20141212170000
341,"Sewage treatment plant, Jining",,35.364286,116.609177,137,77,6,18,25,16,-3,-10,1031,47,1,20141212170000
342,"Electrochemical Factory, Jining",,35.390473,116.552956,239,91,34,28,79,16,-3,-10,1031,47,1,20141212170000
343,"Rencheng BDA, Jining",,35.390484,116.662995,255,173,3,33,52,18,-3,-10,1031,47,1,20141212170000
344,"Agricultural School, Jining",,35.44235,116.601682,175,146,5,33,54,20,-3,-10,1031,47,1,20141212170000
345,"BDA Huojucheng, Jining",,35.436377,116.642953,179,126,6,33,50,15,-3,-10,1031,47,1,20141212170000
346,Jining,,35.414473,116.59239,158,91,7,30,39,17,-3,-10,1031,47,1,20141212170000
347,"Taishan monitoring station, Taian",,36.194362,117.159648,191,111,16,34,45,18,-10,-20,0,28,12,20141212170000
348,"Shandong Electric Power School, Taian",,36.176071,117.12413,238,315,119,41,40,22,-10,-20,0,28,12,20141212170000
349,"Population Education school, Taian",,36.194417,117.104131,107,75,18,23,17,15,-10,-20,0,28,12,20141212170000
350,"Houfeng company, Taian",,36.204863,117.19015,173,102,6,29,28,13,-10,-20,0,28,12,20141212170000
351,"Nongda new campus, Taian",,36.170179,117.165191,295,210,4,44,55,26,-10,-20,0,28,12,20141212170000
352,"Transportation technical school, Taian",,36.202126,117.047068,151,74,3,28,26,11,-10,-20,0,28,12,20141212170000
353,"ICT Technology, Taian",,36.116621,117.107458,167,83,4,28,30,17,-10,-20,0,28,12,20141212170000
354,Taian,,36.200502,117.093682,191,111,16,34,45,18,-10,-20,0,28,12,20141212170000
355,"City Environmental Monitoring Station, Weihai",,37.513939,122.067058,46,40,26,6,6,4,1,-4,0,60,11,20141212170000
356,"Woodworking Factory, Weihai",,37.325455,122.160777,63,34,25,5,32,7,1,-4,0,60,11,20141212170000
357,"Lantian Hotel, Weihai",,37.514641,122.146276,53,43,27,5,2,4,1,-4,0,60,11,20141212170000
358,"Zhang village government, Weihai",,37.485561,122.049436,13,10,24,5,9,4,1,-4,0,60,11,20141212170000
359,"Gao District Bank, Weihai",,37.534919,122.056294,55,44,24,3,5,3,1,-4,0,60,11,20141212170000
360,"Huxia technical school, Weihai",,37.427951,122.130811,53,40,31,4,4,4,1,-4,0,60,11,20141212170000
361,Weihai,,37.5141,122.125477,46,40,26,6,6,4,1,-4,0,60,11,20141212170000
560,Wanli University,,29.821314,121.574364,159,94,7,34,27,12,1,-4,1032,70,2,20141212170000
362,"City governement square, Rizhao",,35.4075,119.526008,165,89,21,32,21,9,-1,-10,1031,38,1,20141212170000
364,"City Monitoring Station, Rizhao",,35.388683,119.496405,182,124,5,27,37,21,-1,-10,1031,38,1,20141212170000
365,"Professor Garden, Rizhao",,35.462161,119.574193,153,89,13,33,23,12,-1,-10,1031,38,1,20141212170000
366,"Vocational and Technical College, Rizhao",,35.441939,119.538187,158,79,9,23,36,10,-1,-10,1031,38,1,20141212170000
367,"Lanshan EPA branch, Rizhao",,35.293405,119.345716,164,104,7,28,32,12,-1,-10,1031,38,1,20141212170000
368,"Jinma Industrial Park, Rizhao",,35.373339,119.514108,154,99,6,30,28,7,-1,-10,1031,38,1,20141212170000
369,Rizhao,,35.416089,119.532316,165,89,21,32,21,9,-1,-10,1031,38,1,20141212170000
370,"Vegetable oil factory, Laiwu",,36.205028,117.700917,198,99,36,35,61,16,-4,-13,1032,37,0,20141212170000
371,"Nursing home, Laiwu",,36.266067,117.652769,200,99,8,25,52,19,-4,-13,1032,37,0,20141212170000
372,"Xinyi middle school, Laiwu",,36.245086,117.739025,142,77,8,33,55,16,-4,-13,1032,37,0,20141212170000
373,"Risheng International School, Laiwu",,36.208125,117.730959,171,98,4,26,49,18,-4,-13,1032,37,0,20141212170000
374,"Gangcheng EPA, Laiwu",,36.066836,117.871823,163,138,4,20,81,13,-4,-13,1032,37,0,20141212170000
375,"City EPA, Laiwu",,36.228913,117.694797,170,95,6,33,60,23,-4,-13,1032,37,0,20141212170000
376,Laiwu,,36.213688,117.682612,198,99,36,35,61,16,-,-,0,-,-,20141212170000
377,"Lunan Pharmaceutical Factory, Linyi",,35.061671,118.299527,164,100,19,48,51,16,-2,-16,0,33,2,20141212170000
378,"Yihe compound, Linyi",,35.056752,118.34739,165,98,23,41,50,14,-2,-16,0,33,2,20141212170000
379,"Linyi University, Linyi",,35.114777,118.293414,160,118,9,40,32,21,-2,-16,0,33,2,20141212170000
380,City EPA,Nanfang,35.104871,118.353518,149,98,5,37,31,14,-2,-16,0,33,2,20141212170000
381,"Xinguang woolen factory, Linyi",,34.981004,118.282,173,124,23,34,56,9,-2,-16,0,32,2,20141212170000
382,"Hongfu Baijiu Factory, Linyi",,34.998788,118.257275,-,-,-,-,-,-,-,-,0,-,-,20141212170000
384,"Hedong insurance company, Linyi",,35.089354,118.40812,172,163,21,43,26,23,-2,-16,0,32,2,20141212170000
385,"Jianghua vehicule center, Linyi",,35.010082,118.435749,154,86,4,36,35,13,-2,-16,0,33,2,20141212170000
386,Linyi,,35.10428,118.362202,164,100,19,48,51,16,-2,-16,0,33,2,20141212170000
387,"Heima group, Dezhou",,37.466063,116.314134,193,118,26,32,55,21,-2,-14,1030,25,0,20141212170000
388,"Monitoring station, Dezhou",,37.433107,116.377312,171,103,9,27,25,7,-2,-14,1030,25,0,20141212170000
389,"Supervision Station, Dezhou",,37.449689,116.324709,187,124,44,31,43,20,-2,-14,1030,25,0,20141212170000
390,"Huayu technical school, Dezhou",,37.462809,116.357559,172,85,7,28,24,10,-2,-14,1030,25,0,20141212170000
391,"Shuangyi group, Dezhou",,37.478848,116.316362,217,123,4,29,36,12,-2,-14,1030,25,0,20141212170000
392,Dezhou,,37.434959,116.363366,193,118,26,32,55,21,-2,-14,1030,25,0,20141212170000
393,"Dongchang District Government, Liaocheng",,36.444473,115.971733,178,108,24,33,42,23,0,-13,1030,23,1,20141212170000
394,"Light Machinery Factory No. 2, Liaocheng",,36.456788,116.002383,212,152,31,37,56,20,0,-13,1030,23,1,20141212170000
395,"City committee communist party school, Liaocheng",,36.479537,115.989288,168,96,16,34,52,24,0,-13,1030,23,1,20141212170000
396,"Customs, Liaocheng",,36.431933,115.956974,187,134,8,34,48,18,0,-13,1030,23,1,20141212170000
397,"Hongshun Garden, Liaocheng",,36.471124,115.960319,168,115,3,38,32,14,0,-13,1030,23,1,20141212170000
398,"BDA, Liaocheng",,36.459407,116.043621,560,138,7,35,47,17,0,-13,1030,23,1,20141212170000
399,Liaocheng,,36.456792,115.991051,178,108,24,33,42,23,0,-13,1030,23,1,20141212170000
400,"City EPA, Binzhou",,37.38024,118.026895,154,91,25,21,20,30,-2,-14,1030,25,1,20141212170000
401,"Beizhong new school, Binzhou",,37.38374,117.988996,156,85,17,31,39,31,-2,-14,1030,25,1,20141212170000
402,"No.2 water factory, Binzhou",,37.36155,118.002648,173,123,11,25,33,18,-2,-14,1030,25,1,20141212170000
403,"Keling Chemical factory, Binzhou",,37.396138,117.943609,152,66,11,22,19,20,-2,-14,1030,25,1,20141212170000
404,"Yinhe logistics company, Binzhou",,37.356122,117.943326,147,82,10,37,40,11,-2,-14,1030,25,1,20141212170000
405,"Bilin compond, Binzhou",,37.36815,117.978964,153,88,12,29,24,16,-2,-14,1030,25,1,20141212170000
406,Binzhou,,37.382639,117.976606,154,91,25,21,20,30,-2,-14,1030,25,1,20141212170000
407,"Bureau of Meteorology, Heze",,35.248625,115.428775,134,91,25,17,25,14,-1,-18,0,26,2,20141212170000
408,"Sewage treatment plant, Heze",,35.222517,115.531511,154,121,9,36,28,15,-1,-18,0,26,2,20141212170000
409,"Municipal CPPCC, Heze",,35.237125,115.480591,155,92,29,22,22,14,-1,-18,0,26,2,20141212170000
410,"Huarun Pharmaceutical Company, Heze",,35.261463,115.524873,153,88,17,18,23,16,-1,-18,0,26,2,20141212170000
411,"Heze University, Heze",,35.269706,115.460934,112,85,19,17,23,15,-1,-18,0,26,2,20141212170000
412,Heze,,35.233354,115.486503,134,91,25,17,25,14,-1,-18,0,26,2,20141212170000
413,"Shiji Park, Shijiazhuang",,38.03155,114.547873,270,185,24,38,71,15,-2,-15,1029,37,2,20141212170000
414,"Xinan College, Shijiazhuang",,38.012764,114.473163,129,124,18,18,27,12,-4,-15,1029,43,1,20141212170000
415,"Chemical College, Shijiazhuang",,38.055503,114.569816,156,75,29,37,55,9,-4,-15,1029,43,1,20141212170000
416,"Worker hospital, Shijiazhuang",,38.051784,114.461209,65,50,24,22,16,5,-4,-15,1029,43,1,20141212170000
417,"Northwest Water Company, Shijiazhuang",,38.140638,114.508038,161,97,29,28,27,4,-4,-15,1029,43,1,20141212170000
418,"High-tech zone, Shijiazhuang",,38.040482,114.610775,185,123,107,36,54,14,-4,-15,1029,43,1,20141212170000
419,"Fenglong Montain, Shijiazhuang",,37.910829,114.360264,109,46,34,10,32,2,-4,-15,1029,43,1,20141212170000
1130,"Zhengding Unicom, Shijiazhuang",,38.159458,114.59879,230,187,11,55,62,15,-2,-15,1029,37,2,20141212170000
1131,"Luancheng Communications, Shijiazhuang",,37.906534,114.638785,167,98,7,32,55,11,-2,-15,1029,37,2,20141212170000
1132,"Gaocheng Experimental School, Shijiazhuang",,38.039518,114.867812,216,182,7,29,61,21,-2,-15,1029,37,2,20141212170000
1133,"Wuji EPA, Shijiazhuang",,38.17862,114.997012,285,191,10,35,59,16,-2,-15,1029,37,2,20141212170000
1134,"Shenze Power Supply Bureau, Shijiazhuang",,38.197674,115.219126,230,157,6,30,55,23,-2,-15,1029,37,2,20141212170000
1135,"Zhaoxian EPA, Shijiazhuang",,37.77171,114.775957,188,95,7,41,60,15,-2,-15,1029,37,2,20141212170000
1136,"Gaoyi County City Hall, Shijiazhuang",,37.623535,114.612729,162,93,1,30,55,12,-2,-15,1029,37,2,20141212170000
1137,"Zanhuang County City Hall, Shijiazhuang",,37.672898,114.398269,99,53,21,8,26,4,-2,-15,1029,37,2,20141212170000
1138,"Jingxing Bureau of Meteorology, Shijiazhuang",,38.038788,114.158406,91,60,14,20,27,5,-2,-15,1029,37,2,20141212170000
1139,"Pingshan Ye River, Shijiazhuang",,38.266657,114.210275,102,70,12,17,36,6,-2,-15,1029,37,2,20141212170000
420,Shijiazhuang,,38.042926,114.520834,109,63,26,30,51,6,-4,-15,1029,43,1,20141212170000
421,"No. 12 middle school, Tangshan",,39.659306,118.190271,,,,,,,-,-,0,-,-,20141212180000
422,"Ceramics Company, Tangshan",,39.669255,118.225185,189,144,28,45,60,16,-3,-13,1029,47,2,20141212180000
423,"Commodities Bureau, Tangshan",,39.642301,118.191265,153,82,23,21,35,7,-3,-13,1029,47,2,20141212180000
424,"Leidazhanzi Station, Tangshan",,39.644375,118.150383,160,86,29,30,26,14,-3,-13,1029,47,2,20141212180000
425,"Supply and marketing cooperatives, Tangshan",,39.632334,118.17232,132,77,23,36,32,11,-3,-13,1029,47,2,20141212180000
1140,"Guye District City Hall, Tangshan",,39.741379,118.460246,169,118,6,30,32,9,-3,-15,1029,40,1,20141212180000
1141,"Kaiping Stations, Tangshan",,39.675246,118.275149,177,101,7,38,55,21,-3,-15,1029,40,1,20141212180000
1142,"Fengnan District City Hall, Tangshan",,39.5834,118.097454,156,81,9,11,40,7,-3,-15,1029,40,1,20141212180000
1143,"Fengrun City Hall, Tangshan",,39.840355,118.175338,178,73,10,28,27,14,-3,-15,1029,40,1,20141212180000
1144,"Qianxi EPA, Tangshan",,40.153339,118.317265,154,72,11,25,50,16,-3,-15,1029,40,1,20141212180000
1145,"Caofeidian Xinli  Primary School, Tangshan",,39.291232,118.462182,124,70,8,30,22,5,-3,-16,1029,37,1,20141212180000
1146,"Zunhua EPA, Tangshan",,40.206249,117.997315,129,63,17,20,44,6,-3,-15,1029,40,1,20141212180000
1147,"Qianan No.1 middle school, Tangshan",,40.004248,118.717055,155,73,15,27,15,7,-3,-15,1029,40,1,20141212180000
1266,"Luannan County , Tangshan",,39.511132,118.686928,154,68,10,29,40,10,-3,-15,1029,40,1,20141212180000
1267,"Yutian County , Tangshan",,39.908249,117.751417,179,116,8,34,29,15,-3,-15,1029,40,1,20141212180000
426,Tangshan,,39.632175,118.186472,153,82,23,21,35,7,-,-,0,-,-,20141212180000
427,"City Monitoring Station, Qinhuangdao",,39.958109,119.607773,82,28,18,17,18,11,,,0,,,20141212180000
428,"Beidaihe, Qinhuangdao",,39.829209,119.53194,78,43,8,18,25,14,,,0,,,20141212180000
429,"Shanhai Pass, Qinhuangdao",,40.019298,119.767898,102,24,16,15,11,10,,,0,,,20141212180000
430,"Contruction Plazz, Qinhuangdao",,39.943187,119.542912,61,57,11,23,19,5,,,0,,,20141212180000
431,"City government, Qinhuangdao",,39.93711,119.612769,59,34,18,19,18,6,,,0,,,20141212180000
1148,"Qinglong EPA, Qinhuangdao",,40.419223,118.958002,109,48,17,1,10,6,,,0,,,20141212180000
1149,"Changli EPA, Qinhuangdao",,39.714369,119.173237,132,79,10,33,23,7,,,0,,,20141212180000
1268,"Lulong County Bureau of Meteorology , Qinhuangdao",,39.901091,118.904857,165,81,10,20,28,11,,,0,,,20141212180000
432,Qinhuangdao,,39.936485,119.606263,59,34,18,19,18,6,,,0,,,20141212180000
433,"CongTai Park, Handan",,36.620197,114.501891,157,67,23,20,56,24,,,0,,,20141212180000
434,"City EPA, Handan",,36.618145,114.518822,122,63,27,33,54,23,,,0,,,20141212180000
435,"East Sewage Factory, Handan",,36.616064,114.548714,149,69,21,12,58,15,,,0,,,20141212180000
436,"Mine Hospital, Handan",,36.578149,114.509854,158,118,23,30,67,11,,,0,,,20141212180000
1150,"Fengfeng mine Inland Revenue Department, Handan",,36.423085,114.245994,142,63,8,15,57,5,,,0,,,20141212180000
1151,"Shexian EPA, Handan",,36.589084,113.692341,80,50,16,14,33,8,,,0,,,20141212180000
1152,"Ci County Vocational Education Center, Handan",,36.380247,114.390119,158,69,4,29,53,13,,,0,,,20141212180000
1153,"Yongnian government guesthouse, Handan",,36.783297,114.502905,181,118,5,32,58,21,,,0,,,20141212180000
1154,"Wuan BDA, Handan",,36.686223,114.269009,122,59,12,10,40,14,,,0,,,20141212180000
1085,Handan,,36.625683,114.544812,149,69,21,12,58,15,,,0,,,20141212180000
437,"Road and Bridge Corporation, Xingtai",,37.096415,114.538799,134,76,29,12,13,8,2,-19,1031,9,0,20141212180000
438,"Dahuo fontain, Xingtai",,37.097563,114.488001,72,46,29,12,10,5,2,-19,1031,9,0,20141212180000
439,"Xingtai Normal College, Xingtai",,37.053404,114.531819,87,58,21,17,36,24,2,-19,1031,9,0,20141212180000
440,"Environment protection office, Xingtai",,37.06253,114.490985,61,55,28,15,20,5,2,-19,1031,9,0,20141212180000
1155,"Cultural centers within the mound, Xingtai",,37.293569,114.524873,174,89,11,12,38,14,2,-19,1031,9,0,20141212180000
801,Hefei,,31.819449,117.232753,151,81,3,18,24,8,1,-7,1033,56,3,20141212180000
383,Xingtai,,37.071066,114.510749,61,55,28,15,20,5,2,-19,1031,9,0,20141212180000
441,"City Monitoring Station, Baoding",,38.871737,115.527103,204,126,25,35,52,25,-2,-17,1029,19,2,20141212180000
442,"Surface water Company, Baoding",,38.842891,115.467326,207,147,23,29,34,19,-2,-17,1029,19,2,20141212180000
443,"Huadian II, Baoding",,38.896748,115.528102,205,100,25,26,56,24,-2,-17,1029,19,2,20141212180000
444,"Reception Center, Baoding",,38.911905,115.477301,175,136,25,31,28,60,-2,-17,1029,19,2,20141212180000
445,"Film Factory, Baoding",,38.876949,115.448383,206,163,27,30,28,22,-2,-17,1029,19,2,20141212180000
446,"Natatorium, Baoding",,38.863815,115.499212,214,165,26,18,51,11,-2,-17,1029,19,2,20141212180000
1156,"Qingyuan City Hall, Baoding",,38.771758,115.502189,237,151,7,25,19,19,-2,-17,1029,19,2,20141212180000
1157,"Xushui EPA, Baoding",,39.025781,115.668023,190,106,12,25,24,13,-2,-17,1029,19,2,20141212180000
1158,"Zhuozhou Monitoring Stations, Baoding",,39.493241,116.040187,326,255,8,34,100,29,-2,-17,1029,19,2,20141212180000
1159,"Gaobeidian EPA, Baoding",,39.3329,115.885891,353,320,6,35,60,30,-2,-17,1029,19,2,20141212180000
447,Baoding,,38.874791,115.471124,206,163,27,30,28,22,-2,-17,1029,19,2,20141212180000
448,"Century Compound, Zhangjiakou",,40.770279,114.909106,59,20,26,6,1,3,-10,-21,0,44,5,20141212180000
449,"North Pumping Station, Zhangjiakou",,40.874362,114.910119,117,65,27,7,12,13,-10,-21,0,44,5,20141212180000
450,"Hardware Warehouse, Zhangjiakou",,40.81232,114.887119,50,44,27,8,13,16,-10,-21,0,44,5,20141212180000
451,"Tanji Chang, Zhangjiakou",,40.796301,114.89811,57,39,27,7,8,2,-10,-21,0,44,5,20141212180000
1160,"Xiahuayuan EPA, Zhangjiakou",,40.509345,115.302442,59,48,20,7,2,1,-7,-22,1032,16,4,20141212180000
1161,"Huaian EPA, Zhangjiakou",,40.68157,114.398646,21,67,18,12,4,9,-7,-22,1032,16,4,20141212180000
1162,"Huailai Fuqian Primary School, Zhangjiakou",,40.422204,115.530285,21,43,14,7,7,2,-7,-22,1032,16,4,20141212180000
1269,"Zhangbei EPA , Zhangjiakou",,41.166775,114.732369,93,42,22,2,10,3,-7,-22,1032,16,4,20141212180000
1270,"Kangbao County Environmental Protection Agency , Zhangjiakou",,41.837866,114.591246,42,24,25,1,2,1,-7,-22,1032,16,4,20141212180000
1271,"Guyuan County welfare , Zhangjiakou",,41.669984,115.687401,80,45,18,4,7,6,-7,-22,1032,16,4,20141212180000
1020,Baoji,,34.36056,107.242666,153,115,21,19,4,24,-6,-13,0,57,1,20141212180000
1272,"Shangyi County Environmental Protection Bureau , Zhangjiakou",,41.086638,113.984688,107,62,21,6,16,8,-7,-22,1032,16,4,20141212180000
1273,"Yuxian Secondary School , Zhangjiakou",,39.84699,114.601986,89,61,20,10,46,7,-7,-22,1032,16,4,20141212180000
1274,"Yang County Vocational Education Center , Zhangjiakou",,40.106343,114.134732,70,53,25,4,15,4,-7,-22,1032,16,4,20141212180000
1275,"Wan county Environmental Protection Agency , Zhangjiakou",,40.770459,114.75033,55,36,4,3,5,14,-7,-22,1032,16,4,20141212180000
1276,"Zhuolu County Environmental Protection Agency , Zhangjiakou",,40.374273,115.221393,78,49,24,5,6,2,-7,-22,1032,16,4,20141212180000
452,Zhangjiakou,,40.825744,114.893659,68,64,28,12,17,3,-10,-21,0,44,5,20141212180000
453,"Railway, Chengde",,40.917557,117.972331,142,63,27,20,15,5,-10,-18,1030,35,1,20141212180000
454,"Cultural Center, Chengde",,40.974625,117.824437,102,53,29,20,9,8,-10,-18,1030,35,1,20141212180000
455,"Bank of China, Chengde",,40.985582,117.958304,144,52,26,22,9,6,-10,-18,1030,35,1,20141212180000
456,"BDA, Chengde",,40.937567,117.969325,59,42,17,25,16,9,-10,-18,1030,35,1,20141212180000
457,"Ligong, Chengde",,41.012579,117.94428,85,27,20,3,2,2,-10,-18,1030,35,1,20141212180000
1163,"Chengde County EPA, Chengde",,40.776643,118.17646,95,48,14,20,17,7,-10,-18,1030,35,1,20141212180000
1164,"Xinglong County City Hall, Chengde",,40.424301,117.513488,152,57,13,22,9,12,-10,-18,1030,35,1,20141212180000
1165,"Luanping EPA, Chengde",,40.950792,117.350715,119,52,12,24,14,9,-10,-18,1030,35,1,20141212180000
1166,"Fengning County City Hall, Chengde",,41.216739,116.658037,156,71,13,14,33,13,-10,-18,1030,35,1,20141212180000
1277,"Longhua EPA , Chengde",,41.311956,117.739605,137,51,18,24,18,7,-10,-18,1030,35,1,20141212180000
458,Chengde,,40.955652,117.968737,59,42,17,25,16,9,-10,-18,1030,35,1,20141212180000
459,"Municipal EPB, Cangzhou",,38.323507,116.876746,162,95,25,35,47,7,-3,-15,1029,40,1,20141212180000
460,"Cangxian Urban Construction Bureau, Cangzhou",,38.299495,116.890734,152,88,23,30,51,12,-3,-13,1029,47,2,20141212180000
461,"TV Broadcast Station, Cangzhou",,38.325525,116.863761,152,96,21,28,21,9,-3,-13,1029,47,2,20141212180000
1167,"Qing County City Hall, Cangzhou",,38.589643,116.815876,188,86,3,31,50,14,-3,-15,1029,40,1,20141212180000
1168,"Poyoushi City Hall, Cangzhou",,38.089516,116.590575,155,100,8,19,27,18,-3,-15,1029,40,1,20141212180000
1169,"Huanghua Finance Bureau Training Center, Cangzhou",,38.377793,117.343356,172,106,13,24,25,8,-4,-13,1029,50,1,20141212180000
462,Cangzhou,,38.305035,116.844625,152,96,21,28,21,9,-3,-13,1029,47,2,20141212180000
463,"Environmental Monitoring Supervision Center, Langfang",,39.558157,116.720995,192,114,21,40,32,12,-3,-15,1029,40,1,20141212180000
464,"TCM Medical Material Company, Langfang",,39.519096,116.689914,175,116,14,38,41,14,-3,-13,1029,47,2,20141212180000
465,"BDA, Langfang",,39.576175,116.779041,172,79,20,25,30,13,-3,-13,1029,47,2,20141212180000
466,"North China Institute of Aerospace, Langfang",,39.53517,116.743027,180,105,6,40,37,14,-3,-15,1029,40,1,20141212180000
1170,"Guan Party School, Langfang",,39.446185,116.311026,191,104,11,43,25,18,-3,-15,1029,40,1,20141212180000
1171,"Xianghe EPA, Langfang",,39.76725,117.015252,240,143,12,38,45,26,-3,-15,1029,40,1,20141212180000
1173,"Three Rivers Department of Transportation, Langfang",,39.989419,117.091528,177,98,12,28,29,13,-3,-15,1029,40,1,20141212180000
1278,"Yongqing EPA , Langfang",,39.329071,116.510917,240,154,9,37,18,17,-3,-15,1029,40,1,20141212180000
1279,"Dacheng EPA, Langfang",,38.712628,116.665751,223,133,13,34,46,18,-3,-15,1029,40,1,20141212180000
467,Langfang,,39.539148,116.689668,175,116,14,38,41,14,-3,-13,1029,47,2,20141212180000
468,"Hengshui City EPB, Hengshui",,37.739679,115.695929,182,130,27,31,34,19,-2,-21,0,22,3,20141212180000
469,"Environmental Monitoring Station, Hengshui",,37.738593,115.648837,191,110,21,37,29,15,-2,-21,0,22,3,20141212180000
470,"Electrical Machine North Factory, Hengshui",,37.758686,115.70094,160,123,26,12,33,13,-2,-21,0,22,3,20141212180000
1174,"Anping EPA, Hengshui",,38.238559,115.537988,228,151,8,28,41,15,-2,-21,0,22,3,20141212180000
1175,"Jizhou EPA, Hengshui",,37.548552,115.58679,237,126,9,29,53,19,-2,-21,0,22,3,20141212180000
1280,"Zaoqiang EPA, Hengshui",,37.520698,115.714936,213,137,24,31,51,15,-2,-21,0,22,3,20141212180000
1281,"Wuyi EPA, Hengshui",,37.801554,115.898697,195,134,7,1,3,13,-2,-21,0,22,3,20141212180000
1282,"Wuqiang EPA , Hengshui",,38.03557,115.959767,169,95,7,28,-,11,-2,-21,0,22,3,20141212180000
1283,"Raoyang EPA , Hengshui",,38.230652,115.741041,209,134,8,24,37,11,-2,-21,0,22,3,20141212180000
1284,"Gucheng County , Hengshui",,37.347569,115.966707,207,110,18,24,50,16,-2,-21,0,22,3,20141212180000
471,Hengshui,,37.739562,115.676066,160,123,26,12,33,13,-2,-21,0,22,3,20141212180000
1176,"Xinji City Hall, Xinji",,37.949711,115.230084,200,126,4,27,47,17,-2,-21,0,22,3,20141212180000
472,"Fukang road, Tianjin",,39.098136,117.157621,168,91,22,36,16,19,-6,-11,1029,68,1,20141212180000
473,"Nankou road, Tianjin",,39.174022,117.199688,171,99,23,36,38,21,-6,-11,1029,68,1,20141212180000
474,"Qinjian street, Tianjin",,39.166588,117.15104,187,109,21,40,47,13,-6,-11,1029,68,1,20141212180000
475,"Nanjing Road, Tianjin",,39.120958,117.195112,168,101,22,38,56,16,-6,-11,1029,68,1,20141212180000
476,"Dazhigu No.8 road, Tianjin",,39.111811,117.25147,161,99,19,29,51,18,-6,-11,1029,68,1,20141212180000
477,"Qianjin street, Tianjin",,39.09371,117.207981,164,106,20,41,53,16,-6,-11,1029,68,1,20141212180000
478,"Huaihe street, Tianjin",,39.227167,117.191293,189,124,20,27,26,18,-6,-11,1029,68,1,20141212180000
479,"Xiangshan street, Tianjin",,39.134752,117.275125,162,103,20,34,32,20,-6,-11,1029,68,1,20141212180000
480,"Yuejin Road, Tianjin",,39.088177,117.320884,163,82,21,44,52,15,-6,-11,1029,68,1,20141212180000
481,"Zhujiang street, Tianjin",,39.064463,117.231268,-,-,-,-,-,-,-,-,0,-,-,20141212180000
482,"No.4 street, Tianjin",,39.035228,117.713424,153,92,6,43,23,21,-6,-11,1029,68,1,20141212180000
483,"Yongming road, Tianjin",,38.840392,117.463805,173,104,22,32,25,13,-6,-11,1029,68,1,20141212180000
484,"Xinhua street, Tianjin",,39.138671,117.010083,225,147,4,42,51,23,-6,-11,1029,68,1,20141212180000
485,"Jingu Road, Tianjin",,38.985659,117.381254,171,145,4,39,37,24,-3,-15,1029,40,1,20141212180000
486,"Tanggu Yingkou street, Tianjin",,39.021768,117.656454,158,88,4,34,32,14,-3,-15,1029,40,1,20141212180000
487,"Hexi Yijing road, Tianjin",,39.248392,117.798043,161,73,5,20,33,16,-3,-15,1029,40,1,20141212180000
488,"Jianshe Road, Tianjin",,39.720075,117.310588,188,109,3,31,24,25,-6,-11,1029,68,1,20141212180000
489,"Quanzhou South road, Tianjin",,39.373857,117.050329,156,92,7,39,54,10,-3,-15,1029,40,1,20141212180000
490,"Donghuan road, Tianjin",,40.043144,117.451062,151,88,3,27,24,15,-6,-11,1029,68,1,20141212180000
491,"Tuanpowa, Tianjin",,38.920418,117.16299,180,120,26,30,18,16,-6,-11,1029,68,1,20141212180000
493,"Beiwei No.2 road, Tianjin",,38.943857,116.920624,204,129,4,35,40,23,-6,-11,1029,68,1,20141212180000
494,"Haitai fazhan No.2 road, Tianjin",,39.079608,117.096583,245,158,4,34,38,25,-3,-15,1029,40,1,20141212180000
495,"Hangtian road, Tianjin",,39.152244,117.381309,167,97,22,41,38,20,-6,-11,1029,68,1,20141212180000
496,"Hanbei road, Tianjin",,39.159768,117.770477,139,75,20,28,32,19,-6,-11,1029,68,1,20141212180000
497,"Baobai highway, Tianjin",,39.51757,117.349635,162,88,6,18,32,10,-3,-15,1029,40,1,20141212180000
498,Tianjin,,39.085164,117.207281,164,106,20,41,53,16,-3,-13,1029,47,2,20141212180000
499,"Wolong bridge, Hangzhou",,30.24371,120.132762,99,55,24,11,13,6,1,-5,1032,65,1,20141212180000
500,"Hemu primary school, Hangzhou",,30.309669,120.124507,156,87,28,34,11,14,1,-5,1032,65,1,20141212180000
501,"Zhejiang Agricultural University, Hangzhou",,30.265601,120.197583,147,76,19,32,13,10,1,-5,1032,65,1,20141212180000
502,"Xiasha, Hangzhou",,30.303516,120.352618,153,76,19,39,20,7,1,-5,1032,65,1,20141212180000
503,"Yunqi, Hangzhou",,30.178555,120.093142,93,53,25,17,9,5,1,-5,1032,65,1,20141212180000
504,"Xixi, Hangzhou",,30.272425,120.068144,122,67,30,33,7,9,1,-5,1032,65,1,20141212180000
505,"Chengxiang town, Hangzhou",,30.179493,120.274184,159,91,24,29,15,12,1,-5,1032,65,1,20141212180000
506,"Qiandao lake, Hangzhou",,29.638139,119.031092,104,60,32,8,5,6,1,-5,1032,65,1,20141212180000
507,"Linping town, Hangzhou",,30.415948,120.305059,144,68,23,22,28,9,1,-5,1032,65,1,20141212180000
508,"Fuyang monitoring station, Hangzhou",,30.048419,119.963469,154,100,31,25,15,13,1,-5,1032,65,1,20141212180000
509,"No.2 Middle School, Hangzhou",,30.044303,119.956356,151,101,21,18,15,11,1,-5,1032,65,2,20141212180000
510,"City Hall, Hangzhou",,30.234185,119.723503,151,76,101,18,26,10,1,-5,1032,65,1,20141212180000
511,"No. 4 middle school, Hangzhou",,30.229428,119.699591,114,67,4,27,7,7,1,-5,1032,65,1,20141212180000
512,Hangzhou,,30.271756,120.159765,147,80,22,34,11,12,2,-5,1032,60,1,20141212180000
513,"City Station, Wenzhou",,28.009715,120.679129,171,102,37,44,15,8,3,-2,0,62,3,20141212180000
514,"Ouhai, Wenzhou",,28.001846,120.641982,168,100,38,47,15,11,3,-2,0,62,3,20141212180000
515,"Longwan, Wenzhou",,27.968122,120.768393,169,108,33,35,15,12,3,-2,0,62,3,20141212180000
516,"Nanpu, Wenzhou",,27.981763,120.683685,177,114,32,44,17,15,3,-2,0,62,3,20141212180000
517,Wenzhou,,27.990985,120.703425,177,114,32,44,17,15,3,-2,0,62,3,20141212180000
518,"Monitoring station, Jiaxing",,30.75437,120.767373,153,81,26,38,34,13,3,-6,1031,52,4,20141212180000
519,"Jiaxing University, Jiaxing",,30.745099,120.735004,153,81,25,39,34,9,3,-6,1031,52,4,20141212180000
520,"Qinghe Primary School, Jiaxing",,30.775685,120.747969,154,73,24,36,28,8,3,-6,1031,52,4,20141212180000
521,Jiaxing,,30.751627,120.762862,153,81,26,38,34,13,3,-6,1031,52,4,20141212180000
522,"Chengbei water plant, Huzhou",,30.891155,120.096593,155,62,18,37,26,8,3,-6,1031,52,4,20141212180000
523,"Jishan new village, Huzhou",,30.859939,120.120168,162,80,19,38,32,10,3,-6,1031,52,4,20141212180000
524,"Town west water plant, Huzhou",,30.862371,120.084577,155,80,17,33,38,8,3,-6,1031,52,4,20141212180000
525,Huzhou,,30.892304,120.091694,155,62,18,37,26,8,3,-6,1031,52,4,20141212180000
526,"Donghu middle school, Shaoxing",,29.990447,120.647547,154,87,15,26,25,6,1,-5,1032,65,2,20141212180000
527,"City EPA station, Shaoxing",,30.001695,120.584318,164,107,24,31,24,9,1,-5,1032,65,1,20141212180000
528,"Chengdong BDA committee, Shaoxing",,29.986643,120.613578,159,98,23,23,12,10,1,-5,1032,65,1,20141212180000
529,"Paojiang station, Shaoxing",,30.07574,120.62154,178,128,24,38,47,8,1,-5,1032,65,1,20141212180000
530,"Shaoxing technical school, Shaoxing",,29.930983,120.577131,117,71,11,21,10,8,1,-5,1032,65,2,20141212180000
531,"Library, Shaoxing",,29.706266,120.253183,164,94,20,13,2,24,1,-5,1032,65,1,20141212180000
532,"Transporation management station, Shaoxing",,29.726405,120.221602,161,95,31,28,9,25,1,-5,1032,65,1,20141212180000
533,"Dongpu Town Governement, Shaoxing",,30.049601,120.539893,221,171,7,22,34,12,1,-5,1032,65,2,20141212180000
534,Shaoxing,,29.993122,120.590182,164,107,24,31,24,9,-,-,0,-,-,20141212180000
535,"City Monitoring Station, Jinhua",,29.100031,119.690373,142,84,31,23,8,11,0,-8,0,51,1,20141212180000
536,"No.15 middle school, Jinhua",,29.074022,119.652121,139,86,30,25,17,13,0,-8,0,51,1,20141212180000
537,"No.4 middle school, Jinhua",,29.110109,119.653654,156,99,30,29,32,13,0,-8,0,51,1,20141212180000
538,"Beiyuan, Jinhua",,29.332898,120.083351,167,115,21,27,20,15,0,-8,0,51,1,20141212180000
539,"Jiangdong, Jinhua",,29.302486,120.095291,168,100,33,28,17,13,0,-8,0,51,1,20141212180000
540,Jinhua,,29.076083,119.65215,139,86,30,25,17,13,0,-8,0,51,1,20141212180000
541,"EPA building, Quzhou",,28.937291,118.876081,107,72,32,19,13,13,2,0,1033,85,1,20141212180000
542,"Experimental school, Quzhou",,28.961502,118.880916,109,67,42,35,19,6,2,0,1033,85,1,20141212180000
543,"Quzhou University, Quzhou",,28.971452,118.860052,102,59,37,20,10,16,2,0,1033,85,1,20141212180000
544,Quzhou,,28.966994,118.864252,102,59,37,20,10,16,2,0,1033,85,1,20141212180000
545,"Putuo east port, Zhoushan",,29.951412,122.317679,102,63,29,12,15,9,1,-4,1032,70,2,20141212180000
546,"Dinghai tanfeng, Zhoushan",,30.018014,122.126566,87,64,29,12,14,6,1,-4,1032,70,2,20141212180000
547,Zhoushan,,29.983049,122.210763,104,66,72,12,9,5,1,-4,1032,70,2,20141212180000
548,"Taizhou EPA building, Taizhou",,28.651216,121.42331,157,85,31,17,7,7,2,-4,0,57,3,20141212180000
549,"Luqiao Tian Yang Wang, Taizhou",,28.574364,121.381194,167,104,24,24,7,11,2,-4,0,57,3,20141212180000
550,"Huangyan EPA building, Taizhou",,28.656151,121.285064,165,105,23,24,12,11,2,-4,0,56,3,20141212180000
551,"Yu Zhuang Qian, Lishui",,28.419638,119.883884,134,69,43,25,4,6,3,-2,1033,59,0,20141212180000
552,"Monitoring station building, Lishui",,28.444379,119.923103,152,72,36,20,6,8,3,-2,1033,59,0,20141212180000
553,"Liandu primary school, Lishui",,28.450912,119.939332,153,88,35,20,4,8,3,-2,1033,59,0,20141212180000
554,Lishui,,28.464224,119.927201,152,72,36,20,6,8,3,-2,1033,59,0,20141212180000
1248,Jingningxian,,27.977454,119.634837,154,75,5,22,6,10,,,,,,20141212180000
555,Taigu Primary School,,29.864178,121.60022,156,87,6,29,26,11,1,-4,1032,70,2,20141212180000
556,Qianhu shuihan,,29.862459,121.5328,161,103,4,37,25,15,1,-4,1032,70,2,20141212180000
557,Sanjiang secondary schools,,29.891563,121.568427,155,90,3,37,28,11,1,-4,1032,70,2,20141212180000
558,Longsai Hospital,,29.957301,121.726734,151,66,6,32,32,9,1,-4,1032,70,2,20141212180000
559,Beilun District EPB,,29.911633,121.850773,153,76,7,29,21,10,1,-4,1032,70,2,20141212180000
561,Qianhu water plant,,29.774416,121.648136,190,125,5,39,31,11,1,-4,1032,70,2,20141212180000
562,Municipal management station,,29.899182,121.626691,160,105,3,36,23,11,1,-4,1032,70,2,20141212180000
1177,Daxie Literary Museum,,29.9027,121.986447,112,62,17,13,16,7,1,-4,1032,70,2,20141212180000
1178,Cixi EPB,,30.165807,121.248991,156,78,7,31,22,10,1,-4,1032,70,2,20141212180000
1179,Cixi Experimently Primary School,,30.179808,121.268672,157,80,7,22,21,12,1,-4,1032,70,2,20141212180000
1180,"Yongsan Park, Yuyao",,30.050842,121.162477,167,93,4,20,25,20,1,-4,1032,70,2,20141212180000
1181,"Qilupu Water Company, Yuyao",,30.039112,121.133416,163,104,4,24,19,13,1,-4,1032,70,2,20141212180000
1182,Fenghua EPB,,29.666557,121.42069,153,74,9,30,13,11,1,-4,1032,70,2,20141212180000
1183,"Yuelong station, Ninghai",,29.296505,121.445872,149,77,5,25,21,9,1,-4,1032,70,2,20141212180000
1184,"Wenfeng Primary School, Xiangshan",,29.470908,121.889544,153,80,10,17,14,10,1,-4,1032,70,2,20141212180000
1185,"Chengnan Primary School, Ninghai",,29.293812,121.43666,158,85,5,20,14,9,1,-4,1032,70,2,20141212180000
1186,"Xingang Primary School, Xiangshan",,29.203878,121.952514,132,70,18,12,19,7,1,-4,1032,70,2,20141212180000
1356,Haishu City Monitoring Center,,29.86835,121.539341,155,91,3,35,25,15,1,-4,1032,70,2,20141212180000
1357,Fenghua Xikou government,,29.693164,121.29331,127,65,6,25,9,9,1,-4,1032,70,2,20141212180000
1294,Ningbo,,29.865766,121.548164,160,105,3,36,23,11,1,-4,1032,70,2,20141212180000
1187,Fuyang,,30.046157,119.96468,154,100,31,25,15,13,-,-,0,-,-,20141212180000
1188,Yiwu,,29.304353,120.079794,168,115,33,28,20,15,-,-,0,-,-,20141212180000
1189,Zhuji,,29.711185,120.240748,164,95,31,28,9,24,1,-5,1032,65,1,20141212180000
563,"Shanxi Road , Nanjing",,32.06795,118.779216,102,76,25,19,10,0,-3,-4,1033,93,2,20141212180000
564,"Ruijin Road , Nanjing",,32.029321,118.80817,87,67,12,33,10,0,-2,-6,1033,74,2,20141212180000
565,"Xuanwu Lake, Nanjing",,32.075423,118.800188,104,69,23,31,11,0,-3,-4,1033,93,2,20141212180000
566,"Olympic Center, Nanjing",,32.007171,118.742217,82,68,29,17,4,0,-3,-4,1033,93,2,20141212180000
567,"Xianlin University Town , Nanjing",,32.106958,118.919882,127,86,20,35,15,0,-3,-4,1033,93,2,20141212180000
568,Nanjing,,32.058179,118.802061,102,81,29,20,11,0,-2,-6,1033,74,2,20141212180000
569,"Shangfang hill , Suzhou",,31.24502,120.565211,155,71,19,24,11,0,5,-5,1032,49,4,20141212180000
570,"Wuzhong District , Suzhou",,31.268105,120.61717,158,60,27,40,17,0,5,-4,1031,53,4,20141212180000
571,"Suzhou New District , Suzhou",,31.297277,120.547262,162,80,18,38,32,0,3,-6,1032,52,4,20141212180000
572,"Suzhou Industrial Area, Suzhou",,31.307603,120.673257,159,87,20,38,27,0,3,-6,1032,52,4,20141212180000
573,"Xiangcheng district, Suzhou",,31.368674,120.645209,159,91,18,41,38,0,3,-6,1032,52,4,20141212180000
574,Suzhou,,31.296701,120.589493,166,97,23,41,46,0,3,-6,1032,52,4,20141212180000
575,"South suburb , Nantong",,31.957836,120.917218,154,74,23,16,22,0,0,-10,0,43,4,20141212180000
576,"Xinghu park, Nantong",,31.927873,120.944254,114,95,26,22,22,0,0,-10,0,42,4,20141212180000
577,"Zilang school, Nantong",,32.039638,120.814358,167,100,25,22,19,0,0,-10,0,42,4,20141212180000
578,Nantong,,31.978005,120.898555,154,74,23,16,22,0,0,-10,0,43,4,20141212180000
579,Lianyungang,,34.595509,119.226814,152,84,21,27,10,7,8,8,1016,96,0,20141212180000
580,"Hongmen police substation, Lianyungang",,34.588692,119.146693,202,79,24,19,29,0,-1,-10,1032,38,1,20141212180000
581,"Xugou Nuclear Expert Village , Lianyungang",,34.749957,119.373707,165,110,26,23,54,0,-1,-10,1032,38,1,20141212180000
582,"Hengrui pharmaceutical company, BDA, Lianyungang",,34.697574,119.353668,153,89,27,31,57,0,-1,-10,1032,38,1,20141212180000
583,"City Monitoring Station, Lianyungang",,34.586791,119.186929,162,96,25,27,24,0,-1,-10,1032,38,1,20141212180000
584,"Yellow river new village , Xuzhou",,34.271542,117.177241,80,76,22,25,38,0,-4,-10,1031,52,1,20141212180000
585,"Tongshan Veterinary Hospital , Xuzhou",,34.307086,117.197766,97,98,25,30,17,0,-3,-7,1032,67,0,20141212180000
586,"New Town , Xuzhou",,34.213992,117.261718,155,101,27,31,16,0,-3,-7,1032,67,0,20141212180000
587,"Taoyuan road, Xuzhou",,34.289822,117.249721,117,82,25,16,28,0,-3,-7,1032,67,0,20141212180000
588,"Agricultural Science Academy , Xuzhou",,34.27655,117.299079,109,98,20,32,21,0,-3,-7,1032,67,0,20141212180000
589,"Tongshan EPA, Xuzhou",,34.179384,117.171798,124,101,25,14,19,0,-3,-7,1032,67,0,20141212180000
590,Xuzhou,,34.20346,117.289825,124,101,25,30,19,0,-3,-7,1032,67,0,20141212180000
591,Yangzhou,,32.39233,119.418446,159,69,10,19,10,5,11,9,0,90,6,20141212180000
592,"Hanjiang Monitoring Station, Yangzhou",,32.374218,119.394484,144,70,27,8,9,0,0,-8,0,50,3,20141212180000
593,"No. 4 Hospital, Yangzhou",,32.401394,119.44444,153,63,28,18,19,0,0,-8,0,50,3,20141212180000
594,"City Monitoring Station, Yangzhou",,32.406588,119.41591,132,69,26,18,21,0,0,-8,0,50,3,20141212180000
595,"University Town , Wuxi",,31.484752,120.273571,162,89,21,25,21,0,3,-6,1032,52,4,20141212180000
596,"Shibei High School , Wuxi",,31.619969,120.279584,184,116,23,33,52,0,3,-6,1032,52,4,20141212180000
597,"Yuhong Elementary School , Wuxi",,31.561155,120.249588,162,87,17,26,30,0,3,-6,1032,52,4,20141212180000
598,Wuxi,,31.488746,120.31575,184,116,23,33,52,0,3,-6,1032,52,4,20141212180000
599,Changzhou,,31.808037,119.979205,172,86,6,22,36,13,11,9,0,88,5,20141212180000
600,"Chengjian School, Changzhou",,31.776476,119.937681,151,87,22,12,21,0,1,-6,0,53,3,20141212180000
601,"Changzhou Engineering Institute , Changzhou",,31.806828,119.966724,153,88,24,26,26,0,1,-6,0,53,3,20141212180000
602,"Wujin Monitoring Station, Changzhou",,31.701788,119.939676,162,93,27,22,20,0,1,-6,0,53,3,20141212180000
603,"City Monitoring Station, Changzhou",,31.777201,119.979426,154,86,22,28,19,0,1,-6,0,53,3,20141212180000
604,Zhenjiang,,32.18597,119.431281,170,79,4,39,15,13,9,8,0,93,5,20141212180000
605,"New District Administrative office , Zhenjiang",,32.186174,119.685021,151,89,21,28,13,0,0,-7,0,56,2,20141212180000
606,"Vocational Education Center , Zhenjiang",,32.212973,119.496253,144,73,31,33,16,0,0,-7,0,56,2,20141212180000
607,"Dantu Monitoring Station , Zhenjiang",,32.130026,119.435432,134,80,23,23,25,0,0,-7,0,56,2,20141212180000
608,"City Monitoring Station, Zhenjiang",,32.202178,119.439766,151,70,29,25,8,0,0,-7,0,56,2,20141212180000
609,"Gaogang Adminstrative office , Taizhoushi",,32.300768,119.886757,157,79,26,12,22,0,0,-8,0,50,3,20141212180000
610,"Students Innovation Park , Taizhoushi",,32.461672,119.892761,158,100,24,11,23,0,0,-8,0,50,3,20141212180000
611,Taizhoushi,,32.453555,119.927852,162,83,26,26,22,0,0,-8,0,50,3,20141212180000
612,"Yancheng power station , Yancheng",,33.400859,120.123067,161,87,29,16,22,0,,,0,,,20141212180000
613,Yancheng,,33.345939,120.168504,144,52,30,5,3,7,11,10,1016,95,4,20141212180000
614,"Wenfeng Middle School , Yancheng",,33.370531,120.134041,158,93,42,25,52,0,,,0,,,20141212180000
615,"BDA Management Committe, Yancheng",,33.393191,120.22978,139,68,29,20,46,0,,,0,,,20141212180000
616,"City Monitoring Station, Yancheng",,33.390623,120.164423,164,91,26,17,36,0,,,0,,,20141212180000
617,Suqian,,33.960666,118.281004,160,87,24,7,5,7,11,10,0,91,6,20141212180000
618,"Suqian College , Suqian",,33.951472,118.298523,154,90,17,28,16,0,0,-12,0,37,2,20141212180000
619,"Suqian Middle School , Suqian",,33.95784,118.249505,172,141,17,35,15,0,0,-12,0,37,2,20141212180000
620,"Suyu District Environmental Protection Agency , Suqian",,33.94932,118.326569,172,89,26,25,15,0,0,-12,0,37,2,20141212180000
621,"City Monitoring Station, Suqian",,33.956982,118.277022,167,90,13,22,35,0,0,-12,0,37,2,20141212180000
622,Taizhou,,28.653436,121.425185,155,82,31,15,8,7,2,-4,0,57,3,20141212180000
623,Donghu Liyuan,,30.572324,114.377844,157,73,3,40,6,11,2,-2,1033,75,2,20141212180000
624,Yuehu Lake,,30.554662,114.256937,168,102,4,56,4,10,2,-2,1033,75,2,20141212180000
625,Hankou Huaqiao ,,30.61724,114.287652,169,103,7,49,18,11,2,-2,1033,75,2,20141212180000
626,Wuchang Ziyang ,,30.530801,114.309438,162,125,10,46,17,7,2,-2,1033,75,2,20141212180000
627,Qingshan Ganghua,,30.622435,114.375599,175,92,3,44,15,17,2,-2,1033,75,2,20141212180000
628,Dunkou Xinou,,30.480091,114.162176,165,95,4,40,11,10,2,-2,1033,75,2,20141212180000
629,Donghu Gaoxin,,30.48095,114.40724,158,91,9,36,9,8,2,-2,1033,75,2,20141212180000
630,Wujianshan,,30.63114,114.135907,167,97,7,38,50,18,2,-2,1033,75,2,20141212180000
631,Yuanshun Road,,30.297142,113.858587,122,65,29,11,9,4,2,-2,1033,75,2,20141212180000
632,Wuhan,,30.590689,114.310838,154,86,5,44,15,9,2,-2,1033,75,2,20141212180000
1190,"Silingsan Factory, Yichang",,30.713288,111.306585,154,62,14,26,10,8,4,-5,1034,36,2,20141212180000
1190,"Silingsan Factory, Yichang",,30.713288,111.306585,154,62,14,26,10,8,4,-5,1034,36,2,20141212180000
633,Yichang,,30.689528,111.292131,183,148,23,27,10,9,2,-5,1032,49,2,20141212180000
1191,"City Library , Jingzhou",,30.31494,112.260844,147,67,33,22,22,9,5,-3,1033,46,0,20141212180000
1191,"City Library , Jingzhou",,30.31494,112.260844,147,67,33,22,22,9,5,-3,1033,46,0,20141212180000
1192,"City committee communist party school, Jingzhou",,30.349004,112.212531,132,77,32,25,26,15,5,-3,1033,46,0,20141212180000
1192,"City committee communist party school, Jingzhou",,30.35054,112.20743,132,77,32,25,26,15,5,-3,1033,46,0,20141212180000
1193,"kerong EPA, Jingzhou",,30.302965,112.29443,172,106,34,33,117,11,5,-3,1033,46,0,20141212180000
1193,"kerong EPA, Jingzhou",,30.302965,112.29443,172,106,34,33,117,11,5,-3,1033,46,0,20141212180000
634,Jingzhou,,30.332608,112.245451,172,106,34,33,117,15,5,-3,1033,46,0,20141212180000
634,Jingzhou,,30.332608,112.245451,172,106,34,33,117,15,5,-3,1033,46,0,20141212180000
635,Huangshi,,30.19723,115.043908,160,114,8,29,55,20,-2,,1035,100,1,20141212180000
635,Huangshi,,30.19723,115.043908,160,114,8,29,55,20,-2,,1035,100,1,20141212180000
1194,"Chenjiaying, Huangshi",,30.232823,115.067923,172,114,9,32,72,14,-2,,1035,100,1,20141212180000
1195,"Chenjiawan , Huangshi",,30.200422,115.082138,153,86,6,26,70,18,-2,,1035,100,1,20141212180000
1196,"Xinxialu, Huangshi",,30.17332,114.954357,153,156,12,32,24,42,-2,,1035,100,1,20141212180000
1197,"Tie montian, Huangshi",,30.203885,114.906439,164,101,4,26,7,11,-2,,1035,100,1,20141212180000
1198,"BDA, Huangshi",,30.207491,115.031739,165,101,13,31,93,12,-0,,1036,100,1,20141212180000
636,Shiyan,,32.627208,110.803311,129,67,10,12,12,6,-7,,963,76,2,20141212180000
636,Shiyan,,32.627208,110.803311,129,67,10,12,12,6,-7,,963,76,2,20141212180000
1199,"Wudang Mountain , Shiyan",,32.392921,111.047655,57,41,22,1,4,4,-7,,963,76,2,20141212180000
1200,"Riverside Village , Shiyan",,32.647286,110.785335,153,78,6,22,15,11,-7,,963,76,2,20141212180000
1201,"Liujiagou , Shiyan",,32.636732,110.731129,129,65,10,14,17,2,-7,,963,76,2,20141212180000
637,Xiangyang,,32.007029,112.128496,153,93,11,23,41,8,-4,,1033,76,1,20141212180000
637,Xiangyang,,32.007029,112.128496,153,93,11,23,41,8,-4,,1033,76,1,20141212180000
638,Ezhou,,30.389244,114.899884,166,102,6,30,32,11,0,,1046,100,3,20141212180000
638,Ezhou,,30.389244,114.899884,166,102,6,30,32,11,0,,1046,100,3,20141212180000
1203,"City government, Ezhou",,30.391836,114.892822,164,88,6,33,48,13,0,,1046,100,3,20141212180000
1204,"Zhaojiaba, Ezhou",,30.368966,114.90365,175,114,4,30,23,10,0,,1046,100,3,20141212180000
1205,"Fankou BDA, Ezhou",,30.410759,114.818225,159,104,7,27,23,9,-1,,1043,100,1,20141212180000
639,Jingmen,,31.033208,112.205093,154,100,7,24,15,15,-5,,1029,82,1,20141212180000
639,Jingmen,,31.033208,112.205093,154,100,7,24,15,15,-5,,1029,82,1,20141212180000
1372,"Zhuyuan primary school, Jingmen",,31.046123,112.207214,154,146,3,28,11,13,-5,,1029,82,1,20141212180000
1373,"City government, Jingmen",,31.035297,112.198897,122,75,11,2,9,8,-5,,1029,82,1,20141212180000
640,Xiaogan,,30.922089,113.922387,153,84,11,15,17,10,2,,1033,74,2,20141212180000
640,Xiaogan,,30.922089,113.922387,153,84,11,15,17,10,2,,1033,74,2,20141212180000
1206,"wenhua street, Shenyang , Xiaogan",,30.925856,113.92104,151,83,6,17,17,11,2,,1033,74,2,20141212180000
1207,"Dongcheng District , Huludao , Xiaogan",,30.917963,113.943904,155,85,16,12,17,8,2,,1033,74,2,20141212180000
641,Huanggang,,30.45124,114.877378,156,113,6,27,12,22,1,,1043,100,2,20141212180000
641,Huanggang,,30.45124,114.877378,156,113,6,27,12,22,1,,1043,100,2,20141212180000
1208,"Dazhou Island, Huanggang",,30.446205,114.900323,157,95,5,28,14,22,0,,1046,100,3,20141212180000
1209,"Workers Center , Huanggang",,30.469244,114.912504,155,130,8,26,11,21,0,,1046,100,3,20141212180000
642,Xianning,,29.838978,114.327898,142,78,5,15,4,11,-9,,1008,67,1,20141212180000
642,Xianning,,29.838978,114.327898,142,78,5,15,4,11,-9,,1008,67,1,20141212180000
1210,"Municipal Development and Reform Commission , Xianning",,29.818645,114.328461,147,75,4,13,1,9,-9,,1008,67,1,20141212180000
1211,"Xianan District Governement, Xianning",,29.51107,114.181864,122,69,9,13,5,9,-6,,1018,83,1,20141212180000
1212,"Yangtze River Industrial Park , Xianning",,29.883098,114.32909,153,87,4,17,8,16,-9,,1008,67,1,20141212180000
1213,"Qianshan Park, Xianning",,29.815351,114.328689,142,82,6,16,2,10,-9,,1008,67,1,20141212180000
643,Suizhou,,31.688342,113.388675,149,81,8,18,6,20,-7,,1031,75,1,20141212180000
643,Suizhou,,31.688342,113.388675,149,81,8,18,6,20,-7,,1031,75,1,20141212180000
1338,"City committee communist party school, Suizhou",,31.725316,113.3648,153,85,6,21,8,20,-7,,1031,75,1,20141212180000
1339,"Forestry Bureau, Suizhou",,31.690065,113.383157,129,65,19,25,11,25,-7,,1031,75,1,20141212180000
644,Enshi,,30.292138,109.484562,153,68,4,11,4,8,-2,,,90,1,20141212180000
644,Enshi,,30.269587,109.493042,153,68,4,11,4,8,-2,,,90,1,20141212180000
1374,"State Power Company, Enshi",,30.296275,109.508711,154,74,2,10,6,7,-2,,,90,1,20141212180000
645,Xiantao,,30.360228,113.460616,117,50,12,15,15,8,-5,,1046,81,1,20141212180000
645,Xiantao,,30.360228,113.460616,117,50,12,15,15,8,-5,,1046,81,1,20141212180000
646,Qianjiang,,30.399387,112.905661,152,78,7,21,1,15,-4,,1042,76,1,20141212180000
646,Qianjiang,,30.399387,112.905661,152,78,7,21,1,15,-4,,1042,76,1,20141212180000
1088,Shennongjia,,31.741307,110.685554,95,50,245,4,1,5,-12,,,63,1,20141212180000
1088,Shennongjia,,31.741307,110.685554,95,50,245,4,1,5,-12,,,63,1,20141212180000
1214,"Xiangcheng Yundong Street, Xiangfan",,32.017716,112.16102,144,100,11,19,43,7,-4,,1033,76,1,20141212190000
1359,"Fancheng Xinhua Road , Xiangfan",,32.0544,112.145224,157,85,11,28,39,10,-4,,1033,76,1,20141212190000
655,"City Environmental Monitoring Station, Baotou",,40.657201,109.886738,177,113,18,28,28,22,,,0,,,20141212190000
656,"Donghe EPB, Baotou",,40.586213,110.002224,159,122,17,24,29,23,,,0,,,20141212190000
657,"Baotou shopping mall, Baotou",,40.508334,109.819085,181,122,17,28,35,23,,,0,,,20141212190000
658,"Huilong logistics, Baotou",,40.633436,109.879821,139,80,23,31,31,19,,,0,,,20141212190000
659,Baotou,,40.658597,109.846051,181,122,18,28,35,23,,,0,,,20141212190000
660,"Huatai Automobile Mall, Eerduosi",,39.837048,109.972209,42,29,31,6,4,4,-10,-21,1037,24,2,20141212190000
661,"Olympus Garden, Eerduosi",,39.789171,109.987742,61,31,17,5,7,5,-10,-21,1037,24,2,20141212190000
662,Eerduosi,,39.609284,109.78704,68,32,31,7,7,7,-10,-21,1037,24,2,20141212190000
663,"Tianyi Road, Chifeng",,42.275552,118.88507,42,11,21,4,11,7,-14,-23,1030,31,2,20141212190000
664,"Songshan No.1 Middle School, Chifeng",,42.329307,118.793045,151,62,13,32,66,13,-13,-23,1030,30,2,20141212190000
665,"Hada Street, Chifeng",,42.280714,118.988235,89,48,17,6,51,12,-13,-23,1030,30,2,20141212190000
666,"Songshan Road, Chifeng",,42.171487,118.89501,137,69,14,8,36,6,-14,-23,1030,31,2,20141212190000
667,Chifeng,,42.259752,118.893027,151,69,21,32,66,13,-13,-23,1030,30,2,20141212190000
674,Fuzhou,,26.071406,119.301294,134,86,28,15,5,10,11,0,1028,47,4,20141212190000
675,"Xidong, Xiamen",,24.815345,118.161848,122,53,19,9,3,6,12,5,1027,62,7,20141212190000
676,"Hongwen, Xiamen",,24.473969,118.156281,151,69,18,8,4,8,12,5,1027,62,7,20141212190000
677,"Gulangyu, Xiamen",,24.443168,118.068571,159,77,31,6,6,8,12,5,1027,62,7,20141212190000
678,"Huli, Xiamen",,24.51235,118.099146,161,77,31,10,5,9,12,5,1027,62,7,20141212190000
679,Xiamen,,24.477187,118.094402,161,77,31,10,5,9,12,5,1027,62,7,20141212190000
680,"Qingyuan Montain, Quanzhou",,24.939503,118.598337,132,69,32,4,4,9,12,5,1027,62,7,20141212190000
681,"Tushan Street, Quanzhou",,24.90867,118.586397,142,66,32,11,5,6,12,5,1027,62,7,20141212190000
682,"Wanan, Quanzhou",,24.304154,118.070903,155,65,22,13,5,8,12,5,1027,62,7,20141212190000
683,Quanzhou,,24.87179,118.68001,155,73,32,13,6,9,12,5,1027,62,7,20141212190000
687,"Jiancaoping, Taiyuan",,37.887889,112.528383,153,71,22,17,69,13,-11,-20,1028,48,1,20141212190000
688,"Jianhe, Taiyuan",,37.910779,112.579258,162,113,13,8,54,27,-11,-20,1028,48,1,20141212190000
689,"Shanglan, Taiyuan",,38.011589,112.440679,42,22,12,7,16,9,-11,-20,1028,48,1,20141212190000
690,"Jinyuan, Taiyuan",,37.713164,112.475552,224,136,21,15,94,11,-11,-20,1028,48,1,20141212190000
691,"Xiaodian, Taiyuan",,37.782137,112.483533,180,95,7,15,87,19,-11,-20,1028,48,1,20141212190000
692,"Taoyuan, Taiyuan",,37.869752,112.543332,154,74,13,23,54,24,-11,-20,1028,48,1,20141212190000
693,"Wucheng, Taiyuan",,37.819998,112.576252,179,133,10,13,93,12,-11,-20,1028,48,1,20141212190000
694,"Nanzhai, Taiyuan",,37.985902,112.555312,151,84,16,12,42,10,-11,-20,1028,48,1,20141212190000
695,"Jinsheng, Taiyuan",,37.781205,112.494494,182,114,17,12,62,19,-11,-20,1028,48,1,20141212190000
696,Taiyuan,,37.871115,112.555178,154,74,13,23,54,24,-8,-20,1028,38,1,20141212190000
697,"Monitoring station, Changzhi",,36.194062,113.10389,149,65,20,12,5,16,,,0,,,20141212190000
698,"Auditing bureau, Changzhi",,36.212787,113.095221,154,65,33,38,8,20,,,0,,,20141212190000
699,"Qinghua station, Changzhi",,36.154328,113.116385,112,59,14,25,44,15,,,0,,,20141212190000
700,"No.8 middle school, Changzhi",,36.185451,113.099481,164,78,38,24,29,16,,,0,,,20141212190000
701,Changzhi,,36.195553,113.12292,164,78,38,38,29,20,,,0,,,20141212190000
702,"Yungang Hotel, Datong",,40.076997,113.278079,68,66,28,9,55,19,-7,-22,1034,16,5,20141212190000
703,"college of education, Datong",,40.085608,113.27808,142,56,19,5,25,13,-7,-22,1034,16,5,20141212190000
704,Datong,,40.078016,113.307143,142,98,28,14,55,19,-7,-22,1034,16,5,20141212190000
705,"Technical Schools, Linfen",,36.07131,111.509046,9,56,16,10,59,33,-12,-20,0,53,2,20141212190000
706,"Municipal party committee, Linfen",,36.087425,111.508771,144,66,33,23,53,20,-12,-20,0,53,2,20141212190000
1073,"City Monitoring Station, Linfen",,36.097676,111.518739,161,97,19,19,58,20,-12,-20,0,53,2,20141212190000
707,"South Airport, Linfen",,36.041614,111.497968,122,30,22,29,56,18,-12,-20,0,53,2,20141212190000
708,Linfen,,36.087944,111.525098,162,96,33,29,56,33,-12,-20,0,53,2,20141212190000
709,"City center, Yangquan",,37.848012,113.578636,87,57,28,20,56,7,-11,-20,1028,48,1,20141212190000
710,Yangquan,,37.857475,113.586921,107,71,28,34,83,10,-11,-20,1028,48,1,20141212190000
711,"Water Company, Jincheng",,35.504787,112.857245,80,46,9,8,36,12,-6,-16,1034,33,0,20141212190000
712,"Baiyun shopping mall, Jincheng",,35.492858,112.841566,53,35,12,5,28,10,-2,-18,1034,14,1,20141212190000
713,"City EPA, Jincheng",,35.488422,112.858528,61,46,10,10,11,4,-6,-16,1034,33,0,20141212190000
714,"Institute of Technology, Jincheng",,35.484844,112.878073,70,49,22,7,20,2,-6,-16,1034,33,0,20141212190000
715,"No.1 middle school, Jincheng",,35.478725,112.838636,57,35,11,8,32,3,-6,-16,1034,33,0,20141212190000
716,Jincheng,,35.490287,112.85794,80,35,22,8,32,2,-6,-16,1034,33,0,20141212190000
718,"District Government, Shuozhou",,39.320857,112.430641,151,-,5,-,-,8,-9,-21,1034,23,1,20141212190000
719,"City EPA, Shuozhou",,39.331495,112.407997,,68,,6,34,,-12,-22,1034,43,3,20141212190000
720,"No.2 middle school, Shuozhou",,39.377963,112.432877,147,64,16,29,65,8,-12,-22,1034,43,3,20141212190000
721,Shuozhou,,39.332756,112.439672,175,64,16,29,65,10,-5,-22,1034,43,3,20141212190000
722,"Jinlun compound, Jinzhong",,37.697891,112.771017,-,62,7,6,-,15,-11,-20,1028,48,2,20141212190000
723,"Hydraulic Component Factory, Jinzhong",,37.688355,112.725844,-,67,11,12,-,17,-11,-20,1028,48,2,20141212190000
724,"Nandu compound, Jinzhong",,37.713148,112.732036,-,-,-,-,-,-,-,-,0,-,-,20141212190000
725,"Yuci district government, Jinzhong",,37.698228,112.714167,-,56,5,15,-,14,-11,-20,1028,48,2,20141212190000
726,Jinzhong,,37.687705,112.759187,-,67,11,15,-,17,-11,-20,1028,48,2,20141212190000
727,"Yuncheng Middle School, Yuncheng",,35.012345,111.003215,158,87,13,16,24,18,-4,-12,1036,40,1,20141212190000
728,"Yudou BDA, Yuncheng",,35.05065,111.029571,192,116,18,18,2,23,-4,-12,1036,40,1,20141212190000
729,"Yuncheng college, Yuncheng",,35.038753,111.051992,166,,10,,,17,-4,-12,1036,40,1,20141212190000
730,"Regional Technical School, Yuncheng",,35.028727,110.974076,-,-,-,-,-,-,-,-,0,-,-,20141212190000
731,"Airport new district, Yuncheng",,35.084515,111.05339,152,145,24,14,43,25,-4,-12,1036,40,1,20141212190000
732,Yuncheng,,35.025675,111.013344,192,145,24,18,43,25,-4,-12,1036,40,1,20141212190000
733,"Jiyin, Xinzhou",,38.413292,112.742432,104,66,21,26,32,12,-11,-20,1028,48,2,20141212190000
734,"BDA, Xinzhou",,38.450069,112.736723,93,51,6,27,56,8,-11,-20,1028,48,2,20141212190000
735,"Convention Center, Xinzhou",,38.492043,112.709772,164,81,19,21,39,46,-11,-20,1028,48,2,20141212190000
736,Xinzhou,,38.417244,112.740742,164,81,6,27,56,12,-11,-20,1028,48,2,20141212190000
737,"City EPA, Luliang",,37.522189,111.144365,102,44,8,9,20,26,-8,-19,1039,27,1,20141212190000
738,"Soybean factory, Luliang",,37.51689,111.135101,-,66,9,7,154,29,-8,-19,1039,27,1,20141212190000
739,"Water Company, Luliang",,37.53394,111.138834,153,88,10,15,58,23,-8,-19,1039,27,1,20141212190000
740,Luliang,,37.519091,111.150681,102,44,8,9,20,26,-8,-19,1039,27,1,20141212190000
741,"City government, Sanmenxia",,34.776251,111.198781,89,58,19,31,40,9,-5,-12,1034,44,1,20141212190000
743,"BDA, Sanmenxia",,34.800434,111.204332,99,54,29,28,34,8,-5,-12,1034,44,1,20141212190000
744,Sanmenxia,,34.771506,111.206129,184,174,29,31,43,23,-5,-12,1034,44,1,20141212190000
745,"Food Factory, Changchun",,43.919094,125.329521,171,68,17,31,52,12,-22,-26,1022,71,0,20141212190000
746,"Bus Factory, Changchun",,43.912337,125.293431,172,70,18,27,52,11,-22,-26,1022,71,0,20141212190000
747,"Institute of Posts and Telecommunications, Changchun",,43.842368,125.285005,172,84,12,28,34,15,-22,-26,1022,71,0,20141212190000
748,"Laodong Park, Changchun",,43.877293,125.371519,162,78,11,29,49,10,-22,-26,1022,71,0,20141212190000
749,"Forest area, Changchun",,43.871825,125.331519,178,86,9,28,66,9,-22,-26,1022,71,0,20141212190000
750,"Jinyuetan, Changchun",,43.79031,125.460561,160,66,25,17,9,9,-22,-26,1022,71,0,20141212190000
751,"Shuaiwanzi, Changchun",,43.552321,125.639086,153,69,24,11,8,9,-22,-26,1022,71,0,20141212190000
752,"Economic Development Zone Sanitation Department, Changchun",,43.869221,125.42365,175,89,14,25,16,10,-22,-26,1022,71,0,20141212190000
753,"High-tech Zone Administrative Committee, Changchun",,43.819064,125.256375,162,71,21,25,8,9,-22,-26,1022,71,0,20141212190000
754,"Daishan Park, Changchun",,43.852365,125.223399,163,67,27,17,10,8,-22,-26,1022,71,0,20141212190000
755,Changchun,,43.819415,125.329977,172,84,12,28,34,15,-22,-26,1022,71,0,20141212190000
756,"Hadawan, Jilin",,43.888081,126.545727,189,105,17,18,19,26,-19,-19,0,97,2,20141212190000
757,"Fengman, Jilin",,43.768169,126.678802,171,83,30,14,18,7,-19,-19,0,97,2,20141212190000
758,"Electric Power College, Jilin",,43.827403,126.502281,168,74,31,17,13,10,-19,-19,0,97,2,20141212190000
759,"Jiangnan Park, Jilin",,43.83531,126.556519,162,86,25,17,21,6,-19,-19,0,97,2,20141212190000
760,"Dongjuzi, Jilin",,43.838597,126.590068,-,-,-,-,-,-,-,-,0,-,-,20141212190000
763,Jilin,,43.840137,126.555262,189,105,33,23,21,26,-19,-19,0,97,2,20141212190000
764,"Lingbei, Haerbin",,45.756979,126.548008,156,65,20,35,21,11,-27,-29,1022,84,2,20141212190000
765,"Songbei Commercial University, Haerbin",,45.818624,126.566963,162,61,16,27,18,9,-27,-29,1022,84,2,20141212190000
766,"Acheng huining, Haerbin",,45.544286,126.985183,201,117,66,28,10,11,-27,-29,1022,84,2,20141212190000
767,"Nangang College Street, Haerbin",,45.724121,126.604906,166,73,22,28,23,8,-27,-29,1022,84,2,20141212190000
768,"Taiping Hongwei Park, Haerbin",,45.775332,126.695101,157,60,14,28,50,8,-27,-29,1022,84,2,20141212190000
769,"Daowai Chengde Square, Haerbin",,45.768637,126.640955,149,56,19,22,22,5,-27,-29,1022,84,2,20141212190000
770,"Xiangfang Hongqi Street, Haerbin",,45.733936,126.691083,149,58,12,25,42,5,-27,-29,1022,84,2,20141212190000
771,"Dongli Heping Road, Haerbin",,45.727765,126.651974,158,76,15,35,58,4,-27,-29,1022,84,2,20141212190000
772,"Daoli Jianguo Road, Haerbin",,45.749715,126.59891,153,65,21,31,48,4,-27,-29,1022,84,2,20141212190000
773,"Pingfang Light Factory, Haerbin",,45.611951,126.620898,164,77,18,26,17,15,-27,-29,1022,84,2,20141212190000
774,"Hulan Normal College, Haerbin",,45.983745,126.616553,149,70,14,17,4,13,-27,-29,1022,84,2,20141212190000
775,"Provincial Academy of Agricultural Sciences, Haerbin",,45.686141,126.626517,163,75,10,28,56,7,-27,-29,1022,84,2,20141212190000
776,Haerbin,,45.805757,126.541007,162,61,16,27,18,9,-27,-29,1022,84,2,20141212190000
777,"Anju Compound, Qiqihaer",,47.365672,123.937016,152,53,27,4,4,10,-22,-25,1024,65,1,20141212190000
778,"Farming Vehicule Factory, Qiqihaer",,47.326793,123.961427,129,28,21,10,50,12,-22,-25,1024,65,1,20141212190000
779,"Fuqu EPA, Qiqihaer",,47.1853,123.62322,142,60,26,16,1,12,-22,-25,1024,65,1,20141212190000
780,"City Center Square, Qiqihaer",,47.343096,123.96192,129,51,18,5,20,11,-21,-24,1024,71,1,20141212190000
1217,"City Environmental Monitoring Station, Qiqihaer",,47.303639,123.957551,174,63,17,4,27,16,-22,-25,1024,65,1,20141212190000
781,Qiqihaer,,47.356387,123.924736,174,63,27,16,50,16,-22,-25,1024,65,1,20141212190000
782,"Saertu District, Daqing",,46.582368,125.152904,102,40,25,12,22,5,-18,-21,1023,66,1,20141212190000
783,"Datong District, Daqing",,46.036786,124.842115,142,40,19,6,7,9,-18,-21,1023,66,1,20141212190000
784,"Honggang District, Daqing",,46.418381,124.88973,127,40,26,10,4,5,-18,-21,1023,66,1,20141212190000
785,"Longfeng District, Daqing",,46.535426,125.107043,95,38,24,29,17,7,-18,-21,1023,66,1,20141212190000
786,"Ranghulu District, Daqing",,46.635123,124.85648,151,59,28,9,9,11,-18,-21,1023,66,1,20141212190000
787,Daqing,,46.591414,125.110838,151,59,28,10,9,11,-18,-21,1023,66,1,20141212190000
788,"Locomotive Factory, Mudanjiang",,44.610589,129.652672,102,39,23,1,10,14,-18,-22,1020,56,3,20141212190000
789,"No. 1 hospital, Mudanjiang",,44.567775,129.617043,93,28,24,4,3,10,-18,-22,1020,56,3,20141212190000
1220,"EPA building, Mudanjiang",,44.567777,129.620658,147,49,16,1,8,9,-18,-22,1020,56,3,20141212190000
1221,"Cultural Square, Mudanjiang",,44.586388,129.623164,99,41,9,10,10,6,-18,-22,1020,56,3,20141212190000
790,Mudanjiang,,44.553619,129.640246,147,41,24,14,24,14,-18,-22,1020,56,3,20141212190000
791,"Mingzhu Plaza, Hefei",,31.782847,117.201512,155,88,22,21,17,9,0,-8,1032,55,1,20141212190000
792,"Sanli Street, Hefei",,31.874637,117.312573,153,53,28,32,9,8,0,-8,1032,55,1,20141212190000
793,"Hupo Compound, Hefei",,31.868583,117.264491,153,68,21,18,8,11,0,-8,1032,55,1,20141212190000
794,"Dongpu Reservoir, Hefei",,31.90319,117.165584,134,78,27,12,5,1,0,-8,1032,55,1,20141212190000
795,"Changjiang middle road, Hefei",,31.855185,117.255484,151,82,2,18,24,8,0,-8,1032,55,1,20141212190000
796,"Luyang District, Hefei",,31.941771,117.271504,139,55,6,3,15,5,0,-8,1032,55,1,20141212190000
797,"Yaohai District, Hefei",,31.856595,117.341644,157,157,16,24,11,12,0,-8,1032,55,1,20141212190000
798,"Baohe District, Hefei",,31.793644,117.307554,155,64,16,12,3,5,0,-8,1032,55,1,20141212190000
799,"Lake district, Hefei",,31.736619,117.283501,124,71,22,1,2,8,0,-8,1032,55,1,20141212190000
800,"High-tech zone, Hefei",,31.849755,117.129624,134,73,11,14,15,5,0,-8,1032,55,1,20141212190000
802,"Hudong Road No.4 Elementary School, Maanshan",,31.684121,118.511017,65,43,15,26,22,12,-3,-4,1033,93,2,20141212190000
803,"Tianping Garment Factory, Maanshan",,31.64197,118.488043,82,40,27,25,15,7,-3,-4,1033,93,2,20141212190000
804,"City education base, Maanshan",,31.711216,118.648913,72,39,10,5,17,4,-3,-4,1033,93,2,20141212190000
805,"Cihu No.2 elementary school, Maanshan",,31.748546,118.515729,117,58,17,28,35,11,-3,-4,1033,93,2,20141212190000
806,"Maanshan steel factory power plant, Maanshan",,31.690864,118.48528,72,44,9,18,17,5,-3,-4,1033,93,2,20141212190000
807,Maanshan,,31.668461,118.511939,117,58,17,28,35,11,-3,-4,1033,93,2,20141212190000
808,"Science Innovation Center, Wuhu",,31.417056,118.375406,117,46,65,21,6,10,-3,-4,1033,93,2,20141212190000
809,"No.4 Water Plant, Wuhu",,31.315914,118.376231,114,50,12,22,6,12,-3,-4,1033,93,2,20141212190000
810,"Monitoring station, Wuhu",,31.348955,118.358154,112,52,9,16,6,8,-3,-4,1033,93,2,20141212190000
811,"Wuqierling Factory, Wuhu",,31.382068,118.407639,168,120,70,6,27,3,-3,-4,1033,93,2,20141212190000
812,Wuhu,,31.351007,118.438322,168,120,70,22,27,12,-3,-4,1033,93,2,20141212190000
1331,Chuzhou,,32.299549,118.322508,117,63,9,4,9,2,-1,,1015,69,1,20141212190000
813,"Jiangxi Foreign Affairs Office, Nanchang",,28.678027,115.903436,159,51,14,3,1,8,3,-2,1033,62,0,20141212190000
814,"Provincial forestry company, Nanchang",,28.69065,115.898546,151,57,17,2,1,8,3,-3,1034,53,1,20141212190000
815,"Institute of Forestry, Nanchang",,28.731518,115.82478,95,51,20,1,14,5,3,-2,1033,62,0,20141212190000
816,"Jingdong town government, Nanchang",,28.680659,115.972736,162,89,20,2,2,8,3,-2,1033,62,0,20141212190000
817,"Contruction Industry College, Nanchang",,28.684018,115.865891,153,86,19,40,15,10,3,-2,1033,62,0,20141212190000
818,"Xianghu, Nanchang",,28.637831,115.9033,161,295,27,87,11,12,3,-2,1033,62,0,20141212190000
819,"Martial Arts School, Nanchang",,28.794538,115.752876,80,26,22,8,6,3,3,-3,1034,53,1,20141212190000
820,"Petrifaction Company, Nanchang",,28.608634,115.912999,160,81,19,3,1,11,3,-2,1033,62,0,20141212190000
821,"Provincial Station, Nanchang",,28.677155,115.941896,160,68,20,2,3,9,3,-2,1033,62,0,20141212190000
822,Nanchang,,28.679883,115.863022,162,295,27,87,15,12,3,-2,1033,62,0,20141212190000
823,"Lushan Mountain Observatory, Jiujiang",,29.5751,115.998926,72,58,19,17,106,7,-4,-11,1036,41,1,20141212190000
824,"Shili, Jiujiang",,29.668119,115.992381,68,49,22,14,126,14,-4,-11,1036,41,1,20141212190000
825,"Maoshantou, Jiujiang",,29.700819,115.967192,34,41,15,22,121,5,-4,-11,1036,41,1,20141212190000
826,"Xiyuan, Jiujiang",,29.723929,115.998206,30,56,19,20,104,5,-4,-11,1036,41,1,20141212190000
827,"Wuqierling Factory, Jiujiang",,29.640802,116.022713,42,33,30,7,140,4,-4,-11,1036,41,1,20141212190000
828,"Water Scientific Research Institute, Jiujiang",,29.679179,116.068081,74,40,19,34,103,6,-4,-11,1036,41,1,20141212190000
829,"Zonghe Industrial Park, Jiujiang",,29.592047,115.916335,30,28,29,21,110,6,-4,-11,1036,41,1,20141212190000
830,"Petrochemical General Plant, Jiujiang",,29.738832,116.09463,30,46,21,24,35,7,-4,-11,1036,41,1,20141212190000
831,Jiujiang,,29.70254,116.007025,74,40,19,34,103,6,-4,-11,1036,41,1,20141212190000
1332,"Feiyu, Xinyu",,27.844697,115.000136,89,55,10,15,16,,3,,1033,80,1,20141212190000
1333,"Beigang, Xinyu",,27.932491,115.103767,74,49,16,7,6,,3,,1033,80,1,20141212190000
1334,"No.2 water factory, Xinyu",,27.839577,114.933915,107,51,3,28,13,,3,,1033,80,1,20141212190000
1335,"Bureau of Meteorology, Xinyu",,27.81048,114.936507,99,60,3,19,21,,3,,1033,80,1,20141212190000
1336,Xinyu,,27.814351,114.922194,107,85,16,26,21,,3,,1033,80,1,20141212190000
832,"Tobacco Factory, Zhengzhou",,34.753419,113.687131,122,73,26,28,45,5,2,-16,1030,26,6,20141212190000
833,"Textile Machinery Factory, Zhengzhou",,34.773366,113.647067,122,89,14,31,54,22,2,-16,1030,26,6,20141212190000
834,"Banking College, Zhengzhou",,34.800856,113.681126,142,80,23,22,51,6,2,-16,1030,26,6,20141212190000
835,"Water Supply Company, Zhengzhou",,34.807188,113.571089,155,77,37,29,14,16,2,-16,1030,26,6,20141212190000
