locationid,stationname,chinesename,latitude,longitude,pm25,pm10,o3,no2,so2,co,temperature,dewpoint,pressure,humidity,wind,est_time
553,"Liandu primary school, Lishui",,28.450912,119.939332,119,55,36,7,1,5,21,16,1016,66,2,20141009170000
1,Dongcheng Dongsi,,39.9304,116.423239,388,216,9,72,3,29,14,14,1021,100,0,20141009170000
2,"Temple of Heaven, Dongcheng",,39.887403,116.41324,338,195,7,38,2,23,14,14,1021,100,0,20141009170000
3,West Park officials,,39.930333,116.345162,419,209,7,68,3,29,14,14,1021,100,0,20141009170000
4,West Wanshou Nishinomiya,,39.879354,116.358183,376,243,9,68,2,26,14,14,1021,100,0,20141009170000
5,Chaoyang Olympic Sports Center,,39.983406,116.403253,458,290,23,87,3,17,16,15,1019,94,1,20141009170000
6,Chaoyang Agricultural Exhibition Hall,,39.938331,116.46715,433,288,11,73,2,25,14,14,1021,100,0,20141009170000
7,Haidian Wanliu,,39.988245,116.293062,418,290,5,52,5,23,14,14,1021,100,0,20141009170000
8,The Haidian northern New Area,,40.091313,116.180194,-,116,7,21,2,17,14,14,1021,100,0,20141009170000
9,Haidian Beijing Botanical Garden,,40.003252,116.213097,443,-,35,18,2,17,14,14,1021,100,0,20141009170000
10,Fengtai garden,,39.86423,116.285037,419,-,6,42,2,19,14,14,1021,100,0,20141009170000
11,Fengtai Yungang,,39.82535,116.152237,433,-,29,37,3,20,14,14,1021,100,0,20141009170000
12,Shijingshan city,,39.915286,116.190144,408,258,13,48,2,29,14,14,1021,100,0,20141009170000
13,"Fangshan, Liangxiang",,39.743357,116.14225,449,327,20,50,3,25,14,14,1021,100,0,20141009170000
14,"Huangcunzhen, Daxing",,39.719389,116.410219,479,-,11,99,4,32,14,14,1021,100,0,20141009170000
15,BDA,,39.796197,116.51197,485,-,13,77,4,28,14,14,1021,100,0,20141009170000
16,Tongzhou New Town,,39.887113,116.6689,-,274,7,63,8,19,14,14,1021,100,0,20141009170000
17,Shunyi New Town ,,40.128111,116.660908,363,186,13,33,2,18,14,14,1021,100,0,20141009170000
18,Changping Town,,40.218245,116.236084,423,272,31,11,2,15,14,14,1021,100,0,20141009170000
19,"Mentougou, Longquan Town",,39.938397,116.112323,390,-,15,27,2,19,14,14,1021,100,0,20141009170000
20,Pinggu town,,40.144433,117.106563,263,-,33,9,2,14,14,14,1021,100,0,20141009170000
21,Huairou town,,40.329104,116.63387,330,179,33,11,2,17,14,14,1021,100,0,20141009170000
22,The town of Miyun,,40.371186,116.838053,333,-,15,16,2,20,14,14,1021,100,0,20141009170000
23,Yanqing town,,40.454217,115.978106,434,-,40,14,2,20,14,14,1021,100,0,20141009170000
24,Changping Dingling,,40.293269,116.226108,403,186,30,7,2,16,14,14,1021,100,0,20141009170000
25,Badaling Northwest,,40.36623,115.994146,-,-,-,-,-,-,-,-,0,-,-,20141009170000
26,Miyun Reservoir,,40.500157,116.91701,345,-,47,4,2,14,14,14,1021,100,0,20141009170000
27,"Donggaocun Zhen, Pinggu",,40.10142,117.126556,271,-,88,19,6,9,14,14,1021,100,0,20141009170000
28,"Yongledianzhen, Tongzhou",,39.713192,116.78905,314,328,7,37,9,13,14,14,1021,100,0,20141009170000
29,"Yufazhen, Daxing",,39.521203,116.306026,393,-,13,14,2,14,14,14,1021,100,0,20141009170000
30,"Liulihezhen, Fangshan",,39.581169,116.006089,390,293,12,39,2,17,14,14,1021,100,0,20141009170000
31,"Qianmen E St, Dongcheng",,39.900402,116.401242,458,-,6,70,2,27,14,14,1021,100,0,20141009170000
32,Yongdingmen Inner St,,39.877401,116.400238,438,195,3,73,9,33,14,14,1021,100,0,20141009170000
33,Xizhimen N St,,39.955352,116.355187,466,-,8,69,5,29,14,14,1021,100,0,20141009170000
34,South Ring Road,,39.857377,116.37421,433,-,1,62,9,29,14,14,1021,100,0,20141009170000
35,East Fourth Ring Road,,39.940273,116.489075,421,-,3,70,2,28,14,14,1021,100,0,20141009170000
36,Beijing,,39.955906,116.474246,454,259,11,73,2,25,14,14,1021,100,1,20141009170000
37,Putuo,,31.232979,121.415378,111,70,29,50,6,4,20,15,1017,73,2,20141009170000
38,Yangpu Sipiao,,31.263795,121.540311,113,53,36,39,5,6,20,15,1017,73,2,20141009170000
39,Shanghai Normal College Primary Division,,31.199031,121.487719,86,55,37,24,4,7,20,15,1017,73,2,20141009170000
40,Dianshan Lake,,31.091338,120.982293,90,56,40,17,7,6,20,15,1017,73,2,20141009170000
41,Hongkou Liangcheng,,31.298906,121.47155,81,55,30,47,7,12,20,15,1017,73,2,20141009170000
42,Jingan,,31.224251,121.429637,93,51,35,34,7,6,20,15,1017,73,2,20141009170000
43,Shanghai Normal University,,31.163531,121.416643,83,54,38,26,6,7,20,15,1017,73,2,20141009170000
44,Chuansha,,31.188626,121.707342,92,60,35,20,5,5,20,15,1017,73,2,20141009170000
45,Zhangjiang,,31.204896,121.581215,90,52,37,24,4,5,20,15,1017,73,2,20141009170000
46,Lingshan Road,,31.226286,121.537317,102,58,34,46,11,4,20,15,1017,73,2,20141009170000
1080,City average,,31.228451,121.478227,94,56,34,34,6,6,20,15,1017,73,2,20141009170000
47,Shanghai,,31.202842,121.453493,93,55,37,34,7,7,20,15,1017,73,2,20141009170000
48,Guangzhou,,23.138517,113.263701,153,62,35,58,10,12,25,16,1011,57,2,20141009170000
49,"Huadu town, Guangzhou",,23.389121,113.220062,127,59,56,16,8,4,25,16,1011,57,2,20141009170000
50,"Luogang Zhenlong, Guangzhou",,23.308027,113.567032,161,96,31,28,13,9,25,16,1011,57,2,20141009170000
51,"LuHu, Guangzhou",,23.151743,113.281842,137,59,35,29,10,12,25,16,1011,57,2,20141009170000
52,"Tianhu, Guangzhou",,23.647433,113.629715,112,53,79,8,6,8,25,16,1011,57,2,20141009170000
53,"Zhudong, Guangzhou",,23.418406,113.078552,149,60,51,16,17,5,25,16,1011,57,2,20141009170000
54,"Modiesha station, Guangzhou",,23.103814,113.338238,107,65,42,37,14,1,25,16,1011,57,2,20141009170000
55,Zhuhai,,22.2677,113.581765,164,102,85,28,14,13,27,18,1010,58,1,20141009170000
1075,"Huicai technical school, Foshan",,23.039667,113.105492,156,72,36,53,21,6,25,15,1011,54,2,20141009170000
56,"Sanshuiyun donghai, Foshan",,23.185788,112.865368,156,67,40,21,30,6,25,15,1011,54,2,20141009170000
57,"Nanhai Bureau of Meteorology, Foshan",,23.046836,113.145764,152,68,39,38,14,7,25,15,1011,54,2,20141009170000
58,"Sanshui Monitoring Station, Foshan",,23.163551,112.890843,158,73,22,34,15,7,25,15,1011,54,2,20141009170000
1087,Foshan,,23.018995,113.126899,156,72,44,53,21,7,25,15,1011,54,2,20141009170000
59,"Ronggui street committee, Shunde",,22.762729,113.258356,157,69,37,42,11,8,25,15,1011,54,2,20141009170000
60,Shunde,,22.80246,113.298701,157,73,37,43,15,9,-,-,0,-,-,20141009170000
61,"Donghu, Jiangmen",,22.590411,113.087351,157,58,41,32,7,5,27,19,1010,61,2,20141009170000
62,"Taoyuan Atmosphere Premier Station, Jiangmen",,22.72489,112.93404,152,73,44,19,19,5,27,19,1010,61,2,20141009170000
63,Jiangmen,,22.576047,113.087351,160,73,53,32,20,13,27,18,1010,58,1,20141009170000
64,"Kengkouzi station, Zhaoqing",,23.158865,112.570287,129,51,46,9,9,7,25,15,1011,54,2,20141009170000
65,"Mugangzi station, Zhaoqing",,23.067961,112.431934,139,61,30,42,5,8,25,15,1011,54,2,20141009170000
67,Zhaoqing,,23.044571,112.470346,139,69,30,38,9,9,25,15,1011,54,2,20141009170000
68,"Jinguo Bay, Huizhou",,22.937223,114.385567,104,56,40,11,4,6,26,17,1010,57,2,20141009170000
1091,"Xiabu, Huizhou",,23.077493,114.410275,142,80,30,40,8,5,26,17,1010,57,2,20141009170000
69,"Xijiao, Huizhou",,23.338178,114.112867,112,43,31,11,6,7,26,17,1010,57,2,20141009170000
70,"Jiangbei, Huizhou",,23.111706,114.415274,112,64,27,47,8,8,26,17,1010,57,2,20141009170000
554,Lishui,,28.464224,119.927201,119,55,36,14,5,6,21,16,1016,66,2,20141009170000
1248,Jingningxian,,27.977454,119.634837,114,58,16,21,3,9,21,16,1016,66,2,20141009170000
555,Taigu Primary School,,29.864178,121.60022,59,30,26,17,4,4,20,19,1016,94,3,20141009170000
556,Qianhu shuihan,,29.862459,121.5328,65,31,24,13,4,6,20,19,1016,94,3,20141009170000
557,Sanjiang secondary schools,,29.891563,121.568427,78,45,28,22,8,6,20,19,1016,94,3,20141009170000
558,Longsai Hospital,,29.957301,121.726734,50,22,30,9,6,4,20,19,1016,94,3,20141009170000
559,Beilun District EPB,,29.911633,121.850773,61,36,28,11,3,4,20,19,1016,94,3,20141009170000
560,Wanli University,,29.821314,121.574364,34,25,31,17,2,4,20,19,1016,94,3,20141009170000
561,Qianhu water plant,,29.774416,121.648136,46,31,25,19,4,4,20,19,1016,94,3,20141009170000
562,Municipal management station,,29.899182,121.626691,50,51,27,11,4,5,20,19,1016,94,3,20141009170000
1177,Daxie Literary Museum,,29.9027,121.986447,53,24,29,5,4,4,20,19,1016,94,3,20141009170000
1178,Cixi EPB,,30.165807,121.248991,68,20,35,7,3,8,20,19,1016,94,3,20141009170000
1179,Cixi Experimently Primary School,,30.179808,121.268672,82,27,39,4,2,6,20,19,1016,94,3,20141009170000
1180,"Yongsan Park, Yuyao",,30.050842,121.162477,76,21,42,7,4,7,20,19,1016,94,3,20141009170000
1181,"Qilupu Water Company, Yuyao",,30.039112,121.133416,82,29,39,15,7,3,20,19,1016,94,3,20141009170000
1182,Fenghua EPB,,29.666557,121.42069,65,37,32,10,5,9,20,19,1016,94,3,20141009170000
1183,"Yuelong station, Ninghai",,29.296505,121.445872,109,51,29,17,6,6,20,19,1016,94,3,20141009170000
1184,"Wenfeng Primary School, Xiangshan",,29.470908,121.889544,63,49,30,6,3,4,20,19,1016,94,3,20141009170000
1185,"Chengnan Primary School, Ninghai",,29.293812,121.43666,91,38,35,12,6,6,20,19,1016,94,3,20141009170000
1186,"Xingang Primary School, Xiangshan",,29.203878,121.952514,61,21,36,3,3,4,20,19,1016,94,3,20141009170000
1356,Haishu City Monitoring Center,,29.86835,121.539341,65,31,25,13,4,6,20,19,1016,94,3,20141009170000
1357,Fenghua Xikou government,,29.693164,121.29331,46,21,41,4,1,10,20,19,1016,94,3,20141009170000
1294,Ningbo,,29.865766,121.548164,78,51,31,22,8,6,20,19,1016,94,3,20141009170000
1187,Fuyang,,30.046157,119.96468,154,76,23,24,13,6,-,-,0,-,-,20141009170000
1188,Yiwu,,29.304353,120.079794,152,73,36,28,12,11,-,-,0,-,-,20141009170000
1189,Zhuji,,29.711185,120.240748,127,77,32,47,7,10,21,16,1017,73,2,20141009170000
563,"Shanxi Road , Nanjing",,32.06795,118.779216,153,101,25,20,9,2,17,16,1018,94,4,20141009170000
564,"Ruijin Road , Nanjing",,32.029321,118.80817,154,76,17,30,7,4,17,16,1018,94,4,20141009170000
565,"Xuanwu Lake, Nanjing",,32.075423,118.800188,152,105,20,35,5,4,17,16,1018,94,4,20141009170000
566,"Olympic Center, Nanjing",,32.007171,118.742217,159,81,37,9,2,4,17,16,1018,94,4,20141009170000
567,"Xianlin University Town , Nanjing",,32.106958,118.919882,154,93,25,37,5,4,17,16,1018,94,4,20141009170000
568,Nanjing,,32.058179,118.802061,159,84,37,18,7,4,17,16,1018,94,4,20141009170000
569,"Shangfang hill , Suzhou",,31.24502,120.565211,114,50,28,27,8,3,18,15,1017,83,2,20141009170000
570,"Wuzhong District , Suzhou",,31.268105,120.61717,107,43,22,33,11,4,20,15,1017,73,2,20141009170000
571,"Suzhou New District , Suzhou",,31.297277,120.547262,95,42,28,28,11,4,20,15,1017,73,2,20141009170000
572,"Suzhou Industrial Area, Suzhou",,31.307603,120.673257,109,50,34,22,9,4,20,15,1017,73,2,20141009170000
573,"Xiangcheng district, Suzhou",,31.368674,120.645209,102,47,33,28,7,4,18,15,1017,83,2,20141009170000
574,Suzhou,,31.296701,120.589493,137,52,34,33,12,5,18,15,1017,83,2,20141009170000
575,"South suburb , Nantong",,31.957836,120.917218,152,61,36,15,9,2,17,16,1003,90,2,20141009170000
576,"Xinghu park, Nantong",,31.927873,120.944254,164,77,42,20,21,4,17,16,1003,90,2,20141009170000
577,"Zilang school, Nantong",,32.039638,120.814358,159,82,36,19,11,0,17,16,1003,90,2,20141009170000
578,Nantong,,31.978005,120.898555,164,77,37,20,21,5,17,16,1003,90,2,20141009170000
579,Lianyungang,连云港,34.595509,119.226814,152,84,21,27,10,7,8,8,1016,96,0,20141009170000
580,"Hongmen police substation, Lianyungang",,34.588692,119.146693,109,55,28,34,7,4,15,14,1020,93,0,20141009170000
581,"Xugou Nuclear Expert Village , Lianyungang",,34.749957,119.373707,74,57,21,22,12,5,15,14,1020,93,0,20141009170000
582,"Hengrui pharmaceutical company, BDA, Lianyungang",,34.697574,119.353668,82,66,30,18,4,4,15,14,1020,93,0,20141009170000
583,"City Monitoring Station, Lianyungang",,34.586791,119.186929,89,38,35,12,5,4,15,14,1020,93,0,20141009170000
584,"Yellow river new village , Xuzhou",,34.271542,117.177241,93,55,21,17,7,6,18,13,1020,67,3,20141009170000
585,"Tongshan Veterinary Hospital , Xuzhou",,34.307086,117.197766,99,72,28,13,2,2,18,13,1020,67,3,20141009170000
586,"New Town , Xuzhou",,34.213992,117.261718,93,66,32,11,3,4,18,13,1020,67,3,20141009170000
587,"Taoyuan road, Xuzhou",,34.289822,117.249721,129,67,30,8,3,6,18,13,1020,67,3,20141009170000
588,"Agricultural Science Academy , Xuzhou",,34.27655,117.299079,82,62,15,8,5,3,18,13,1020,67,3,20141009170000
589,"Tongshan EPA, Xuzhou",,34.179384,117.171798,78,60,4,2,6,3,18,13,1020,67,3,20141009170000
590,Xuzhou,,34.20346,117.289825,129,66,32,17,7,6,18,13,1020,67,3,20141009170000
591,Yangzhou,扬州,32.39233,119.418446,159,69,10,19,10,5,11,9,0,90,6,20141009170000
592,"Hanjiang Monitoring Station, Yangzhou",,32.374218,119.394484,91,49,31,7,6,2,15,14,0,89,2,20141009170000
593,"No. 4 Hospital, Yangzhou",,32.401394,119.44444,85,56,34,4,14,3,15,14,0,89,2,20141009170000
594,"City Monitoring Station, Yangzhou",,32.406588,119.41591,107,62,32,15,20,2,15,14,0,89,2,20141009170000
595,"University Town , Wuxi",,31.484752,120.273571,102,59,36,13,16,3,18,15,1017,83,2,20141009170000
71,"Huiyang chuanhu, Huizhou",,22.814485,114.329292,95,61,35,20,5,10,26,17,1010,57,2,20141009170000
72,"Daya bay management committee, Huizhou",,22.739283,114.53631,82,50,20,27,22,4,26,17,1010,57,2,20141009170000
73,Huizhou,,23.109349,114.421164,142,80,31,43,8,8,26,17,1010,57,2,20141009170000
74,"Guancheng No.2 water plant, Dongguan",,23.057294,113.753254,151,76,35,36,14,6,26,17,1010,57,2,20141009170000
75,"Dongcheng Shijing, Dongguan",,23.010039,113.799529,132,54,36,23,7,5,26,17,1010,57,2,20141009170000
76,"Nancheng Xiping, Dongguan",,22.963051,113.743494,151,67,38,20,6,6,26,17,1010,57,2,20141009170000
77,"Nancheng Yuanling, Dongguan",,23.025058,113.751308,151,66,39,31,14,9,26,17,1010,57,2,20141009170000
78,Dongguan,,23.017813,113.756958,152,76,39,36,14,9,26,17,1010,57,2,20141009170000
79,"Zimaling, Zhongshan",,22.505112,113.407183,151,61,36,35,10,9,27,19,1010,61,2,20141009170000
80,"Yangtze River tourist area, Zhongshan",,22.48589,113.439054,114,50,48,5,4,12,27,19,1010,61,2,20141009170000
81,"Huabai Park, Zhongshan",,22.51839,113.374362,144,65,21,48,9,16,27,19,1010,61,2,20141009170000
82,Zhongshan,,22.513997,113.398277,152,61,48,48,10,16,27,18,1010,58,1,20141009170000
83,"No.8 middle school, Shaoguan",,24.767777,113.583537,137,65,30,20,46,10,19,15,1013,68,2,20141009170000
83,"No.8 middle school, Shaoguan",,24.767777,113.583537,137,65,30,20,46,10,19,15,1013,68,2,20141009170000
84,"Forest area, Shaoguan",,24.796106,113.612131,152,62,37,12,52,11,19,15,1013,68,2,20141009170000
84,"Forest area, Shaoguan",,24.796107,113.612131,152,62,37,12,52,11,19,15,1013,68,2,20141009170000
86,"Shaoguan University, Shaoguan",,24.790864,113.646598,231,174,35,9,9,8,19,15,1013,68,2,20141009170000
86,"Shaoguan University, Shaoguan",,24.790864,113.646599,231,174,35,9,9,8,19,15,1013,68,2,20141009170000
88,"Qujiang Monitoring Station, Shaoguan",,24.683042,113.60157,163,80,23,43,16,13,19,15,1013,68,2,20141009170000
88,"Qujiang Monitoring Station, Shaoguan",,24.683042,113.60157,163,80,23,43,16,13,19,15,1013,68,2,20141009170000
89,Shaoguan,,24.807342,113.602712,231,174,53,44,9,12,19,15,1013,68,2,20141009170000
90,"Chaonanzi Station, Shantou",,23.251213,116.406762,107,67,31,14,14,7,23,19,1010,78,1,20141009170000
91,Shantou,,23.350642,116.686306,104,50,40,12,6,9,23,19,1010,78,1,20141009170000
92,"City Environmental Monitoring Station, Zhanjiang",,21.220431,110.397317,157,100,76,30,9,9,21,18,1011,80,1,20141009170000
93,"EPB Dormitory, Zhanjiang",,21.197376,110.406487,160,86,71,38,11,13,21,18,1011,80,1,20141009170000
94,"Xiashan Swimming Park, Zhanjiang",,21.200431,110.415655,153,72,125,38,12,12,21,18,1011,80,1,20141009170000
95,"Zhanjiang Theatre, Zhanjiang",,21.268177,110.366445,180,105,55,23,10,17,21,18,1011,80,1,20141009170000
96,"Mazhang EPA, Zhanjiang",,21.265486,110.335993,167,83,16,15,13,10,21,18,1011,80,1,20141009170000
97,"Potou District EPB, Zhanjiang",,21.247604,110.454508,262,199,109,16,4,12,21,18,1011,80,1,20141009170000
98,Zhanjiang,,21.26832,110.363883,180,100,125,38,13,17,21,18,1011,80,1,20141009170000
99,"Maogang sub-office EPB, Maoming",,21.466435,111.033462,151,72,86,6,6,5,24,17,0,63,3,20141009170000
100,"Petrochemical No. 7 elementaty school, Maoming",,21.648905,110.937861,162,80,81,9,8,11,24,17,0,63,3,20141009170000
101,"Jiankang road, Maoming",,21.662211,110.909482,155,70,48,17,8,14,24,17,0,63,3,20141009170000
102,"Gaoling, Maoming",,21.690558,110.871146,180,127,36,24,17,11,24,17,0,63,3,20141009170000
1094,Maoming,,21.660223,110.929968,180,127,81,24,17,14,24,17,0,63,3,20141009170000
103,"Jiaying University, Meizhou",,24.325415,116.12816,87,58,27,17,5,11,23,19,1010,78,1,20141009170000
104,"Mexian new town, Meizhou",,24.269283,116.084546,119,58,19,24,8,11,23,19,1010,78,1,20141009170000
105,"Environmental Monitoring Center, Meizhou",,24.262778,116.129621,109,68,19,18,9,9,23,19,1010,78,1,20141009170000
1095,Meizhou,,24.285988,116.127065,119,68,27,24,9,11,23,19,1010,78,1,20141009170000
106,"City EPA, Shanwei",,22.772349,115.370227,91,39,59,7,6,6,25,20,1011,73,1,20141009170000
107,"City government, Shanwei",,22.787161,115.375536,122,59,66,2,6,7,25,20,1011,73,1,20141009170000
108,"Xincheng Middle School, Shanwei",,22.789851,115.367124,119,52,44,6,5,9,25,20,1011,73,1,20141009170000
1099,Shanwei,,22.783576,115.38022,122,59,66,7,6,9,25,20,1011,73,1,20141009170000
109,"No.3 elementary school, Heyuan",,23.755946,114.699091,129,58,41,12,8,7,24,15,1012,46,1,20141009170000
109,"No.3 elementary school, Heyuan",,23.75435,114.703514,129,58,41,12,8,7,24,15,1012,46,1,20141009170000
111,"City water company, Heyuan",,23.754246,114.682459,129,58,40,25,5,6,24,15,1012,46,1,20141009170000
111,"City water company, Heyuan",,23.688709,114.954652,129,58,40,25,5,6,24,15,1012,46,1,20141009170000
113,"Heyuan high school, Heyuan",,23.720666,114.693879,119,50,40,13,7,7,24,15,1012,46,1,20141009170000
113,"Heyuan high school, Heyuan",,23.720037,114.699563,119,50,40,13,7,7,24,15,1012,46,1,20141009170000
115,Heyuan,,23.740888,114.705147,129,58,41,25,8,7,24,15,1012,46,1,20141009170000
116,"Yuanyang Lake, Yangjiang",,21.855869,111.983676,159,81,104,8,7,10,25,16,1011,49,1,20141009170000
1100,Yangjiang,,21.855227,111.987308,166,82,106,11,7,12,25,16,1011,49,1,20141009170000
118,"Town governement, Qingyuan",,23.708005,113.026215,53,25,38,20,48,15,25,15,1011,54,2,20141009170000
119,"Fupin district, Qingyuan",,23.624781,113.067713,63,33,22,20,6,19,25,15,1011,54,2,20141009170000
119,"Fupin district, Qingyuan",,24.185415,113.419369,63,33,22,20,6,19,25,15,1011,54,2,20141009170000
121,"Environment protection office, Qingyuan",,23.685931,113.053239,112,56,39,14,11,10,25,15,1011,54,2,20141009170000
596,"Shibei High School , Wuxi",,31.619969,120.279584,144,67,37,21,31,5,20,15,1017,73,2,20141009170000
597,"Yuhong Elementary School , Wuxi",,31.561155,120.249588,132,63,37,17,14,4,20,15,1017,73,2,20141009170000
598,Wuxi,,31.488746,120.31575,151,70,37,21,31,6,-,-,0,-,-,20141009170000
599,Changzhou,常州,31.808037,119.979205,172,86,6,22,36,13,11,9,0,88,5,20141009170000
600,"Chengjian School, Changzhou",,31.776476,119.937681,137,71,35,17,14,5,16,15,1003,93,3,20141009170000
601,"Changzhou Engineering Institute , Changzhou",,31.806828,119.966724,151,59,34,21,16,5,16,15,1003,93,3,20141009170000
602,"Wujin Monitoring Station, Changzhou",,31.701788,119.939676,157,66,29,24,23,6,16,15,1003,93,3,20141009170000
603,"City Monitoring Station, Changzhou",,31.777201,119.979426,142,61,30,24,15,6,16,15,1003,93,3,20141009170000
604,Zhenjiang,镇江,32.18597,119.431281,170,79,4,39,15,13,9,8,0,93,5,20141009170000
689,"Shanglan, Taiyuan",,38.011589,112.440679,218,127,22,21,9,14,15,11,1021,77,6,20141009170000
605,"New District Administrative office , Zhenjiang",,32.186174,119.685021,97,51,38,12,6,8,17,16,1018,94,4,20141009170000
606,"Vocational Education Center , Zhenjiang",,32.212973,119.496253,117,43,37,11,2,3,17,16,1018,94,4,20141009170000
607,"Dantu Monitoring Station , Zhenjiang",,32.130026,119.435432,104,48,30,21,8,5,17,16,1018,94,4,20141009170000
608,"City Monitoring Station, Zhenjiang",,32.202178,119.439766,109,44,37,17,6,3,17,16,1018,94,4,20141009170000
609,"Gaogang Adminstrative office , Taizhoushi",,32.300768,119.886757,180,96,33,9,9,4,15,14,0,89,2,20141009170000
610,"Students Innovation Park , Taizhoushi",,32.461672,119.892761,152,43,31,8,16,2,15,14,0,89,2,20141009170000
611,Taizhoushi,,32.453555,119.927852,180,96,33,15,23,5,15,14,0,89,2,20141009170000
612,"Yancheng power station , Yancheng",,33.400859,120.123067,124,68,33,16,8,3,-,-,0,-,-,20141009170000
613,Yancheng,盐城,33.345939,120.168504,144,52,30,5,3,7,11,10,1016,95,4,20141009170000
614,"Wenfeng Middle School , Yancheng",,33.370531,120.134041,97,37,18,18,7,3,-,-,0,-,-,20141009170000
615,"BDA Management Committe, Yancheng",,33.393191,120.22978,97,53,33,9,5,1,-,-,0,-,-,20141009170000
616,"City Monitoring Station, Yancheng",,33.390623,120.164423,129,48,32,15,2,3,15,14,0,89,2,20141009170000
617,Suqian,宿迁市,33.960666,118.281004,160,87,24,7,5,7,11,10,0,91,6,20141009170000
618,"Suqian College , Suqian",,33.951472,118.298523,104,56,34,13,5,6,16,14,0,87,3,20141009170000
619,"Suqian Middle School , Suqian",,33.95784,118.249505,129,75,18,23,6,3,16,14,0,87,3,20141009170000
620,"Suyu District Environmental Protection Agency , Suqian",,33.94932,118.326569,152,67,39,5,5,4,16,14,0,87,3,20141009170000
621,"City Monitoring Station, Suqian",,33.956982,118.277022,155,62,13,9,10,4,16,14,0,87,3,20141009170000
622,Taizhou,,28.653436,121.425185,95,48,41,17,3,13,19,18,0,92,3,20141009170000
623,Donghu Liyuan,,30.572324,114.377844,158,68,41,16,6,10,19,15,1016,78,2,20141009170000
624,Yuehu Lake,,30.554662,114.256937,154,65,32,50,5,9,19,15,1016,78,2,20141009170000
625,Hankou Huaqiao ,,30.61724,114.287652,155,70,40,19,11,11,19,15,1016,78,2,20141009170000
626,Wuchang Ziyang ,,30.530801,114.309438,155,90,1,26,4,8,19,15,1016,78,2,20141009170000
627,Qingshan Ganghua,,30.622435,114.375599,165,86,29,40,11,14,19,15,1016,78,2,20141009170000
628,Dunkou Xinou,,30.480091,114.162176,1,170,33,49,9,12,19,15,1016,78,2,20141009170000
629,Donghu Gaoxin,,30.48095,114.40724,159,115,37,38,7,9,19,15,1016,78,2,20141009170000
630,Wujianshan,,30.63114,114.135907,159,72,38,33,4,13,19,15,1016,78,2,20141009170000
631,Yuanshun Road,,30.297142,113.858587,167,72,111,11,5,7,19,15,1016,78,2,20141009170000
632,Wuhan,,30.590689,114.310838,165,90,37,50,11,14,19,15,1016,78,2,20141009170000
1190,"Silingsan Factory, Yichang",,30.713288,111.306585,1,1,23,0,0,7,18,11,1017,57,3,20141009170000
633,Yichang,,30.689528,111.292131,1,1,23,0,0,11,18,11,1017,57,3,20141009170000
633,Yichang,,30.689528,111.292131,1,1,23,0,0,11,18,11,1017,57,3,20141009170000
1191,"City Library , Jingzhou",,30.31494,112.260844,1,1,18,0,0,11,19,17,1015,85,0,20141009170000
1192,"City committee communist party school, Jingzhou",,30.35054,112.20743,1,1,19,0,0,17,19,17,1015,85,0,20141009170000
1193,"kerong EPA, Jingzhou",,30.302965,112.29443,1,1,44,0,0,10,19,17,1015,85,0,20141009170000
634,Jingzhou,,30.332608,112.245451,1,1,44,0,0,17,19,17,1015,85,0,20141009170000
634,Jingzhou,,30.332608,112.245451,1,1,44,0,0,17,19,17,1015,85,0,20141009170000
635,Huangshi,,30.19723,115.043908,168,105,43,17,15,30,16,15,1019,95,3,20141009170000
635,Huangshi,,30.19723,115.043908,168,105,43,17,15,30,16,15,1019,95,3,20141009170000
1194,"Chenjiaying, Huangshi",,30.232823,115.067923,161,105,16,14,6,30,16,,1019,95,3,20141009170000
1195,"Chenjiawan , Huangshi",,30.200422,115.082138,158,80,34,10,12,24,16,,1019,95,3,20141009170000
1196,"Xinxialu, Huangshi",,30.17332,114.954357,154,79,43,12,8,21,16,,1019,95,3,20141009170000
1197,"Tie montian, Huangshi",,30.203885,114.906439,168,81,27,17,1,16,16,,1019,95,3,20141009170000
1198,"BDA, Huangshi",,30.207491,115.031739,155,79,35,1,15,23,16,,1019,95,3,20141009170000
636,Shiyan,,32.627208,110.803311,188,103,37,21,9,11,11,,1019,94,1,20141009170000
636,Shiyan,,32.627208,110.803311,188,103,37,21,9,11,11,,1019,94,1,20141009170000
1199,"Wudang Mountain , Shiyan",,32.392921,111.047655,164,68,21,4,5,6,10,,,91,1,20141009170000
1200,"Riverside Village , Shiyan",,32.647286,110.785335,188,103,37,21,1,11,11,,,94,1,20141009170000
1201,"Liujiagou , Shiyan",,32.636732,110.731129,180,105,13,17,1,7,11,,,94,1,20141009170000
637,Xiangyang,,32.007029,112.128496,242,119,23,17,9,20,13,,1019,100,2,20141009170000
638,Ezhou,,30.389244,114.899884,181,141,32,35,14,25,18,15,1026,98,3,20141009170000
121,"Environment protection office, Qingyuan",,23.691109,113.047948,112,56,39,14,11,10,25,15,1011,54,2,20141009170000
123,"Fengcheng Subdistrict, Qingyuan",,23.695447,113.068189,53,25,38,20,48,16,25,15,1011,54,2,20141009170000
124,Qingyuan,,23.679304,113.061513,112,56,39,20,48,19,25,15,1011,54,2,20141009170000
125,"Xiyuan Road, Chaozhou",,23.668654,116.638272,104,50,31,13,8,11,23,19,1010,78,1,20141009170000
126,"Archives Bureau, Chaozhou",,23.667881,116.649104,109,50,33,16,7,11,23,19,1010,78,1,20141009170000
127,"Municipal Corporation, Chaozhou",,23.65035,116.621859,112,61,29,12,17,15,23,19,1010,78,1,20141009170000
1101,Chaozhou,,23.654204,116.626969,112,61,33,16,17,15,23,19,1010,78,1,20141009170000
128,"Donghu Park, Jieyang",,23.532877,116.374427,102,52,36,14,11,8,23,19,1010,78,1,20141009170000
129,"Yuhu Middle School, Jieyang",,23.52682,116.414123,142,52,31,11,14,7,23,19,1010,78,1,20141009170000
130,"Experimental Primary School, Jieyang",,23.571473,116.364137,149,55,26,11,19,9,23,19,1010,78,1,20141009170000
1102,Jieyang,,23.547596,116.37754,149,55,36,14,19,9,23,19,1010,78,1,20141009170000
131,"City Environmental Monitoring Station, Yunfu",,22.936779,112.042248,159,72,28,12,8,7,25,16,1011,57,2,20141009170000
132,"The new city government headquarters, Yunfu",,22.914275,112.044475,159,83,33,10,8,17,25,16,1011,57,2,20141009170000
133,"Muyang police sub-station, Yunfu",,22.951267,112.05923,102,43,33,13,15,16,25,16,1011,57,2,20141009170000
1103,Yunfu,,22.912436,112.049811,159,83,33,13,15,17,25,15,1011,54,2,20141009170000
134,Yantian,,22.587949,114.266899,95,52,36,31,8,14,26,17,1010,57,2,20141009170000
135,Kwai Chung,,22.572837,113.867166,165,77,52,43,9,16,26,17,1010,57,2,20141009170000
135,Kwai Chung,,22.627947,114.428875,165,77,52,43,9,16,26,17,1010,57,2,20141009170000
135,Kwai Chung,,22.354168,114.134558,165,77,52,43,9,16,26,17,1010,57,2,20141009170000
137,Nanyou,,22.513802,113.928051,129,68,30,34,5,8,26,17,1010,57,2,20141009170000
138,Meisha,,22.59611,114.318345,97,77,33,12,6,10,26,17,1010,57,2,20141009170000
139,Xi xiang,,22.717524,114.252304,144,117,25,39,4,17,26,17,1010,57,2,20141009170000
140,Liyuan,,22.54732,114.101205,124,69,21,54,2,12,26,17,1010,57,2,20141009170000
1072,Kwai Chung,,22.572837,113.867166,104,50,25,15,2,10,26,17,1010,57,2,20141009170000
1072,Kwai Chung,,22.627947,114.428875,104,50,25,15,2,10,26,17,1010,57,2,20141009170000
1072,Kwai Chung,,22.354168,114.134558,104,50,25,15,2,10,26,17,1010,57,2,20141009170000
141,OCT,,22.539549,113.992458,124,61,27,42,2,12,26,17,1010,57,2,20141009170000
142,Honghu,,22.559647,114.121976,151,90,28,71,3,12,26,17,1010,57,2,20141009170000
143,Mission Hills,,22.694131,114.050496,147,72,28,35,4,9,26,17,1010,57,2,20141009170000
144,Shenzhen,,22.540382,114.062982,151,90,52,71,9,16,-,-,0,-,-,20141009170000
145,Chengdu,,30.622581,104.069564,201,138,12,44,20,17,20,16,1014,78,1,20141009170000
146,"Jinquan lianghe, Chengdu",,30.710359,103.974209,212,123,5,33,16,15,20,16,1014,78,1,20141009170000
147,"Shilidian, Chengdu",,30.684718,104.17845,219,191,3,40,11,15,20,16,1014,78,1,20141009170000
148,"Sanwayao, Chengdu",,30.568159,104.081524,189,159,3,38,10,25,20,16,1014,78,1,20141009170000
149,"Shahepu, Chengdu",,30.633685,104.120536,197,137,3,38,10,20,20,16,1014,78,1,20141009170000
150,"Liang Lane, Chengdu",,30.682601,104.076522,201,137,12,38,16,17,20,16,1014,78,1,20141009170000
151,"Caotang Temple, Chengdu",,30.651891,104.0284,195,138,5,44,20,16,20,16,1014,78,1,20141009170000
152,"Lingyansi, Chengdu",,31.025729,103.615022,163,75,36,6,10,4,20,16,1014,78,1,20141009170000
153,"Fuleshan, Mianyang",,31.472493,104.7806,162,73,8,14,5,10,22,16,1012,62,2,20141009170000
154,"High-tech Zone Water Company, Mianyang",,31.463309,104.674293,147,62,15,19,9,8,22,16,1012,62,2,20141009170000
155,"No.3 water company, Mianyang",,31.505002,104.731054,154,74,6,27,4,6,22,16,1012,62,2,20141009170000
156,Mianyang,,31.465174,104.681731,162,74,15,27,9,10,22,16,1012,62,2,20141009170000
157,"Dongshan Park, Deyang",,31.118648,104.424587,174,100,30,24,10,10,20,16,1014,78,1,20141009170000
158,"Xixiaoqu, Deyang",,31.131159,104.390972,163,100,7,22,16,11,20,16,1014,78,1,20141009170000
159,"City Procuratorate, Deyang",,31.114554,104.407986,172,97,3,24,8,15,20,16,1014,78,1,20141009170000
160,"Refractory Factory, Deyang",,31.108606,104.356506,182,117,9,25,8,7,20,16,1014,78,1,20141009170000
161,Deyang,,31.124715,104.400703,182,117,30,25,16,15,20,16,1014,78,1,20141009170000
162,"Nongnongping, Panzhihua",,26.566698,101.695438,95,65,26,32,16,10,20,12,0,51,2,20141009170000
163,"Hemenkou, Panzhihua",,26.589072,101.578312,144,62,30,9,12,13,20,12,0,51,2,20141009170000
164,"Bingcaogang, Panzhihua",,26.58143,101.718473,63,53,14,21,8,15,20,12,0,51,2,20141009170000
165,"Renhe, Panzhihua",,26.498166,101.746887,97,53,15,14,7,10,20,12,0,51,2,20141009170000
166,"Jinjina, Panzhihua",,26.553226,101.84862,122,83,18,11,10,14,20,12,0,51,2,20141009170000
167,Panzhihua,,26.578779,101.720211,144,83,30,32,16,15,20,12,0,51,2,20141009170000
168,"Shima Middle School, Yibin",,28.815979,104.599199,168,102,33,12,21,10,23,17,1012,62,1,20141009170000
169,"Municipal party committee, Yibin",,28.762654,104.624834,175,83,21,16,28,14,23,17,1012,62,1,20141009170000
170,"No. 4 middle school, Yibin",,28.783257,104.608407,184,104,32,15,18,8,23,17,1012,62,1,20141009170000
171,"City government, Yibin",,28.760477,104.644079,177,104,32,18,17,10,23,17,1012,62,1,20141009170000
172,"Huangjinzui, Yibin",,28.712319,104.578389,170,106,35,15,17,10,23,17,1012,62,1,20141009170000
173,"Shaping Middle School, Yibin",,28.795569,104.681393,182,94,35,20,27,9,23,17,1012,62,1,20141009170000
638,Ezhou,,30.389244,114.899884,181,141,32,35,14,25,18,15,1026,98,3,20141009170000
1203,"City government, Ezhou",,30.391836,114.892822,165,90,23,23,10,11,17,,1026,98,3,20141009170000
1204,"Zhaojiaba, Ezhou",,30.368966,114.90365,161,78,18,11,4,10,17,,1026,98,3,20141009170000
1205,"Fankou BDA, Ezhou",,30.410759,114.818225,181,141,32,35,14,25,17,,1026,98,3,20141009170000
639,Jingmen,,31.033208,112.205093,200,115,47,12,21,11,14,17,1011,100,1,20141009170000
639,Jingmen,,31.033208,112.205093,200,115,47,12,21,11,14,17,1011,100,1,20141009170000
640,Xiaogan,,30.922089,113.922387,-,77,32,12,9,16,19,15,1016,77,2,20141009170000
640,Xiaogan,,30.922089,113.922387,-,77,32,12,9,16,19,15,1016,77,2,20141009170000
1206,"wenhua street, Shenyang , Xiaogan",,30.925856,113.92104,-,77,32,12,9,16,19,15,1016,77,2,20141009170000
690,"Jinyuan, Taiyuan",,37.713164,112.475552,358,298,27,17,18,13,15,11,1021,77,6,20141009170000
641,Huanggang,,30.45124,114.877378,178,104,35,21,9,14,18,15,1026,100,3,20141009170000
641,Huanggang,,30.45124,114.877378,178,104,35,21,9,14,18,15,1026,100,3,20141009170000
1208,"Dazhou Island, Huanggang",,30.446205,114.900323,176,104,30,21,6,14,17,,1026,100,3,20141009170000
1209,"Workers Center , Huanggang",,30.469244,114.912504,178,96,35,12,9,14,17,,1026,100,3,20141009170000
642,Xianning,,29.838978,114.327898,168,91,48,15,29,22,12,15,991,100,1,20141009170000
642,Xianning,,29.838978,114.327898,168,91,48,15,29,22,12,15,991,100,1,20141009170000
1210,"Municipal Development and Reform Commission , Xianning",,29.818645,114.328461,167,101,37,18,9,22,12,,991,100,1,20141009170000
1211,"Xianan District Governement, Xianning",,29.51107,114.181864,163,90,6,10,5,22,15,,999,91,2,20141009170000
1212,"Yangtze River Industrial Park , Xianning",,29.883098,114.32909,168,90,48,15,29,22,12,,991,100,1,20141009170000
1213,"Qianshan Park, Xianning",,29.815351,114.328689,162,81,38,5,5,12,12,,991,100,1,20141009170000
643,Suizhou,,31.688342,113.388675,164,89,41,21,6,13,14,,1012,90,3,20141009170000
643,Suizhou,,31.688342,113.388675,164,89,41,21,6,13,14,,1012,90,3,20141009170000
1338,"City committee communist party school, Suizhou",,31.725316,113.3648,172,103,43,25,2,10,14,,1012,90,3,20141009170000
1339,"Forestry Bureau, Suizhou",,31.690065,113.383157,159,78,46,22,4,12,14,,1012,90,3,20141009170000
645,Xiantao,,30.360228,113.460616,178,115,50,14,6,12,13,15,1026,99,1,20141009170000
645,Xiantao,,30.360228,113.460616,178,115,50,14,6,12,13,15,1026,99,1,20141009170000
1214,"Xiangcheng Yundong Street, Xiangfan",,32.017716,112.16102,241,123,21,20,7,16,13,,1019,100,2,20141009170000
1359,"Fancheng Xinhua Road , Xiangfan",,32.0544,112.145224,242,114,26,12,11,24,13,,1019,100,2,20141009170000
655,"City Environmental Monitoring Station, Baotou",,40.657201,109.886738,169,87,28,25,20,13,,,0,,,20141009170000
656,"Donghe EPB, Baotou",,40.586213,110.002224,142,110,25,35,30,14,,,0,,,20141009170000
657,"Baotou shopping mall, Baotou",,40.508334,109.819085,170,101,23,19,24,12,,,0,,,20141009170000
658,"Huilong logistics, Baotou",,40.633436,109.879821,169,110,25,28,18,6,,,0,,,20141009170000
659,Baotou,,40.658597,109.846051,179,149,36,35,30,14,15,8,0,55,3,20141009170000
660,"Huatai Automobile Mall, Eerduosi",,39.837048,109.972209,174,102,103,10,33,8,15,8,1015,55,3,20141009170000
661,"Olympus Garden, Eerduosi",,39.789171,109.987742,180,107,46,21,37,10,15,8,1015,55,3,20141009170000
662,Eerduosi,,39.609284,109.78704,181,114,103,21,42,10,15,8,1015,55,3,20141009170000
663,"Tianyi Road, Chifeng",,42.275552,118.88507,104,79,61,6,8,6,11,4,1024,55,2,20141009170000
664,"Songshan No.1 Middle School, Chifeng",,42.329307,118.793045,127,117,45,11,6,6,11,4,1024,55,2,20141009170000
665,"Hada Street, Chifeng",,42.280714,118.988235,112,80,31,17,13,7,11,4,1024,55,2,20141009170000
666,"Songshan Road, Chifeng",,42.171487,118.89501,127,101,44,11,16,4,11,4,1024,55,2,20141009170000
667,Chifeng,,42.259752,118.893027,127,117,61,17,16,7,11,4,1024,55,2,20141009170000
674,Fuzhou,,26.071406,119.301294,78,46,39,8,5,7,24,18,1011,69,11,20141009170000
675,"Xidong, Xiamen",,24.815345,118.161848,65,24,41,6,2,4,25,17,1011,61,5,20141009170000
676,"Hongwen, Xiamen",,24.473969,118.156281,70,30,35,10,2,5,25,17,1010,61,4,20141009170000
677,"Gulangyu, Xiamen",,24.443168,118.068571,80,33,29,5,2,4,25,17,1010,61,4,20141009170000
678,"Huli, Xiamen",,24.51235,118.099146,74,30,24,5,2,3,25,17,1010,61,4,20141009170000
679,Xiamen,,24.477187,118.094402,80,33,29,5,2,4,-,-,0,-,-,20141009170000
680,"Qingyuan Montain, Quanzhou",,24.939503,118.598337,61,26,21,2,2,3,25,17,1010,61,4,20141009170000
681,"Tushan Street, Quanzhou",,24.90867,118.586397,59,32,31,5,2,4,25,17,1010,61,4,20141009170000
682,"Wanan, Quanzhou",,24.304154,118.070903,65,20,28,7,4,4,25,17,1010,61,4,20141009170000
683,Quanzhou,,24.87179,118.68001,74,36,31,11,4,4,25,17,1010,61,4,20141009170000
687,"Jiancaoping, Taiyuan",,37.887889,112.528383,305,283,26,12,11,17,15,11,1021,77,6,20141009170000
688,"Jianhe, Taiyuan",,37.910779,112.579258,318,442,14,23,9,18,15,11,1021,77,6,20141009170000
691,"Xiaodian, Taiyuan",,37.782137,112.483533,401,332,16,9,19,17,15,11,1021,77,6,20141009170000
692,"Taoyuan, Taiyuan",,37.869752,112.543332,316,181,16,22,14,19,15,11,1021,77,6,20141009170000
693,"Wucheng, Taiyuan",,37.819998,112.576252,339,358,21,24,11,21,15,11,1021,77,6,20141009170000
694,"Nanzhai, Taiyuan",,37.985902,112.555312,327,228,35,7,13,18,15,11,1021,77,6,20141009170000
695,"Jinsheng, Taiyuan",,37.781205,112.494494,353,307,30,15,27,16,15,11,1021,77,6,20141009170000
696,Taiyuan,,37.871115,112.555178,316,283,26,22,14,17,-,-,0,-,-,20141009170000
697,"Monitoring station, Changzhi",,36.194062,113.10389,326,184,25,26,20,18,17,14,0,82,2,20141009170000
174,Yibin,,28.748384,104.645766,184,106,35,20,28,14,23,17,1012,62,1,20141009170000
175,"Datang Hill, Zigong",,29.359969,104.757388,192,133,25,10,1,6,23,16,1001,63,2,20141009170000
176,"Yanma Road, Zigong",,29.355752,104.724036,177,97,10,1,4,10,23,16,1001,63,2,20141009170000
177,"Tanmulin Street, Zigong",,29.353555,104.777397,195,107,26,9,11,6,23,16,1001,63,2,20141009170000
178,"Chunhua Road, Zigong",,29.33825,104.771895,175,96,20,8,10,11,23,16,1001,63,2,20141009170000
179,Zigong,,29.33617,104.781138,195,117,26,9,11,11,23,16,1001,63,2,20141009170000
180,"Jiushi Hill, Luzhou",,28.955347,105.434207,194,108,159,4,5,9,22,16,1001,67,1,20141009170000
181,"Xiaoshishang Port, Luzhou",,28.899583,105.447192,184,95,106,6,12,9,22,16,1001,67,1,20141009170000
182,"Lantianxian Bridge, Luzhou",,28.852766,105.4358,171,112,158,13,11,5,22,16,1001,67,1,20141009170000
183,"City Environment Monitoring Station, Luzhou",,28.895898,105.435802,187,95,69,11,8,10,22,16,1001,67,1,20141009170000
184,Luzhou,,28.868782,105.445938,194,112,159,13,12,10,22,16,1001,67,1,20141009170000
185,"City Committee, Nanchong",,30.799993,106.082906,181,120,11,12,3,7,22,18,1012,73,1,20141009170000
186,"Refinery Factory, Nanchong",,30.819412,106.10712,197,124,32,36,5,5,22,18,1012,73,1,20141009170000
187,"Gaoping District Monitoring Station, Nanchong",,30.783291,106.110417,184,118,21,22,7,11,22,18,1012,73,1,20141009170000
188,"Jialing District EPB, Nanchong",,30.761255,106.06818,191,106,40,42,27,6,22,18,1012,73,1,20141009170000
189,"City Environmental Monitoring Station, Nanchong",,30.836519,106.11272,202,115,23,14,10,10,22,18,1012,73,1,20141009170000
190,Nanchong,,30.835511,106.114717,202,124,32,36,10,11,22,18,1012,73,1,20141009170000
1249,"City Monitoring Station, Neijiang",,29.592673,105.036234,200,111,37,4,4,9,23,16,1001,63,2,20141009170000
1250,"Dongxing District Government , Neijiang",,29.592148,105.074966,206,113,36,4,4,4,23,16,1001,63,2,20141009170000
1251,"No 2 middle school, Neijiang",,29.579135,105.068548,202,115,38,10,12,6,23,16,1001,63,2,20141009170000
1252,Neijiang,,29.577653,105.06166,206,115,38,10,12,9,23,16,1001,63,2,20141009170000
1253,"City Monitoring Station, Suining",,30.610641,105.683583,175,104,27,8,4,16,22,14,0,60,2,20141009170000
1254,"Administrative center , Suining",,30.63206,105.819747,174,123,28,23,21,6,22,14,0,60,2,20141009170000
1255,Suining,,30.530053,105.596307,189,125,34,23,21,16,22,14,0,60,2,20141009170000
1256,"City Monitoring Station, Leshan",,29.560651,103.759211,183,134,7,31,53,14,22,16,0,68,1,20141009170000
1257,"Leshan Giant Buddha Scenic Area , Leshan",,29.543938,103.772706,194,128,9,30,44,15,22,16,0,68,1,20141009170000
1258,Leshan,,29.54935,103.767777,194,134,10,34,53,15,22,16,0,68,1,20141009170000
1259,"Heilongtan , Meishan",,30.047726,103.900649,266,167,6,47,9,13,20,16,1014,78,1,20141009170000
1260,"Bureau of Meteorology, Meishan",,30.084591,103.843715,-,-,-,-,-,-,-,-,0,-,-,20141009170000
1261,"Xuguang Community , Meishan",,30.066277,103.8516,221,131,4,26,11,10,20,16,1014,78,1,20141009170000
1262,"City Monitoring Station, Meishan",,30.059205,103.836229,210,118,4,23,11,10,20,16,1014,78,1,20141009170000
1263,Meishan,,30.072618,103.85064,266,167,6,47,11,13,20,16,1014,78,1,20141009170000
1264,"Ziyang middle school, Ziyang",,30.147763,104.638024,171,97,28,13,25,6,23,16,1001,63,2,20141009170000
1265,Ziyang,,30.126054,104.63004,179,120,36,15,31,17,23,16,1001,63,2,20141009170000
191,Shenyang US Consulate,,41.785668,123.432865,202,95,32,38,14,9,11,8,1023,82,3,20141009170000
192,"Huishan, Shenyang",,41.835421,123.647773,190,98,28,17,1,8,11,8,1023,82,3,20141009170000
193,"Hunnan, Shenyang",,41.758263,123.540809,195,133,24,40,9,10,11,8,1023,82,3,20141009170000
194,"Zhangshi, Shenyang",,41.771679,123.289859,206,151,13,37,16,8,11,8,1023,82,3,20141009170000
195,"Artillery College, Shenyang",,41.835749,123.547799,153,111,34,25,4,10,11,8,1023,82,3,20141009170000
196,"Beiling, Shenyang",,41.849633,123.434146,200,121,13,32,4,8,11,8,1023,82,3,20141009170000
197,"Wenyi Road, Shenyang",,41.767444,123.416144,195,109,30,39,16,10,11,8,1023,82,3,20141009170000
198,"Xiaoheyan, Shenyang",,41.779828,123.484015,200,117,25,31,9,8,11,8,1023,82,3,20141009170000
199,"Taiyuan Street, Shenyang",,41.799646,123.406146,223,129,9,38,10,9,11,8,1023,82,3,20141009170000
200,"Ermao, Shenyang",,41.783011,123.366679,197,124,35,28,22,10,11,8,1023,82,3,20141009170000
201,"Liaoning University, Shenyang",,41.830704,123.361071,201,75,28,21,4,7,11,8,1023,82,3,20141009170000
202,Shenyang,,41.808126,123.437611,223,129,13,38,10,9,11,8,1023,82,2,20141009170000
1104,"wenhua street, Shenyang , Shenyang",,41.774139,123.441839,203,119,25,35,16,9,11,8,1023,82,3,20141009170000
1105,"Tanglin Road , Shenyang , Shenyang",,41.823665,123.562317,154,121,28,25,3,9,11,8,1023,82,3,20141009170000
203,"Ganjingzi, Dalian",,38.9747,121.616893,172,107,14,56,7,8,13,12,1022,94,1,20141009170000
204,"Zhoushuizi, Dalian",,38.951928,121.569981,155,74,7,22,4,14,13,12,1022,94,1,20141009170000
205,"Xinghai No 3 station, Dalian",,38.885779,121.568864,163,69,16,21,5,11,13,12,1022,94,1,20141009170000
206,"Qingniwa Bridge, Dalian",,38.91274,121.638018,139,54,15,32,2,9,13,12,1022,94,1,20141009170000
207,"Fujiazhuang, Dalian",,38.864647,121.629947,93,49,28,6,7,1,13,12,1022,94,1,20141009170000
208,"Qixianling, Dalian",,38.856978,121.523169,109,62,7,19,2,9,14,12,1022,88,1,20141009170000
209,"Lushun, Dalian",,38.808946,121.264063,93,51,14,6,3,5,14,12,1022,88,1,20141009170000
210,"Jinzhou, Dalian",,39.132192,121.753259,127,71,6,17,2,6,14,12,1022,88,1,20141009170000
211,"BDA, Dalian",,39.05213,121.782022,154,69,7,22,4,8,13,12,1022,94,1,20141009170000
212,"D&D Port, Dalian",,39.064087,121.981874,152,36,6,6,1,10,14,12,1022,88,1,20141009170000
213,Dalian,,38.91478,121.619625,139,54,28,32,7,9,-,-,0,-,-,20141009170000
214,"Bearing Factory, Dandong",,40.068929,124.345703,159,90,13,28,14,26,12,11,1022,91,0,20141009170000
215,"Financial school, Dandong",,40.158723,124.432593,153,68,19,21,10,13,12,11,1022,91,0,20141009170000
216,"Yuanbaoshan water, Dandong",,40.149431,124.391698,134,65,24,14,12,17,12,11,1022,91,0,20141009170000
217,"Experimental Primary School, Dandong",,39.887343,124.158056,162,84,11,37,6,13,12,11,1022,91,0,20141009170000
218,Dandong,,40.002046,124.360479,160,91,21,28,14,28,12,11,1022,91,0,20141009170000
1106,"minzhu bridge, Dandong , Dandong",,40.112974,124.373604,160,79,5,28,5,14,12,11,1022,91,0,20141009170000
1107,"yuanbaoshan, Dandong , Dandong",,40.146298,124.399081,134,63,21,8,12,17,12,11,1022,91,0,20141009170000
1108,"linjiang houjie, Dandong , Dandong",,40.152757,124.431745,152,66,15,12,8,13,12,11,1022,91,0,20141009170000
219,"BDA, Panjin",,41.157144,122.06645,153,63,22,11,7,12,11,6,0,68,3,20141009170000
220,"Xinglongtai, Panjin",,41.140948,122.111343,156,104,18,15,17,10,11,6,0,68,3,20141009170000
221,"Dingxiang, Panjin",,41.16139,121.928781,147,62,40,13,4,12,12,6,0,66,3,20141009170000
222,Panjin,,41.122089,122.076206,156,104,34,15,17,12,11,6,0,68,3,20141009170000
223,"No.3 water company, Yingkou",,40.682052,122.385352,104,63,34,15,7,9,14,12,1023,79,5,20141009170000
224,"Yingkou University, Yingkou",,40.683689,122.388285,87,61,29,19,6,10,14,12,1023,79,5,20141009170000
225,"Botanical garden, Yingkou",,40.711674,122.281568,122,51,24,13,6,12,14,12,1023,79,5,20141009170000
226,Yingkou,,40.668578,122.24059,158,68,29,13,7,13,14,12,1023,79,5,20141009170000
1109,"jinghu west street, Yingkou , Yingkou",,40.653831,122.221943,122,64,29,12,5,9,14,12,1023,79,5,20141009170000
1110,"Daqing Road , Yingkou , Yingkou",,40.709181,122.28243,158,64,20,13,5,13,14,12,1023,79,5,20141009170000
227,"Xishanpo, Huludao",,40.724078,120.921974,157,102,42,14,25,14,12,6,0,66,3,20141009170000
228,"Huagong hospital, Huludao",,40.755662,120.848435,142,75,26,13,8,18,12,6,0,66,3,20141009170000
229,"New district park, Huludao",,40.723415,120.853801,132,66,36,13,19,12,12,6,0,66,3,20141009170000
230,"Lianshan district governement, Huludao",,40.775488,120.872292,102,52,31,19,9,13,12,6,0,66,3,20141009170000
231,Huludao,,40.712501,120.842107,158,94,37,18,27,14,15,6,0,45,5,20141009170000
1111,"Dongcheng District , Huludao , Huludao",,40.775362,120.871706,99,62,26,18,8,12,,,0,,,20141009170000
1112,"huagong street, Huludao , Huludao",,40.758901,120.842935,122,70,21,13,6,19,,,0,,,20141009170000
232,Anshan,,41.110466,123.000147,251,175,31,38,23,24,11,8,1023,82,2,20141009170000
233,"Qianshan Park, Anshan",,41.033486,123.143897,244,148,37,14,6,11,11,8,1023,82,3,20141009170000
234,"Tiexi, Anshan",,41.121636,122.97506,189,128,19,30,28,22,11,8,1023,82,3,20141009170000
235,"Taiping Station, Anshan",,41.153322,123.052433,222,162,12,26,22,18,11,8,1023,82,3,20141009170000
236,"Central Station, Anshan",,41.106731,123.002736,179,131,36,18,12,19,11,8,1023,82,3,20141009170000
237,"Shengou Temple, Anshan",,41.137157,123.031901,235,166,24,29,8,22,11,8,1023,82,3,20141009170000
1113,"Qianshan , Anshan , Anshan",,41.014521,123.122538,251,153,31,13,6,12,11,8,1023,82,3,20141009170000
1114,"Tiexi Sandao jie, Anshan",,41.103264,122.978613,206,150,12,31,23,23,11,8,1023,82,3,20141009170000
1115,"Taiyang, Anshan",,41.094946,123.019037,183,139,27,23,9,19,11,8,1023,82,3,20141009170000
238,Fushun,,41.883028,123.962984,190,116,33,19,46,12,11,8,1023,82,2,20141009170000
239,"Shenfu new town, Fushun",,41.804638,123.631684,190,114,25,19,4,9,11,8,1023,82,3,20141009170000
240,"Reservoir, Fushun",,41.8464,123.802857,177,95,33,11,29,18,11,8,1023,82,3,20141009170000
241,"Train Station, Fushun",,41.89726,124.017604,187,110,34,12,9,12,11,8,1023,82,3,20141009170000
242,"Dongzhou, Fushun",,41.855578,124.044738,157,119,36,12,35,10,11,8,1023,82,3,20141009170000
243,"Xinhua, Fushun",,41.888598,123.932932,177,116,28,20,4,11,11,8,1023,82,3,20141009170000
244,"Wanghua, Fushun",,41.888825,123.093723,188,109,30,19,7,14,11,8,1023,82,3,20141009170000
245,Benxi,,41.296267,123.772371,252,188,34,33,27,32,10,7,1023,82,3,20141009170000
246,"Weining, Benxi",,41.349663,123.826071,212,434,15,27,3,32,10,7,1023,82,3,20141009170000
247,"Occupational disease hospital, Benxi",,41.305432,123.74645,256,132,21,18,9,17,11,8,1023,82,2,20141009170000
248,"Dongming, Benxi",,41.292369,123.765058,248,186,10,80,27,28,10,7,1023,82,3,20141009170000
249,"Caitun, Benxi",,41.301591,123.746039,247,188,17,26,4,20,10,7,1023,82,3,20141009170000
250,"Xihu, Benxi",,41.331332,123.773537,232,121,23,33,5,12,10,7,1023,82,3,20141009170000
251,"Dayu, Benxi",,41.308091,123.818442,243,105,34,21,12,15,10,7,1023,82,3,20141009170000
1116,"Xinlitun , Benxi , Benxi",,41.264104,123.811523,252,136,11,14,7,17,10,7,1023,82,3,20141009170000
252,Jinzhou,,41.097169,121.132647,147,69,35,28,11,11,15,6,1024,45,5,20141009170000
253,"Beihu Park, Jinzhou",,41.141447,121.137339,137,69,30,22,13,13,15,6,1024,45,5,20141009170000
254,"Monitoring station, Jinzhou",,41.113441,121.140911,117,64,34,22,7,10,15,6,1024,45,5,20141009170000
255,"Nanshan, Jinzhou",,41.570689,122.046753,147,57,35,20,9,9,15,6,1024,45,5,20141009170000
1118,"BDA, Jinzhou",,40.853915,121.061756,129,62,29,13,8,11,15,6,1024,45,5,20141009170000
1119,"tianan street, Jinzhou , Jinzhou",,41.124468,121.126119,132,69,29,28,11,9,15,6,1024,45,5,20141009180000
1120,"baigu street, Jinzhou, Jinzhou",,41.12214,121.21027,137,69,37,21,7,8,15,6,1024,45,5,20141009180000
1121,Chaoyang,,41.576022,120.456053,119,64,35,11,19,20,-,-,0,-,-,20141009180000
472,"Fukang road, Tianjin",,39.098136,117.157621,243,151,24,66,22,7,16,14,1021,88,2,20141009180000
698,"Auditing bureau, Changzhi",,36.212787,113.095221,287,165,29,19,5,14,17,14,0,82,2,20141009170000
699,"Qinghua station, Changzhi",,36.154328,113.116385,253,161,22,22,6,18,17,14,0,82,2,20141009170000
700,"No.8 middle school, Changzhi",,36.185451,113.099481,338,183,27,41,11,22,,,0,,,20141009170000
701,Changzhi,,36.195553,113.12292,338,184,27,41,20,22,17,11,0,59,1,20141009170000
702,"Yungang Hotel, Datong",,40.076997,113.278079,137,55,24,19,5,6,16,8,1018,49,2,20141009170000
703,"college of education, Datong",,40.085608,113.27808,157,52,23,29,7,11,16,8,1018,49,2,20141009170000
704,Datong,,40.078016,113.307143,151,71,35,20,12,16,16,8,1018,49,2,20141009170000
705,"Technical Schools, Linfen",,36.07131,111.509046,160,88,29,12,6,24,10,7,0,81,4,20141009170000
706,"Municipal party committee, Linfen",,36.087425,111.508771,124,59,17,2,5,20,10,7,0,81,4,20141009170000
1073,"City Monitoring Station, Linfen",,36.097676,111.518739,154,78,19,17,8,19,11,7,0,78,4,20141009170000
707,"South Airport, Linfen",,36.041614,111.497968,155,3,12,12,22,21,10,7,0,81,4,20141009170000
708,Linfen,,36.087944,111.525098,160,88,29,16,22,24,10,7,0,81,4,20141009170000
709,"City center, Yangquan",,37.848012,113.578636,443,636,38,19,25,25,15,11,1021,77,6,20141009170000
710,Yangquan,,37.857475,113.586921,517,668,33,19,78,36,15,11,1021,77,6,20141009170000
711,"Water Company, Jincheng",,35.504787,112.857245,163,104,29,45,4,12,17,11,1019,59,1,20141009170000
712,"Baiyun shopping mall, Jincheng",,35.492858,112.841566,203,125,14,16,9,11,17,11,1019,59,1,20141009170000
713,"City EPA, Jincheng",,35.488422,112.858528,97,84,19,17,22,13,17,11,1019,59,1,20141009170000
714,"Institute of Technology, Jincheng",,35.484844,112.878073,82,122,35,57,14,10,17,11,1019,59,1,20141009170000
715,"No.1 middle school, Jincheng",,35.478725,112.838636,119,89,20,29,10,7,17,11,1019,59,1,20141009170000
716,Jincheng,,35.490287,112.85794,203,125,35,57,22,13,17,11,1019,59,1,20141009170000
718,"District Government, Shuozhou",,39.320857,112.430641,195,124,32,22,26,16,19,10,1018,44,3,20141009170000
719,"City EPA, Shuozhou",,39.331495,112.407997,195,110,32,22,14,16,19,10,1018,44,3,20141009170000
720,"No.2 middle school, Shuozhou",,39.377963,112.432877,194,96,24,45,16,15,19,10,1018,44,3,20141009170000
721,Shuozhou,,39.332756,112.439672,195,163,32,49,30,16,19,10,1018,44,3,20141009170000
722,"Jinlun compound, Jinzhong",,37.697891,112.771017,235,157,28,9,9,20,15,11,1021,77,6,20141009170000
723,"Hydraulic Component Factory, Jinzhong",,37.688355,112.725844,283,176,22,19,17,22,15,11,1021,77,6,20141009170000
724,"Nandu compound, Jinzhong",,37.713148,112.732036,308,181,14,10,9,18,15,11,1021,77,6,20141009170000
725,"Yuci district government, Jinzhong",,37.698228,112.714167,265,167,15,7,5,18,15,11,1021,77,6,20141009170000
726,Jinzhong,,37.687705,112.759187,308,181,28,19,17,22,15,11,1021,77,6,20141009170000
727,"Yuncheng Middle School, Yuncheng",,35.012345,111.003215,151,74,104,9,21,14,20,10,1016,43,4,20141009170000
728,"Yudou BDA, Yuncheng",,35.05065,111.029571,153,85,44,5,18,0,20,10,1016,43,4,20141009170000
730,"Regional Technical School, Yuncheng",,35.028727,110.974076,159,66,89,5,11,12,20,10,1016,43,4,20141009170000
731,"Airport new district, Yuncheng",,35.084515,111.05339,168,87,41,6,11,19,20,10,1016,43,4,20141009180000
732,Yuncheng,,35.025675,111.013344,168,87,104,9,21,19,-,-,0,-,-,20141009180000
733,"Jiyin, Xinzhou",,38.413292,112.742432,-,175,-,14,15,-,15,11,1021,77,6,20141009180000
734,"BDA, Xinzhou",,38.450069,112.736723,304,144,23,3,16,20,15,11,1021,77,6,20141009180000
735,"Convention Center, Xinzhou",,38.492043,112.709772,328,174,24,7,10,24,15,11,1021,77,6,20141009180000
736,Xinzhou,,38.417244,112.740742,328,175,24,14,16,24,15,11,1021,77,6,20141009180000
737,"City EPA, Luliang",,37.522189,111.144365,193,109,14,22,26,24,20,14,0,58,3,20141009180000
738,"Soybean factory, Luliang",,37.51689,111.135101,194,272,12,60,50,33,20,14,0,58,3,20141009180000
739,"Water Company, Luliang",,37.53394,111.138834,166,127,5,33,15,30,20,14,0,58,3,20141009180000
740,Luliang,,25.027007,103.668566,194,272,14,60,50,33,20,14,0,58,3,20141009180000
741,"City government, Sanmenxia",,34.776251,111.198781,152,66,31,13,8,7,20,10,1016,43,4,20141009180000
743,"BDA, Sanmenxia",,34.800434,111.204332,162,79,30,16,28,12,20,10,1016,43,4,20141009180000
744,Sanmenxia,,34.771506,111.206129,162,79,46,16,28,13,20,10,1016,43,4,20141009180000
745,"Food Factory, Changchun",,43.919094,125.329521,192,143,13,33,7,9,2,1,1027,93,1,20141009180000
746,"Bus Factory, Changchun",,43.912337,125.293431,169,90,9,34,12,6,2,1,1026,93,1,20141009180000
747,"Institute of Posts and Telecommunications, Changchun",,43.842368,125.285005,134,73,14,34,3,6,2,1,1026,93,1,20141009180000
748,"Laodong Park, Changchun",,43.877293,125.371519,132,71,9,28,4,8,2,1,1026,93,1,20141009180000
749,"Forest area, Changchun",,43.871825,125.331519,161,88,9,31,6,9,2,1,1027,93,1,20141009180000
750,"Jinyuetan, Changchun",,43.79031,125.460561,144,60,25,7,1,5,2,1,1026,93,1,20141009180000
751,"Shuaiwanzi, Changchun",,43.552321,125.639086,-,-,-,-,-,-,-,-,0,-,-,20141009180000
752,"Economic Development Zone Sanitation Department, Changchun",,43.869221,125.42365,167,74,12,31,3,7,2,1,1026,93,1,20141009180000
753,"High-tech Zone Administrative Committee, Changchun",,43.819064,125.256375,144,72,14,23,2,9,2,1,1026,93,1,20141009180000
754,"Daishan Park, Changchun",,43.852365,125.223399,147,68,10,28,3,7,2,1,1027,93,1,20141009180000
755,Changchun,,43.819415,125.329977,134,73,14,34,4,8,-,-,0,-,-,20141009180000
756,"Hadawan, Jilin",,43.888081,126.545727,192,155,24,21,4,6,3,2,0,90,1,20141009180000
757,"Fengman, Jilin",,43.768169,126.678802,109,50,29,5,2,5,3,2,0,90,1,20141009180000
1122,"Agricultural Area, Chaoyang",,43.93968,125.247371,109,42,9,5,5,10,18,6,1022,35,3,20141009180000
1123,Tieling,,42.225197,123.732174,204,103,28,22,22,9,-,-,0,-,-,20141009180000
260,"Waterpark, Tieling",,42.297031,123.880748,204,107,11,22,11,9,11,8,1023,82,3,20141009180000
1124,"Huigong Street West , Tieling , Tieling",,42.311115,123.845614,197,102,24,21,22,7,11,8,1023,82,3,20141009180000
1125,Liaoyang,,41.269312,123.24268,175,110,23,22,12,17,-,-,0,-,-,20141009180000
1126,"Riverside Road , Liaoyang , Liaoyang",,41.176884,123.419859,162,74,25,19,5,11,10,7,1023,82,3,20141009180000
1127,Fuxin,,42.02373,121.675733,144,79,20,22,25,12,-,-,0,-,-,20141009180000
266,"Agricultural Area, Fuxin",,42.071291,121.696445,78,48,16,21,10,6,10,5,0,73,2,20141009180000
267,"Industrial Area, Fuxin",,42.041052,121.715554,134,79,15,21,25,12,10,5,0,73,2,20141009180000
1128,"Yulong Metro , Fuxin , Fuxin",,42.035091,121.666531,144,67,20,22,17,10,10,5,0,73,2,20141009180000
1129,"Dongyuan , Fuxin , Fuxin",,42.029119,121.681553,95,67,17,33,34,7,10,5,0,73,2,20141009180000
268,"City Monitoring Station, Jinan",,36.662614,117.054645,198,123,28,40,36,22,18,12,1020,59,2,20141009180000
269,"Shandong Institute of Economics, Jinan",,36.63819,117.074975,164,99,46,16,32,18,18,12,1020,59,2,20141009180000
270,"Quancheng Plaza, Jinan",,36.661711,117.027043,185,118,17,43,28,21,18,12,1020,59,2,20141009180000
271,"Kegansuo, Jinan",,36.611582,116.99384,163,93,45,17,23,18,18,12,1020,59,2,20141009180000
272,"Agriculture Science Institute, Jinan",,36.663115,116.95063,240,189,27,51,31,28,18,12,1020,59,2,20141009180000
273,"Lanxiang technical school, Jinan",,36.700421,116.95342,267,210,17,67,37,17,18,12,1020,59,2,20141009180000
274,"Chemical factory, Jinan",,36.687463,116.994406,208,146,167,82,32,16,18,12,1020,59,2,20141009180000
275,"Provincial Seed Warehouse, Jinan",,36.685706,117.066348,195,144,32,67,27,21,18,12,1020,59,2,20141009180000
276,"Shandong Architecture University, Jinan",,36.681732,117.191868,166,84,27,14,37,21,18,12,1020,59,2,20141009180000
277,"Baosheng cable company, Jinan",,36.724638,117.130855,185,126,16,48,29,15,18,12,1020,59,2,20141009180000
278,"Paomaling, Jinan",,36.47869,117.219027,132,61,106,10,20,17,18,12,1020,59,2,20141009180000
279,"Changqing District Communist Party School, Jinan",,36.548797,116.770859,172,96,39,33,23,16,18,12,1020,59,2,20141009180000
280,"BDA, Jinan",,36.685835,117.130851,172,109,39,31,24,27,18,12,1020,59,2,20141009180000
281,Jinan,,36.651426,117.126625,267,335,46,67,39,28,18,12,1020,59,2,20141009180000
282,"Shinan district No. 1, Qingdao",,36.065534,120.40839,65,28,79,18,5,2,14,10,1021,77,2,20141009180000
283,"Shibei district No. 1, Qingdao",,36.069919,120.341264,59,20,67,9,7,6,13,9,1021,77,1,20141009180000
284,"Shibei district No. 2, Qingdao",,36.104146,120.36637,63,37,117,24,4,5,14,10,1021,77,2,20141009180000
285,"Huangdao District No. 1, Qingdao",,35.958935,120.191041,76,55,8,14,12,5,13,9,1021,77,1,20141009180000
286,"Huangdao District No. 2, Qingdao",,35.970487,120.160339,93,53,7,38,9,9,13,9,1021,77,1,20141009180000
287,"Laoshan District No. 1, Qingdao",,36.085881,120.451839,76,19,74,7,13,8,13,9,1021,77,1,20141009180000
288,"Laoshan District No. 2, Qingdao",,36.091075,120.490388,63,14,106,6,9,2,13,9,1021,77,1,20141009180000
289,"Licang District No. 1, Qingdao",,36.184872,120.38533,89,60,29,24,5,12,13,9,1021,77,1,20141009180000
290,"Licang District No. 2, Qingdao",,36.154369,120.432287,127,62,23,35,7,6,13,9,1021,77,1,20141009180000
291,"Chengyang District No. 1, Qingdao",,36.308502,120.40008,159,66,7,41,14,5,13,9,1021,77,1,20141009180000
292,"Chengyang District No. 2, Qingdao",,36.308429,120.465806,80,40,37,12,8,4,13,9,1021,77,1,20141009180000
293,Qingdao,,36.067358,120.387773,93,55,67,9,13,9,13,9,1021,77,1,20141009180000
294,"Zichuan Meteo. Stations, Zibo",,36.637916,117.960222,160,96,69,21,21,15,18,10,0,62,3,20141009180000
295,"Dongfeng Chemical factory, Zibo",,36.838576,118.050785,164,105,10,54,33,17,14,12,0,86,2,20141009180000
296,"Boshan shuangshan, Zibo",,36.497278,117.853581,162,70,13,38,25,17,14,12,0,86,2,20141009180000
297,"Linzi Putian Park, Zibo",,36.820171,118.315022,164,101,17,45,34,20,14,12,0,86,2,20141009180000
298,"Qilu Petrochemical, Zibo",,36.765907,118.254967,157,125,6,27,6,12,14,12,0,86,2,20141009180000
299,"Zhoucun sanjin Group, Zibo",,36.8044,117.85694,177,112,20,39,14,19,14,12,0,86,2,20141009180000
300,"Vocational College, Zibo",,36.825208,117.926305,183,161,10,50,55,21,14,12,0,86,2,20141009180000
301,"BDA, Zibo",,36.905214,118.021824,174,131,8,31,16,18,14,12,0,86,2,20141009180000
302,Zibo,,36.813618,118.060948,189,134,36,54,61,28,14,12,0,86,2,20141009180000
303,"Shizhong District Government, Zaozhuang",,34.850397,117.569545,177,144,32,14,70,9,18,13,1020,67,3,20141009180000
304,"Sewage treatment plant, Zaozhuang",,34.818951,117.595345,193,123,30,29,47,8,18,13,1020,67,3,20141009180000
305,"Xuecheng EPA, Zaozhuang",,34.790214,117.272455,162,62,35,20,36,8,18,13,1020,67,3,20141009180000
306,"Yicheng District government, Zaozhuang",,34.772806,117.57647,95,59,50,9,9,5,18,13,1020,67,3,20141009180000
307,"Taierzhuang EPA, Zaozhuang",,34.579462,117.741067,137,79,26,12,7,10,18,13,1020,67,3,20141009180000
308,"Shanting EPA, Zaozhuang",,35.070373,117.457691,139,60,40,17,14,10,18,13,1020,67,3,20141009180000
309,"City EPA, Zaozhuang",,34.809466,117.320608,177,105,40,11,35,6,18,13,1020,67,3,20141009180000
310,"High-tech zone, Zaozhuang",,34.821779,117.363495,192,99,36,13,28,10,18,13,1020,67,3,20141009180000
311,Zaozhuang,,34.809693,117.329634,192,144,50,20,70,10,18,13,1020,67,3,20141009180000
312,"City EPA, Dongying",,37.432052,118.672871,156,74,49,11,20,13,17,13,0,77,3,20141009180000
313,"Vocational College, Dongying",,37.438653,118.630567,134,79,47,12,19,11,17,13,0,77,3,20141009180000
758,"Electric Power College, Jilin",,43.827403,126.502281,153,74,20,22,3,5,3,2,0,90,1,20141009180000
759,"Jiangnan Park, Jilin",,43.83531,126.556519,142,52,14,15,4,5,3,2,0,90,1,20141009180000
760,"Dongjuzi, Jilin",,43.838597,126.590068,102,55,18,17,3,5,3,2,0,90,1,20141009180000
763,Jilin,,43.840137,126.555262,192,155,37,22,25,6,3,2,0,90,1,20141009180000
764,"Lingbei, Haerbin",,45.756979,126.548008,152,58,20,34,8,9,-1,-1,1027,100,0,20141009180000
765,"Songbei Commercial University, Haerbin",,45.818624,126.566963,154,113,3,18,6,11,-1,-1,1027,100,0,20141009180000
766,"Acheng huining, Haerbin",,45.544286,126.985183,89,36,25,7,3,8,-1,-1,1027,100,0,20141009180000
767,"Nangang College Street, Haerbin",,45.724121,126.604906,162,86,17,22,10,16,-1,-1,1027,100,0,20141009180000
768,"Taiping Hongwei Park, Haerbin",,45.775332,126.695101,224,77,14,24,2,11,-1,-1,1027,100,0,20141009180000
769,"Daowai Chengde Square, Haerbin",,45.768637,126.640955,162,77,-,24,7,12,-1,-1,1027,100,0,20141009180000
770,"Xiangfang Hongqi Street, Haerbin",,45.733936,126.691083,179,111,44,1,97,11,-1,-1,1027,100,0,20141009180000
771,"Dongli Heping Road, Haerbin",,45.727765,126.651974,183,121,14,43,7,6,-1,-1,1027,100,0,20141009180000
772,"Daoli Jianguo Road, Haerbin",,45.749715,126.59891,160,72,19,38,20,12,-1,-1,1027,100,0,20141009180000
773,"Pingfang Light Factory, Haerbin",,45.611951,126.620898,153,50,5,22,2,9,0,0,1026,100,1,20141009180000
774,"Hulan Normal College, Haerbin",,45.983745,126.616553,142,74,24,23,3,6,-1,-1,1027,100,0,20141009180000
775,"Provincial Academy of Agricultural Sciences, Haerbin",,45.686141,126.626517,160,86,13,30,7,4,-1,-1,1027,100,0,20141009180000
776,Haerbin,,45.805757,126.541007,154,113,20,18,8,11,-,-,0,-,-,20141009180000
777,"Anju Compound, Qiqihaer",,47.365672,123.937016,63,18,31,7,2,8,10,1,1026,43,2,20141009180000
778,"Farming Vehicule Factory, Qiqihaer",,47.326793,123.961427,42,13,30,5,1,10,10,1,1026,43,2,20141009180000
779,"Fuqu EPA, Qiqihaer",,47.1853,123.62322,82,26,36,2,24,16,10,1,1026,43,2,20141009180000
780,"City Center Square, Qiqihaer",,47.343096,123.96192,57,20,22,2,13,11,10,1,1026,43,2,20141009180000
1217,"City Environmental Monitoring Station, Qiqihaer",,47.303639,123.957551,57,24,27,1,3,4,10,1,1026,43,2,20141009180000
781,Qiqihaer,,47.356387,123.924736,82,26,36,7,24,16,10,1,1026,43,2,20141009180000
782,"Saertu District, Daqing",,46.582368,125.152904,74,31,29,6,6,2,5,3,1026,80,1,20141009180000
783,"Datong District, Daqing",,46.036786,124.842115,87,36,34,2,5,7,5,3,1026,80,1,20141009180000
784,"Honggang District, Daqing",,46.418381,124.88973,74,27,30,7,5,3,5,3,1026,80,1,20141009180000
785,"Longfeng District, Daqing",,46.535426,125.107043,74,27,34,8,6,5,5,3,1026,80,1,20141009180000
786,"Ranghulu District, Daqing",,46.635123,124.85648,93,31,33,15,7,4,5,3,1026,80,1,20141009180000
787,Daqing,,46.591414,125.110838,93,31,34,15,7,7,5,3,1026,80,1,20141009180000
788,"Locomotive Factory, Mudanjiang",,44.610589,129.652672,112,47,62,10,1,4,2,0,1027,82,4,20141009180000
789,"No. 1 hospital, Mudanjiang",,44.567775,129.617043,78,30,53,9,2,4,2,0,1027,82,4,20141009180000
1220,"EPA building, Mudanjiang",,44.567777,129.620658,97,37,20,5,1,3,2,0,1027,82,4,20141009180000
1221,"Cultural Square, Mudanjiang",,44.586388,129.623164,144,57,9,18,4,6,2,0,1027,82,4,20141009180000
790,Mudanjiang,,44.553619,129.640246,144,57,107,18,13,6,2,0,1027,82,4,20141009180000
791,"Mingzhu Plaza, Hefei",,31.782847,117.201512,154,75,26,38,11,12,15,14,1018,94,3,20141009180000
792,"Sanli Street, Hefei",,31.874637,117.312573,144,57,83,21,7,6,15,14,1018,94,3,20141009180000
793,"Hupo Compound, Hefei",,31.868583,117.264491,137,53,49,6,11,5,15,14,1018,94,3,20141009180000
794,"Dongpu Reservoir, Hefei",,31.90319,117.165584,142,62,101,6,3,5,15,14,1018,94,3,20141009180000
795,"Changjiang middle road, Hefei",,31.855185,117.255484,142,62,9,7,2,9,15,14,1018,94,3,20141009180000
796,"Luyang District, Hefei",,31.941771,117.271504,151,63,4,1,15,6,15,14,1018,94,3,20141009180000
797,"Yaohai District, Hefei",,31.856595,117.341644,155,58,21,5,5,13,15,14,1018,94,3,20141009180000
798,"Baohe District, Hefei",,31.793644,117.307554,157,152,9,11,2,9,15,14,1018,94,3,20141009180000
799,"Lake district, Hefei",,31.736619,117.283501,152,69,18,27,2,7,15,14,1018,94,3,20141009180000
800,"High-tech zone, Hefei",,31.849755,117.129624,144,71,19,10,9,7,15,14,1018,94,3,20141009180000
801,Hefei,,31.819449,117.232753,154,75,26,38,11,12,-,-,0,-,-,20141009180000
802,"Hudong Road No.4 Elementary School, Maanshan",,31.684121,118.511017,137,51,54,16,7,6,16,16,1018,100,3,20141009180000
803,"Tianping Garment Factory, Maanshan",,31.64197,118.488043,144,59,149,16,10,10,16,16,1018,100,3,20141009180000
804,"City education base, Maanshan",,31.711216,118.648913,127,60,40,3,4,3,16,16,1018,100,3,20141009180000
805,"Cihu No.2 elementary school, Maanshan",,31.748546,118.515729,151,58,33,11,8,6,16,16,1018,100,3,20141009180000
806,"Maanshan steel factory power plant, Maanshan",,31.690864,118.48528,154,14,28,8,8,9,16,16,1018,100,3,20141009180000
807,Maanshan,,31.668461,118.511939,154,60,149,16,10,10,16,16,1018,100,3,20141009180000
808,"Science Innovation Center, Wuhu",,31.417056,118.375406,107,38,52,11,9,12,16,16,1018,100,3,20141009180000
809,"No.4 Water Plant, Wuhu",,31.315914,118.376231,107,50,12,12,7,12,16,16,1018,100,3,20141009180000
810,"Monitoring station, Wuhu",,31.348955,118.358154,97,52,29,11,8,9,16,16,1018,100,3,20141009180000
811,"Wuqierling Factory, Wuhu",,31.382068,118.407639,127,62,45,6,4,4,16,16,1018,100,3,20141009180000
812,Wuhu,,31.351007,118.438322,127,62,52,12,9,12,16,16,1018,100,3,20141009180000
813,"Jiangxi Foreign Affairs Office, Nanchang",,28.678027,115.903436,166,96,37,25,36,8,22,16,1015,62,2,20141009180000
420,Shijiazhuang,,38.042926,114.520834,442,362,11,40,14,20,15,15,1021,100,2,20141009180000
314,"Xianhe Oil Production Plant, Dongying",,37.442419,118.510222,153,86,45,16,14,10,17,13,0,77,3,20141009180000
315,"Gengjin village, Dongying",,37.445072,118.55839,152,80,23,48,12,9,17,13,0,77,3,20141009180000
316,"City environmental company, Dongying",,37.466599,118.508012,153,70,37,16,20,11,17,13,0,77,3,20141009180000
317,"Hekou  district, Dongying",,37.883786,118.522171,162,97,106,11,11,10,17,13,0,77,3,20141009180000
318,"BDA, Dongying",,37.435162,118.701827,162,76,49,10,13,14,17,13,0,77,3,20141009180000
319,Dongying,,37.435429,118.680434,162,97,106,48,20,15,17,13,0,77,3,20141009180000
320,"Bearing Factory, Yantai",,37.544126,121.376956,157,64,27,34,8,7,,,0,,,20141009180000
321,"Xijiao Chemical Station, Yantai",,37.547148,121.323695,162,77,33,33,8,9,,,0,,,20141009180000
322,"Fushan Monitoring Stations, Yantai",,37.472245,121.260116,112,52,23,9,2,9,,,0,,,20141009180000
323,"Mouping EPA, Yantai",,37.376681,121.586509,142,68,34,2,6,14,,,0,,,20141009180000
324,"Laishan EPA, Yantai",,37.478422,121.44829,137,56,47,11,6,4,,,0,,,20141009180000
325,"Laishan Shengquan Industrial Park, Yantai",,37.4271,121.408386,152,68,37,20,8,6,,,0,,,20141009180000
326,"China Agricultural University, Yantai",,37.423568,121.511838,109,60,54,17,6,5,,,0,,,20141009180000
327,"BDA EPA, Yantai",,37.560827,121.257954,151,61,15,24,5,9,,,0,,,20141009180000
329,"Dajijia, Yantai",,37.673849,121.071465,149,55,36,12,5,5,,,0,,,20141009180000
330,Yantai,,37.464793,121.453142,162,77,33,33,8,9,18,10,0,57,1,20141009180000
331,"BDA, Weifang",,36.720022,119.054064,171,105,28,27,14,7,,,0,,,20141009180000
332,"Business School, Weifang",,36.682442,119.105909,175,78,26,30,10,4,,,0,,,20141009180000
333,"Hanting District, Weifang",,36.773484,119.199705,157,83,28,22,14,7,,,0,,,20141009180000
334,"Gongda Company, Weifang",,36.657635,119.167266,158,81,27,26,9,4,,,0,,,20141009180000
335,"City EPA, Weifang",,36.701272,119.16838,164,93,18,22,9,5,,,0,,,20141009180000
336,"City Arbitration Committee, Weifang",,36.702422,119.145927,164,92,39,27,12,8,,,0,,,20141009180000
337,"Xinhui Group, Weifang",,36.641581,119.11679,129,68,26,18,7,6,,,0,,,20141009180000
338,"Jincheng Middle School, Weifang",,36.773611,119.115539,151,66,39,20,12,6,,,0,,,20141009180000
339,Weifang,,36.707217,119.167638,175,105,43,30,23,8,17,13,0,77,3,20141009180000
340,"City Monitoring Station, Jining",,35.408443,116.623917,170,108,34,35,20,11,18,14,1020,71,1,20141009180000
1090,"Shengdi Hollidays Resort, Jining",,35.424746,116.699093,167,93,23,64,20,3,18,14,1020,71,1,20141009180000
341,"Sewage treatment plant, Jining",,35.364286,116.609177,177,96,14,41,10,10,18,14,1020,71,1,20141009180000
342,"Electrochemical Factory, Jining",,35.390473,116.552956,158,85,26,21,30,13,18,14,1020,71,1,20141009180000
343,"Rencheng BDA, Jining",,35.390484,116.662995,172,101,17,38,29,10,18,14,1020,71,1,20141009180000
344,"Agricultural School, Jining",,35.44235,116.601682,186,138,20,37,1,10,18,14,1020,71,1,20141009180000
345,"BDA Huojucheng, Jining",,35.436377,116.642953,172,122,20,39,13,11,18,14,1020,71,1,20141009180000
346,Jining,,35.414473,116.59239,172,122,28,60,30,15,18,14,1020,71,1,20141009180000
347,"Taishan monitoring station, Taian",,36.194362,117.159648,158,89,18,26,9,15,14,10,0,77,2,20141009180000
348,"Shandong Electric Power School, Taian",,36.176071,117.12413,168,86,25,28,26,20,14,10,0,77,2,20141009180000
349,"Population Education school, Taian",,36.194417,117.104131,139,74,33,3,9,11,14,10,0,77,2,20141009180000
350,"Houfeng company, Taian",,36.204863,117.19015,161,81,21,8,6,16,14,10,0,77,2,20141009180000
351,"Nongda new campus, Taian",,36.170179,117.165191,171,102,7,41,17,17,14,10,0,77,2,20141009180000
352,"Transportation technical school, Taian",,36.202126,117.047068,158,83,13,34,8,12,14,10,0,77,2,20141009180000
353,"ICT Technology, Taian",,36.116621,117.107458,184,107,14,29,31,16,14,10,0,77,2,20141009180000
354,Taian,,36.200502,117.093682,184,107,33,41,31,20,14,10,0,77,2,20141009180000
355,"City Environmental Monitoring Station, Weihai",,37.513939,122.067058,139,68,36,21,26,6,18,10,0,58,2,20141009180000
356,"Woodworking Factory, Weihai",,37.325455,122.160777,82,38,51,6,7,4,18,10,0,58,2,20141009180000
357,"Lantian Hotel, Weihai",,37.514641,122.146276,114,42,49,15,28,7,18,10,0,58,2,20141009180000
358,"Zhang village government, Weihai",,37.485561,122.049436,153,47,35,15,12,7,18,10,0,58,2,20141009180000
359,"Gao District Bank, Weihai",,37.534919,122.056294,159,66,39,23,14,6,18,10,0,58,2,20141009180000
360,"Huxia technical school, Weihai",,37.427951,122.130811,127,58,36,17,17,5,18,10,0,58,2,20141009180000
361,Weihai,,37.5141,122.125477,159,68,51,23,28,7,18,10,0,58,2,20141009180000
362,"City governement square, Rizhao",,35.4075,119.526008,139,62,22,12,6,4,16,14,1021,82,1,20141009180000
363,"Port Authority, Rizhao",,35.381297,119.55396,104,57,34,22,3,3,16,14,1021,82,1,20141009180000
364,"City Monitoring Station, Rizhao",,35.388683,119.496405,152,65,14,20,5,7,16,14,1021,82,1,20141009180000
365,"Professor Garden, Rizhao",,35.462161,119.574193,109,70,44,6,3,7,16,14,1021,82,1,20141009180000
366,"Vocational and Technical College, Rizhao",,35.441939,119.538187,93,50,43,6,4,3,16,14,1021,82,1,20141009180000
367,"Lanshan EPA branch, Rizhao",,35.293405,119.345716,124,62,37,35,12,4,16,14,1021,82,1,20141009180000
368,"Jinma Industrial Park, Rizhao",,35.373339,119.514108,147,88,24,37,11,4,16,14,1021,82,1,20141009180000
369,Rizhao,,35.416089,119.532316,147,88,44,37,12,7,16,14,1021,82,1,20141009180000
370,"Vegetable oil factory, Laiwu",,36.205028,117.700917,169,70,21,37,17,11,14,12,1022,79,0,20141009180000
371,"Nursing home, Laiwu",,36.266067,117.652769,164,106,22,19,9,16,14,12,1022,79,0,20141009180000
372,"Xinyi middle school, Laiwu",,36.245086,117.739025,153,72,20,14,17,21,14,12,1022,79,0,20141009180000
814,"Provincial forestry company, Nanchang",,28.69065,115.898546,169,79,37,16,13,6,22,16,1015,62,2,20141009180000
815,"Institute of Forestry, Nanchang",,28.731518,115.82478,166,78,46,8,13,10,22,16,1015,62,2,20141009180000
816,"Jingdong town government, Nanchang",,28.680659,115.972736,175,80,50,11,10,6,22,16,1015,62,2,20141009180000
817,"Contruction Industry College, Nanchang",,28.684018,115.865891,152,68,41,13,12,10,22,16,1015,62,2,20141009180000
818,"Xianghu, Nanchang",,28.637831,115.9033,164,93,60,22,39,8,22,16,1015,62,2,20141009180000
819,"Martial Arts School, Nanchang",,28.794538,115.752876,104,46,26,7,5,6,22,16,1015,62,2,20141009180000
820,"Petrifaction Company, Nanchang",,28.608634,115.912999,161,96,48,17,13,8,22,16,1015,62,2,20141009180000
821,"Provincial Station, Nanchang",,28.677155,115.941896,182,95,47,13,14,6,22,16,1015,62,2,20141009180000
822,Nanchang,,28.679883,115.863022,182,96,48,25,36,10,22,16,1015,62,2,20141009180000
823,"Lushan Mountain Observatory, Jiujiang",,29.5751,115.998926,65,30,92,1,2,6,13,12,1017,92,9,20141009180000
824,"Shili, Jiujiang",,29.668119,115.992381,153,61,48,7,20,6,13,12,1017,92,9,20141009180000
825,"Maoshantou, Jiujiang",,29.700819,115.967192,119,62,44,8,12,5,13,12,1017,92,9,20141009180000
826,"Xiyuan, Jiujiang",,29.723929,115.998206,114,64,34,11,12,6,13,12,1017,92,9,20141009180000
827,"Wuqierling Factory, Jiujiang",,29.640802,116.022713,119,72,71,10,21,6,13,12,1017,92,9,20141009180000
828,"Water Scientific Research Institute, Jiujiang",,29.679179,116.068081,127,65,43,8,16,7,13,12,1017,92,9,20141009180000
829,"Zonghe Industrial Park, Jiujiang",,29.592047,115.916335,129,63,70,8,18,4,13,12,1017,92,9,20141009180000
830,"Petrochemical General Plant, Jiujiang",,29.738832,116.09463,114,60,41,11,10,3,13,12,1017,92,9,20141009180000
831,Jiujiang,,29.70254,116.007025,153,72,92,11,21,7,13,12,1017,92,9,20141009180000
1332,"Feiyu, Xinyu",,27.844697,115.000136,137,67,37,15,52,,24,,1016,50,3,20141009180000
1333,"Beigang, Xinyu",,27.932491,115.103767,132,64,38,12,39,,24,,1016,50,3,20141009180000
1334,"No.2 water factory, Xinyu",,27.839577,114.933915,137,70,18,21,33,,24,,1016,50,3,20141009180000
1335,"Bureau of Meteorology, Xinyu",,27.81048,114.936507,107,76,31,15,41,,24,,1016,50,3,20141009180000
1336,Xinyu,,27.814351,114.922194,137,76,38,21,52,10,24,16,1016,50,3,20141009180000
832,"Tobacco Factory, Zhengzhou",,34.753419,113.687131,199,110,24,21,7,18,17,14,1019,82,2,20141009180000
833,"Textile Machinery Factory, Zhengzhou",,34.773366,113.647067,239,143,20,30,8,29,17,14,1019,82,2,20141009180000
834,"Banking College, Zhengzhou",,34.800856,113.681126,222,133,16,44,14,15,17,14,1019,82,2,20141009180000
835,"Water Supply Company, Zhengzhou",,34.807188,113.571089,188,118,24,53,14,11,17,14,1019,82,2,20141009180000
836,"Economic Development Zone Management Committee, Zhengzhou",,34.717652,113.733182,183,113,11,49,22,13,17,14,1019,82,2,20141009180000
837,"No. 47 middle school, Zhengzhou",,34.772211,113.74009,203,124,22,28,8,7,17,14,1019,82,2,20141009180000
838,"City Monitoring Station, Zhengzhou",,34.748404,113.60514,199,130,11,31,6,18,17,14,1019,82,2,20141009180000
839,"Henan Medical University, Zhengzhou",,34.752637,113.641658,-,-,-,-,-,-,-,-,0,-,-,20141009180000
840,"Gangli Reservoir, Zhengzhou",,34.952652,113.64248,191,104,10,14,14,12,17,14,1019,82,2,20141009180000
841,Zhengzhou,,34.745417,113.631415,199,130,11,31,6,18,-,-,0,-,-,20141009180000
842,"Henan University No.1 Hospital, Kaifeng",,34.799302,114.352706,169,95,10,37,8,10,17,14,1019,82,2,20141009180000
843,"Maternity And Child Hospital, Kaifeng",,34.795803,114.386103,167,93,17,23,6,10,17,14,1019,82,2,20141009180000
844,"Cancer Hospital, Kaifeng",,34.775428,114.350292,163,95,11,8,15,10,17,14,1019,82,2,20141009180000
845,"Yellow River Conservancy Institute, Kaifeng",,34.826066,114.324772,206,104,43,9,25,10,17,14,1019,82,2,20141009180000
846,"Shijixing Kindergarden, Kaifeng",,34.793606,114.302744,172,95,12,20,28,23,17,14,1019,82,2,20141009180000
847,Kaifeng,,34.796346,114.313426,172,95,12,37,28,23,17,14,1019,82,2,20141009180000
852,Jiaozuo,,35.215381,113.248188,189,115,46,28,29,16,17,14,1019,82,2,20141009180000
853,"Cotton Research Institute, Anyang",,36.081435,114.486451,155,72,14,49,11,9,19,13,1019,59,3,20141009180000
854,"Hongmiao Street, Anyang",,36.086733,114.326,156,110,26,20,9,14,19,13,1019,59,3,20141009180000
855,"Yinxing Compound, Anyang",,36.056519,114.36495,182,95,23,22,5,12,19,13,1019,59,3,20141009180000
856,"Tiefo Temple, Anyang",,36.110041,114.309309,182,98,16,20,28,14,19,13,1019,59,3,20141009180000
857,Anyang,,36.097767,114.398846,182,110,34,49,28,14,19,13,1019,59,3,20141009180000
858,"City Monitoring Station, Luoyang",,34.669055,112.439633,156,74,9,27,13,4,21,,1019,66,3,20141009180000
859,"BDA Management Committee, Luoyang",,34.622084,112.390759,147,61,4,12,22,7,21,,1019,66,3,20141009180000
860,"New municipal office, Luoyang",,34.623745,112.432973,155,60,23,32,12,20,21,,1019,66,3,20141009180000
861,"City committee communist party school, Luoyang",,34.650169,112.400212,152,77,16,42,32,6,21,,1019,66,3,20141009180000
862,"Henan Forestry College, Luoyang",,34.685566,112.509429,153,71,12,17,17,10,21,,1019,66,3,20141009180000
863,"CITIC No.2 Elementary School, Luoyang",,34.668212,112.36907,152,80,10,24,7,9,21,,1019,66,3,20141009180000
864,"Yuxi Hotel, Luoyang",,34.685949,112.472611,153,107,11,20,13,14,21,,1019,66,3,20141009180000
865,Luoyang,,34.617424,112.46054,156,107,23,42,32,20,21,11,1019,66,3,20141009180000
866,"City Planning Design Institute, Pingdingshan",,33.7352,113.297916,218,135,32,49,35,13,17,14,1019,82,2,20141009180000
867,"Xinhua Hotel, Pingdingshan",,33.737754,113.328814,197,129,32,41,33,12,17,14,1019,82,2,20141009180000
868,"Engineering College, Pingdingshan",,33.772474,113.188235,195,123,36,32,24,10,17,14,1019,82,2,20141009180000
373,"Risheng International School, Laiwu",,36.208125,117.730959,170,76,13,17,19,10,14,12,1022,79,0,20141009180000
374,"Gangcheng EPA, Laiwu",,36.066836,117.871823,159,76,7,28,9,20,14,12,1022,79,0,20141009180000
375,"City EPA, Laiwu",,36.228913,117.694797,165,76,16,21,17,20,14,12,1022,79,0,20141009180000
376,Laiwu,,36.213688,117.682612,170,106,22,37,19,21,-,-,0,-,-,20141009180000
377,"Lunan Pharmaceutical Factory, Linyi",,35.061671,118.299527,151,85,21,34,14,5,14,13,0,93,2,20141009180000
378,"Yihe compound, Linyi",,35.056752,118.34739,132,115,19,38,13,8,14,13,0,93,2,20141009180000
379,"Linyi University, Linyi",,35.114777,118.293414,170,114,10,32,9,12,14,13,0,93,2,20141009180000
380,City EPA,Nanfang,35.104871,118.353518,134,96,22,31,25,9,14,13,0,93,2,20141009180000
381,"Xinguang woolen factory, Linyi",,34.981004,118.282,152,93,10,26,12,10,14,13,0,93,2,20141009180000
382,"Hongfu Baijiu Factory, Linyi",,34.998788,118.257275,156,103,10,33,7,11,14,13,0,93,2,20141009180000
384,"Hedong insurance company, Linyi",,35.089354,118.40812,149,90,15,42,19,8,14,13,0,93,2,20141009180000
385,"Jianghua vehicule center, Linyi",,35.010082,118.435749,171,93,19,28,10,6,14,13,0,93,2,20141009180000
386,Linyi,,35.10428,118.362202,171,115,10,42,25,10,14,13,0,93,2,20141009180000
387,"Heima group, Dezhou",,37.466063,116.314134,199,129,20,26,41,22,18,14,1020,71,0,20141009180000
388,"Monitoring station, Dezhou",,37.433107,116.377312,263,156,9,51,28,18,18,14,1020,71,0,20141009180000
389,"Supervision Station, Dezhou",,37.449689,116.324709,200,128,31,24,47,17,18,14,1020,71,0,20141009180000
390,"Huayu technical school, Dezhou",,37.462809,116.357559,221,134,16,70,42,15,18,14,1020,71,0,20141009180000
391,"Shuangyi group, Dezhou",,37.478848,116.316362,245,142,18,48,24,16,18,14,1020,71,0,20141009180000
392,Dezhou,,37.434959,116.363366,263,156,31,46,47,26,18,14,1020,71,0,20141009180000
393,"Dongchang District Government, Liaocheng",,36.444473,115.971733,242,162,4,43,21,35,18,14,1019,72,0,20141009180000
394,"Light Machinery Factory No. 2, Liaocheng",,36.456788,116.002383,260,240,10,49,16,26,18,14,1019,72,0,20141009180000
395,"City committee communist party school, Liaocheng",,36.479537,115.989288,340,340,8,49,22,25,18,14,1019,72,0,20141009180000
396,"Customs, Liaocheng",,36.431933,115.956974,252,235,6,48,10,30,18,14,1019,72,0,20141009180000
397,"Hongshun Garden, Liaocheng",,36.471124,115.960319,316,370,5,71,19,34,18,14,1019,72,0,20141009180000
398,"BDA, Liaocheng",,36.459407,116.043621,440,332,13,44,36,26,18,14,1019,72,0,20141009180000
399,Liaocheng,,36.456792,115.991051,340,370,8,71,22,35,18,14,1019,72,0,20141009180000
400,"City EPA, Binzhou",,37.38024,118.026895,173,82,26,22,42,14,17,13,1020,70,2,20141009180000
401,"Beizhong new school, Binzhou",,37.38374,117.988996,183,102,11,32,38,20,15,10,1020,75,2,20141009180000
402,"No.2 water factory, Binzhou",,37.36155,118.002648,184,118,10,30,16,19,15,10,1020,75,2,20141009180000
403,"Keling Chemical factory, Binzhou",,37.396138,117.943609,174,83,16,22,10,17,15,10,1020,75,2,20141009180000
404,"Yinhe logistics company, Binzhou",,37.356122,117.943326,184,107,17,38,21,18,15,10,1020,75,2,20141009180000
405,"Bilin compond, Binzhou",,37.36815,117.978964,176,107,22,26,28,15,15,10,1020,75,2,20141009180000
406,Binzhou,,37.382639,117.976606,184,118,17,38,38,20,17,13,1020,75,2,20141009180000
407,"Bureau of Meteorology, Heze",,35.248625,115.428775,190,112,14,24,21,13,15,12,0,82,2,20141009180000
408,"Sewage treatment plant, Heze",,35.222517,115.531511,197,110,12,28,13,10,15,12,0,82,2,20141009180000
409,"Municipal CPPCC, Heze",,35.237125,115.480591,191,101,25,37,38,14,15,12,0,82,2,20141009180000
410,"Huarun Pharmaceutical Company, Heze",,35.261463,115.524873,188,117,13,38,15,7,15,12,0,82,2,20141009180000
411,"Heze University, Heze",,35.269706,115.460934,197,109,31,50,27,13,15,12,0,82,2,20141009180000
412,Heze,,35.233354,115.486503,197,117,32,50,38,14,15,12,0,82,2,20141009180000
413,"Shiji Park, Shijiazhuang",,38.03155,114.547873,408,289,31,32,4,18,15,15,1021,100,2,20141009180000
414,"Xinan College, Shijiazhuang",,38.012764,114.473163,380,320,4,21,14,18,15,15,1021,100,2,20141009180000
415,"Chemical College, Shijiazhuang",,38.055503,114.569816,442,352,3,32,5,16,15,15,1021,100,2,20141009180000
416,"Worker hospital, Shijiazhuang",,38.051784,114.461209,399,349,8,29,4,18,15,15,1021,100,2,20141009180000
417,"Northwest Water Company, Shijiazhuang",,38.140638,114.508038,424,446,19,51,8,16,15,15,1021,100,2,20141009180000
418,"High-tech zone, Shijiazhuang",,38.040482,114.610775,431,362,6,32,7,20,15,15,1021,100,2,20141009180000
419,"Fenglong Montain, Shijiazhuang",,37.910829,114.360264,361,486,101,23,50,24,15,15,1021,100,2,20141009180000
1130,"Zhengding Unicom, Shijiazhuang",,38.159458,114.59879,542,579,16,46,14,31,15,15,1021,100,2,20141009180000
1131,"Luancheng Communications, Shijiazhuang",,37.906534,114.638785,524,706,21,70,27,31,15,15,1021,100,2,20141009180000
1132,"Gaocheng Experimental School, Shijiazhuang",,38.039518,114.867812,421,520,18,36,52,27,15,15,1021,100,2,20141009180000
1133,"Wuji EPA, Shijiazhuang",,38.17862,114.997012,532,522,26,48,24,25,15,15,1021,100,2,20141009180000
1134,"Shenze Power Supply Bureau, Shijiazhuang",,38.197674,115.219126,536,534,18,48,9,20,15,15,1021,100,2,20141009180000
1135,"Zhaoxian EPA, Shijiazhuang",,37.77171,114.775957,542,490,20,91,19,25,15,15,1021,100,2,20141009180000
1136,"Gaoyi County City Hall, Shijiazhuang",,37.623535,114.612729,626,826,21,55,36,26,15,15,1021,100,2,20141009180000
1137,"Zanhuang County City Hall, Shijiazhuang",,37.672898,114.398269,613,688,16,37,8,22,15,15,1021,100,2,20141009180000
1138,"Jingxing Bureau of Meteorology, Shijiazhuang",,38.038788,114.158406,547,605,32,51,20,28,15,15,1021,100,2,20141009180000
1139,"Pingshan Ye River, Shijiazhuang",,38.266657,114.210275,450,517,20,42,7,18,15,15,1021,100,2,20141009180000
869,"High Voltage Switchgear Factory, Pingdingshan",,33.719941,113.312665,223,175,21,44,61,14,17,14,1019,82,2,20141009180000
870,Pingdingshan,,33.764754,113.199082,223,175,36,49,61,14,17,14,1019,82,2,20141009180000
1303,"City Monitoring Station, Hebi",,35.748411,114.313927,159,102,15,12,5,6,17,,1026,86,1,20141009180000
1304,"BDA, Xinxiang",,35.281373,113.908605,193,109,19,29,13,8,10,,977,88,1,20141009180000
1305,"Environment protection office, Puyang",,35.851321,115.512901,159,69,15,21,24,17,15,,1030,81,1,20141009180000
1306,"BDA, Xuchang",,33.998574,113.802968,183,149,27,32,5,14,17,,1019,82,2,20141009180000
1307,"Monitoring station, Xuchang",,34.011362,113.838373,163,166,22,19,9,12,17,,1019,82,2,20141009180000
1308,"Environment protection office, Xuchang",,34.032831,113.827116,161,161,15,22,3,20,17,,1019,82,2,20141009180000
939,Sanya,,18.251142,109.515993,156,89,55,15,3,9,24,21,1010,83,2,20141009180000
1309,"Environment protection office, Nanyang",,32.532094,112.371764,185,111,44,11,15,11,13,,1019,100,2,20141009180000
1310,"Weather Monitoring Station, Nanyang",,32.988834,112.534165,200,147,154,1,25,7,13,,1014,99,3,20141009180000
1311,"Environmental Monitoring Station, Shangqiu",,34.412805,115.661879,187,109,15,33,7,9,14,,1029,93,3,20141009180000
1312,"City Environmental Monitoring Station, Zhoukou",,33.609533,114.672682,363,364,42,6,10,26,13,,1027,93,2,20141009180000
1313,"Sewage treatment plant, Jiyuan",,35.066374,112.607855,163,103,13,20,16,17,10,,1019,89,2,20141009180000
1314," Lankao EPB Station, Lankao county",,34.821216,114.826903,192,107,30,22,14,8,17,-,1019,82,2,20141009180000
1315,Hebi,,35.747156,114.303202,164,116,15,27,5,7,17,13,1026,86,1,20141009180000
1316,Xinxiang,,35.302343,113.93288,193,128,19,45,13,12,10,-,977,88,1,20141009180000
1317,Puyang,,35.761825,115.035106,188,95,14,26,21,18,16,12,1028,90,2,20141009180000
1318,Xuchang,,34.033947,113.858511,183,166,27,32,9,20,17,14,1019,82,2,20141009180000
1319,Zhoukou,,33.624592,114.702425,460,432,43,46,35,33,13,14,1027,93,2,20141009180000
871,"Economic Development Zone EPA, Changsha",,28.239029,113.087873,162,62,183,28,7,6,17,14,1015,82,2,20141009180000
872,"High-tech Zone EPA, Changsha",,28.216766,112.893403,172,85,108,44,32,6,17,14,1015,82,2,20141009180000
873,"Mapoling, Changsha",,28.197926,113.083865,165,85,110,61,9,13,17,14,1015,82,2,20141009180000
874,"Hunan Normal University, Changsha",,28.186202,112.949459,165,73,113,12,15,6,17,14,1015,82,2,20141009180000
875,"Yuqua District EPB, Changsha",,28.139661,113.008649,172,109,46,31,9,6,17,14,1015,82,2,20141009180000
876,"Wujialing, Changsha",,28.256286,112.98457,172,159,28,34,9,11,17,14,1015,82,2,20141009180000
877,"New train station, Changsha",,28.191052,113.006646,171,111,129,73,14,7,17,14,1015,82,2,20141009180000
878,"Tianxin District EPB, Changsha",,28.114406,112.989577,170,87,21,72,15,6,17,14,1015,82,2,20141009180000
879,"Hunan University of Traditional Chinese Medicine, Changsha",,28.127269,112.896395,185,87,78,37,22,23,17,14,1015,82,2,20141009180000
880,"Shaping, Changsha",,28.355246,113.00164,162,71,36,10,11,12,17,14,1015,82,2,20141009180000
881,Changsha,,28.224701,112.944264,172,159,28,34,9,11,-,-,0,-,-,20141009180000
883,"City Monitoring Station, Xiangtan",,27.854149,112.901062,166,96,116,28,23,6,17,14,1015,82,2,20141009180000
884,"HKUST, Xiangtan",,27.908165,112.912881,168,85,136,36,16,7,17,14,1015,82,2,20141009180000
885,Xiangtan,,27.826289,112.949479,178,129,201,58,29,10,17,14,1015,82,2,20141009180000
886,"Zhuye Hospital, Zhuzhou",,27.883542,113.101131,162,76,174,37,10,7,17,14,1015,82,2,20141009180000
887,"No.4 middle school, Zhuzhou",,27.794671,113.195938,169,92,123,29,13,8,17,14,1015,82,2,20141009180000
888,"Railway station, Zhuzhou",,27.8349,113.149149,181,104,170,36,20,9,17,14,1015,82,2,20141009180000
889,"City Monitoring Station, Zhuzhou",,27.849638,113.135836,162,63,38,33,25,9,17,14,1015,82,2,20141009180000
890,"Dajing, Zhuzhou",,27.830311,113.25706,153,56,133,8,4,5,17,14,1015,82,2,20141009180000
891,Zhuzhou,,27.824409,113.139832,181,104,174,37,25,9,17,14,1015,82,2,20141009180000
896,Yueyang,,29.354548,113.134922,171,121,47,31,23,18,23,14,1015,46,3,20141009180000
897,"Dingcheng District EPB, Changde",,29.014303,111.691833,182,114,36,10,19,23,20,12,1016,49,4,20141009180000
898,"Baihe Hill, Changde",,29.072606,111.735659,168,69,18,6,1,6,20,12,1016,49,4,20141009180000
899,"Municipal Technical Supervision Bureau, Changde",,29.038038,111.6736,-,-,-,-,-,-,-,-,0,-,-,20141009180000
900,"No.2 middle school, Changde",,28.96732,111.707138,199,122,14,19,28,30,20,12,1016,49,4,20141009180000
901,Changde,,29.028648,111.704107,199,122,36,19,28,30,20,12,1016,49,4,20141009180000
902,"Yuanjiajie, Zhangjiajie",,29.297387,110.421733,160,84,150,4,3,14,-,-,0,-,-,20141009180000
903,"Power Administration Bureau, Zhangjiajie",,29.126345,110.47192,188,95,125,8,5,10,-,-,0,-,-,20141009180000
906,Zhangjiajie,,29.114231,110.484134,188,95,150,8,5,14,20,12,0,49,4,20141009180000
907,"Zhenning Garden, Nanning",,22.784688,108.304953,173,95,31,38,8,10,20,17,1012,83,1,20141009180000
908,"City Monitoring Station, Nanning",,22.819736,108.32499,172,115,22,46,21,10,20,17,1012,83,1,20141009180000
909,"Daziran Garden, Nanning",,22.802327,108.387089,163,74,38,14,15,10,20,17,1012,83,1,20141009180000
910,"Xianhu, Nanning",,22.7879,108.443064,170,99,18,38,16,11,20,17,1012,83,1,20141009180000
911,"District Agricultural Vocational College, Nanning",,22.843566,108.24292,169,91,29,22,10,8,20,17,1012,83,1,20141009180000
912,"Yinghua jiayuan, Nanning",,22.732221,108.331999,164,97,26,37,9,9,20,17,1012,83,1,20141009180000
913,"Shajing town street committee, Nanning",,22.780442,108.247914,177,115,19,28,6,10,20,17,1012,83,1,20141009180000
1337,"Yongning District Government, Nanning",,22.755549,108.491317,173,80,26,28,6,9,20,17,1012,83,1,20141009180000
421,"No. 12 middle school, Tangshan",,39.659306,118.190271,298,262,31,54,27,11,-,-,0,-,-,20141009180000
422,"Ceramics Company, Tangshan",,39.669255,118.225185,284,183,30,47,41,14,16,13,1021,82,3,20141009180000
423,"Commodities Bureau, Tangshan",,39.642301,118.191265,285,197,18,31,20,11,16,13,1021,82,3,20141009180000
424,"Leidazhanzi Station, Tangshan",,39.644375,118.150383,319,192,21,29,21,29,16,13,1021,82,3,20141009180000
425,"Supply and marketing cooperatives, Tangshan",,39.632334,118.17232,312,185,29,17,29,11,16,13,1021,82,3,20141009180000
1140,"Guye District City Hall, Tangshan",,39.741379,118.460246,239,263,19,68,43,25,16,14,1021,88,2,20141009180000
1141,"Kaiping Stations, Tangshan",,39.675246,118.275149,408,441,26,79,30,16,16,14,1021,88,2,20141009180000
1142,"Fengnan District City Hall, Tangshan",,39.5834,118.097454,269,173,46,42,32,21,16,14,1021,88,2,20141009180000
1143,"Fengrun City Hall, Tangshan",,39.840355,118.175338,360,477,23,42,20,23,16,14,1021,88,2,20141009180000
1144,"Qianxi EPA, Tangshan",,40.153339,118.317265,261,171,22,46,9,26,16,14,1021,88,2,20141009180000
1145,"Caofeidian Xinli  Primary School, Tangshan",,39.291232,118.462182,242,166,54,43,60,11,16,14,1021,88,2,20141009180000
1146,"Zunhua EPA, Tangshan",,40.206249,117.997315,303,185,30,36,23,19,16,14,1021,88,2,20141009180000
1147,"Qianan No.1 middle school, Tangshan",,40.004248,118.717055,410,299,16,51,17,25,16,14,1021,88,2,20141009180000
1266,"Luannan County , Tangshan",,39.511132,118.686928,278,185,48,47,12,16,16,14,1021,88,2,20141009180000
1267,"Yutian County , Tangshan",,39.908249,117.751417,374,370,16,71,31,22,16,14,1021,88,2,20141009180000
426,Tangshan,,39.632175,118.186472,338,223,40,47,41,29,-,-,0,-,-,20141009180000
427,"City Monitoring Station, Qinhuangdao",,39.958109,119.607773,298,172,23,70,14,31,,,0,,,20141009180000
428,"Beidaihe, Qinhuangdao",,39.829209,119.53194,292,152,27,34,47,14,,,0,,,20141009180000
429,"Shanhai Pass, Qinhuangdao",,40.019298,119.767898,154,146,28,25,10,12,,,0,,,20141009180000
430,"Contruction Plazz, Qinhuangdao",,39.943187,119.542912,229,185,26,69,19,23,,,0,,,20141009180000
431,"City government, Qinhuangdao",,39.93711,119.612769,230,144,3,21,14,17,,,0,,,20141009180000
1148,"Qinglong EPA, Qinhuangdao",,40.419223,118.958002,208,113,27,13,52,26,16,14,0,88,2,20141009180000
1149,"Changli EPA, Qinhuangdao",,39.714369,119.173237,291,203,53,28,40,12,,,0,,,20141009180000
1268,"Lulong County Bureau of Meteorology , Qinhuangdao",,39.901091,118.904857,373,242,42,22,17,22,16,14,0,88,2,20141009180000
432,Qinhuangdao,,39.936485,119.606263,230,144,3,21,14,17,-,-,0,-,-,20141009180000
433,"CongTai Park, Handan",,36.620197,114.501891,336,114,39,15,9,9,22,17,0,70,0,20141009180000
434,"City EPA, Handan",,36.618145,114.518822,386,206,23,39,15,10,16,15,0,94,0,20141009180000
435,"East Sewage Factory, Handan",,36.616064,114.548714,354,415,15,17,7,9,16,15,0,94,0,20141009180000
436,"Mine Hospital, Handan",,36.578149,114.509854,349,236,10,36,6,12,16,15,0,94,0,20141009180000
1150,"Fengfeng mine Inland Revenue Department, Handan",,36.423085,114.245994,212,137,38,27,29,1,19,13,0,59,3,20141009180000
1151,"Shexian EPA, Handan",,36.589084,113.692341,353,219,37,47,11,32,,,0,,,20141009180000
1152,"Ci County Vocational Education Center, Handan",,36.380247,114.390119,224,118,37,45,5,12,,,0,,,20141009180000
1153,"Yongnian government guesthouse, Handan",,36.783297,114.502905,285,273,36,40,25,8,16,15,0,94,0,20141009180000
1154,"Wuan BDA, Handan",,36.686223,114.269009,388,166,15,66,18,19,,,0,,,20141009180000
1085,Handan,,36.625683,114.544812,386,415,23,17,15,12,16,15,0,94,0,20141009180000
437,"Road and Bridge Corporation, Xingtai",,37.096415,114.538799,571,650,3,51,15,27,16,15,1021,94,0,20141009180000
438,"Dahuo fontain, Xingtai",,37.097563,114.488001,499,461,3,32,7,25,16,15,1021,94,0,20141009180000
439,"Xingtai Normal College, Xingtai",,37.053404,114.531819,554,751,26,64,24,21,16,15,1021,94,0,20141009180000
440,"Environment protection office, Xingtai",,37.06253,114.490985,574,716,18,17,18,28,16,15,1021,94,0,20141009180000
1155,"Cultural centers within the mound, Xingtai",,37.293569,114.524873,539,619,23,17,34,33,16,15,1021,94,0,20141009180000
383,Xingtai,,37.071066,114.510749,574,716,18,51,18,28,16,15,1021,94,0,20141009180000
441,"City Monitoring Station, Baoding",,38.871737,115.527103,398,411,35,31,20,14,17,15,1020,81,0,20141009180000
442,"Surface water Company, Baoding",,38.842891,115.467326,468,466,24,39,7,16,17,15,1020,81,0,20141009180000
443,"Huadian II, Baoding",,38.896748,115.528102,456,499,43,11,49,13,17,15,1020,81,0,20141009180000
444,"Reception Center, Baoding",,38.911905,115.477301,462,465,13,26,6,8,17,15,1020,81,0,20141009180000
445,"Film Factory, Baoding",,38.876949,115.448383,448,506,25,24,10,28,17,15,1020,81,0,20141009180000
446,"Natatorium, Baoding",,38.863815,115.499212,279,471,33,22,32,24,17,15,1020,81,0,20141009180000
1156,"Qingyuan City Hall, Baoding",,38.771758,115.502189,495,441,24,30,12,19,17,15,1020,81,0,20141009180000
1157,"Xushui EPA, Baoding",,39.025781,115.668023,487,581,13,56,59,18,17,15,1020,81,0,20141009180000
1158,"Zhouzhou Monitoring Stations, Baoding",,39.493241,116.040187,417,424,23,55,10,19,17,15,1020,81,0,20141009180000
1159,"Gaobeidian EPA, Baoding",,39.3329,115.885891,417,414,2,32,15,16,17,15,1020,81,0,20141009180000
447,Baoding,,38.874791,115.471124,468,506,43,39,32,28,17,15,1020,81,0,20141009180000
448,"Century Compound, Zhangjiakou",,40.770279,114.909106,109,59,31,32,6,11,11,10,1021,84,1,20141009180000
449,"North Pumping Station, Zhangjiakou",,40.874362,114.910119,183,84,10,17,2,15,11,10,1021,84,1,20141009180000
450,"Hardware Warehouse, Zhangjiakou",,40.81232,114.887119,114,76,30,37,14,24,11,10,1021,84,1,20141009180000
451,"Tanji Chang, Zhangjiakou",,40.796301,114.89811,157,22,19,17,19,14,11,10,1021,84,1,20141009180000
914,Nanning,,22.814552,108.3702,172,115,38,46,21,10,-,-,0,-,-,20141009180000
915,"Haitan Park, Beihai",,21.401746,109.157592,165,88,110,18,5,14,24,18,1011,60,1,20141009180000
916,"Beihai Industrial Park, Beihai",,21.422809,109.182003,167,91,54,21,5,10,24,18,1011,60,1,20141009180000
917,"New EPA, Beihai",,21.463737,109.102346,158,76,99,7,13,8,24,18,1011,60,1,20141009180000
918,Beihai,,21.478867,109.12422,167,91,110,21,13,14,24,18,1011,60,1,20141009180000
919,"Hexi water supply company, Liuzhou",,24.343135,109.389038,180,107,48,17,18,11,25,15,1011,47,1,20141009180000
920,"EPA Station, Liuzhou",,24.323702,109.414608,220,163,26,22,51,13,25,15,1011,47,1,20141009180000
921,"No.4 middle school, Liuzhou",,24.197352,109.424598,230,153,25,49,26,17,25,15,1011,47,1,20141009180000
922,"No.9 middle school, Liuzhou",,24.381729,109.381808,277,169,28,36,77,15,25,15,1011,47,1,20141009180000
923,"Liudong Primary School, Liuzhou",,24.386925,109.492755,169,84,121,6,20,5,25,15,1011,47,1,20141009180000
924,"Guting Hill, Liuzhou",,24.313015,109.488374,173,78,28,43,11,9,25,15,1011,47,1,20141009180000
925,Liuzhou,,24.322813,109.42056,277,169,121,49,77,17,25,15,1011,47,1,20141009180000
926,"Monitoring station, Guilin",,25.254137,110.246546,174,82,93,12,38,7,17,15,1014,88,1,20141009180000
927,"Longyin Primary School, Guilin",,25.248029,110.313509,169,82,117,6,20,10,17,15,1014,88,1,20141009180000
928,"No.8 middle school, Guilin",,25.232915,110.262547,170,81,57,9,16,13,17,15,1014,88,1,20141009180000
929,"UESTC Yaoshan Campus, Guilin",,25.265319,110.394778,161,64,84,4,16,11,17,15,1014,88,1,20141009180000
930,Guilin,,25.270731,110.29478,174,82,117,12,38,13,17,15,1014,88,1,20141009180000
931,"Zhongzhai Port, Haikou",,19.948477,110.579698,161,76,50,8,2,6,20,19,1010,94,0,20141009180000
932,"Hainan University, Haikou",,20.057457,110.323305,162,66,58,5,6,7,20,19,1010,94,0,20141009180000
933,"Xiuying Hainan Hospital, Haikou",,20.003195,110.287446,181,83,23,26,2,9,20,19,1010,94,0,20141009180000
934,"Hainan Normal University, Haikou",,19.994924,110.341933,168,85,39,7,5,8,19,18,1010,94,0,20141009180000
935,"Longhua road EPA dormitory, Haikou",,20.033598,110.334619,159,71,106,16,8,7,20,19,1010,94,0,20141009180000
936,Haikou,,20.028742,110.333225,181,85,106,26,6,9,19,18,1010,94,0,20141009180000
1227,Dongfang,,19.093504,108.655392,163,85,108,17,34,7,25,21,1011,69,2,20141009180000
1228,Wuzhishan,,18.773351,109.52102,157,65,40,2,2,11,24,21,1010,83,2,20141009180000
1229,Danzhou,,19.51916,109.584821,164,81,103,11,6,11,19,18,1010,94,0,20141009180000
1230,Qionghai,,19.256756,110.478998,149,93,99,9,1,12,19,18,1010,94,0,20141009180000
1231,Ledongxian,,18.740902,109.182189,109,59,62,4,2,24,24,21,1010,83,2,20141009180000
1232,"Shitouyuan middle school, Wenchang",,19.638929,110.787151,161,63,50,9,3,6,20,19,1010,94,0,20141009180000
1233,"City Mine station dormitory building , Wenchang",,19.61896,110.752145,161,63,50,9,3,6,20,19,1010,94,0,20141009180000
1234,"City Land Resources Bureau office environment , Wenchang",,19.54895,110.806432,112,63,99,9,1,12,19,18,1010,94,0,20141009180000
1236,"City Water Company sub-station , Wanning",,18.789205,110.361262,-,107,-,2,7,-,-,-,0,-,-,20141009180000
1237,"Middle school, Wanning",,18.796743,110.397712,-,82,-,1,2,-,-,-,0,-,-,20141009180000
1238,"Environmental resources monitoring unit, Dinganxian",,19.691001,110.328237,175,90,27,12,4,16,19,18,1010,94,0,20141009180000
1239,"Environmental resources monitoring unit, Tunchangxian",,19.348948,110.103002,149,75,94,1,4,9,19,18,1010,94,0,20141009180000
1240,"Land Environment and Resources Bureau, Chengmaixian",,19.758086,110.010247,175,76,27,4,1,16,20,19,1010,94,0,20141009180000
1241,"Commission compound Archives , Lingaoxian",,19.909939,109.6947,-,87,-,9,2,-,-,-,0,-,-,20141009180000
1242,"Commission for Discipline Building Station, Lingshuixian",,18.506809,110.039993,,50,,8,3,,,,,,,20141009180000
1243,"Land Environment and Resources Bureau, Qiongzhongxian",,19.038965,109.841279,157,66,40,5,2,7,24,21,1010,83,2,20141009180000
1244,"Land Environment and Resources Bureau , Changjiangxian",,19.274424,109.064625,161,-,61,-,-,3,25,21,1011,69,2,20141009180000
952,"Jinyun Mountain, Chongqing",,29.824714,106.383015,151,56,74,6,21,5,22,15,1013,64,2,20141009180000
953,"Gaojia Garden, Chongqing",,29.571004,106.463961,170,102,12,44,11,12,22,15,1013,64,2,20141009180000
954,"Tiansheng, Chongqing",,29.823915,106.428032,166,81,12,29,18,10,22,15,1013,64,2,20141009180000
955,"Huqi, Chongqing",,29.595635,106.299819,151,77,19,26,7,8,22,15,1013,64,2,20141009180000
956,"Nanping, Chongqing",,29.51576,106.543738,153,61,36,17,11,8,22,15,1013,64,2,20141009180000
957,"Baishiyi, Chongqing",,29.47961,106.367969,163,78,26,21,13,7,22,15,1013,64,2,20141009180000
958,"Liberation Monument, Chongqing",,29.561321,106.574692,166,119,18,46,10,11,22,15,1013,64,2,20141009180000
959,"Yangjiaping, Chongqing",,29.513635,106.515811,160,85,24,49,11,9,22,15,1013,64,2,20141009180000
960,"Konggang, Chongqing",,29.709652,106.620717,155,65,39,16,9,8,22,15,1013,64,2,20141009180000
961,"Xinshan village, Chongqing",,29.486551,106.471936,156,93,15,50,9,10,22,15,1013,64,2,20141009180000
962,"Lijia, Chongqing",,29.642458,106.565707,158,81,19,45,11,8,22,15,1013,64,2,20141009180000
963,"Yuxin Street, Chongqing",,29.506441,106.51282,163,100,57,38,8,13,22,15,1013,64,2,20141009180000
964,"Caijia, Chongqing",,29.424246,106.594678,157,94,10,29,10,18,22,15,1013,64,2,20141009180000
965,Chongqing,,29.560161,106.555275,166,93,36,50,11,11,-,-,0,-,-,20141009180000
966,"City EPA station, Guiyang",,26.565355,106.700834,164,84,33,23,7,8,13,12,1018,94,0,20141009180000
967,"Jinyang New District, Guiyang",,26.622925,106.627857,163,90,35,21,8,7,13,12,1018,94,0,20141009180000
579,Lianyungang,连云港,34.595509,119.226814,152,84,21,27,10,7,8,8,1016,96,0,20141009190000
1160,"Xiahuayuan EPA, Zhangjiakou",,40.509345,115.302442,411,423,48,27,7,18,15,11,1020,67,1,20141009180000
1161,"Huaian EPA, Zhangjiakou",,40.68157,114.398646,327,282,29,54,35,19,15,11,1020,67,1,20141009180000
1162,"Huailai Fuqian Primary School, Zhangjiakou",,40.422204,115.530285,415,302,20,22,2,15,15,11,1020,67,1,20141009180000
1269,"Zhangbei EPA , Zhangjiakou",,41.166775,114.732369,218,127,94,8,13,9,15,11,1020,67,1,20141009180000
1270,"Kangbao County Environmental Protection Agency , Zhangjiakou",,41.837866,114.591246,180,94,51,7,10,5,15,11,1020,67,1,20141009180000
1271,"Guyuan County welfare , Zhangjiakou",,41.669984,115.687401,189,103,44,10,5,7,15,11,1020,67,1,20141009180000
