locationid,stationname,chinesename,latitude,longitude,pm25,pm10,o3,no2,so2,co,temperature,dewpoint,pressure,humidity,wind,est_time
1,Dongcheng Dongsi,,39.9304,116.423239,89,71,25,30,4,4,16,8,1017,59,1,20140915170000
2,"Temple of Heaven, Dongcheng",,39.887403,116.41324,95,67,27,29,3,3,16,8,1017,59,1,20140915170000
3,West Park officials,,39.930333,116.345162,91,64,23,34,3,4,16,8,1017,59,1,20140915170000
4,West Wanshou Nishinomiya,,39.879354,116.358183,98,72,21,37,3,4,16,8,1017,59,1,20140915170000
5,Chaoyang Olympic Sports Center,,39.983406,116.403253,84,81,20,36,3,3,16,8,1017,59,1,20140915170000
6,Chaoyang Agricultural Exhibition Hall,,39.938331,116.46715,90,72,24,29,5,3,16,8,1017,59,1,20140915170000
7,Haidian Wanliu,,39.988245,116.293062,81,71,15,39,4,3,16,8,1017,59,1,20140915170000
8,The Haidian northern New Area,,40.091313,116.180194,63,5,17,28,2,3,16,8,1017,59,1,20140915170000
9,Haidian Beijing Botanical Garden,,40.003252,116.213097,65,14,30,1,2,3,16,8,1017,59,1,20140915170000
10,Fengtai garden,,39.86423,116.285037,120,100,16,38,6,4,16,8,1017,59,1,20140915170000
11,Fengtai Yungang,,39.82535,116.152237,97,68,22,34,2,4,16,8,1017,59,1,20140915170000
12,Shijingshan city,,39.915286,116.190144,108,119,21,37,2,5,14,8,1017,67,2,20140915170000
13,"Fangshan, Liangxiang",,39.743357,116.14225,87,70,15,29,2,4,16,8,1017,59,1,20140915170000
14,"Huangcunzhen, Daxing",,39.719389,116.410219,96,63,29,22,2,3,16,8,1017,59,1,20140915170000
15,BDA,,39.796197,116.51197,101,62,38,33,6,4,16,8,1017,59,1,20140915170000
16,Tongzhou New Town,,39.887113,116.6689,71,62,24,30,5,1,16,8,1017,59,1,20140915170000
17,Shunyi New Town ,,40.128111,116.660908,111,63,15,37,4,4,16,8,1017,59,1,20140915170000
18,Changping Town,,40.218245,116.236084,41,38,25,12,2,4,16,8,1017,59,1,20140915170000
19,"Mentougou, Longquan Town",,39.938397,116.112323,65,55,17,25,2,4,16,8,1017,59,1,20140915170000
20,Pinggu town,,40.144433,117.106563,64,15,24,11,2,4,16,8,1017,59,1,20140915170000
21,Huairou town,,40.329104,116.63387,36,60,22,9,2,4,16,8,1017,59,1,20140915170000
22,The town of Miyun,,40.371186,116.838053,54,6,13,26,2,4,16,8,1017,59,1,20140915170000
23,Yanqing town,,40.454217,115.978106,86,63,16,29,3,5,16,8,1017,59,1,20140915170000
24,Changping Dingling,,40.293269,116.226108,44,31,24,5,2,3,16,8,1017,59,1,20140915170000
25,Badaling Northwest,,40.36623,115.994146,51,-,16,24,2,3,16,8,1017,59,1,20140915170000
26,Miyun Reservoir,,40.500157,116.91701,-,-,-,-,-,-,-,-,0,-,-,20140915170000
27,"Donggaocun Zhen, Pinggu",,40.10142,117.126556,69,-,34,20,5,2,16,8,1017,59,1,20140915170000
28,"Yongledianzhen, Tongzhou",,39.713192,116.78905,110,26,14,29,7,3,16,8,1017,59,1,20140915170000
29,"Yufazhen, Daxing",,39.521203,116.306026,96,61,23,15,4,3,16,8,1017,59,1,20140915170000
30,"Liulihezhen, Fangshan",,39.581169,116.006089,110,27,22,19,2,3,16,8,1017,59,1,20140915170000
31,"Qianmen E St, Dongcheng",,39.900402,116.401242,95,78,18,39,4,5,16,8,1017,59,1,20140915170000
32,Yongdingmen Inner St,,39.877401,116.400238,99,-,22,35,6,4,16,8,1017,59,1,20140915170000
33,Xizhimen N St,,39.955352,116.355187,78,77,9,36,83,1,16,8,1017,59,1,20140915170000
34,South Ring Road,,39.857377,116.37421,99,95,11,52,4,5,16,8,1017,59,1,20140915170000
35,East Fourth Ring Road,,39.940273,116.489075,87,5,26,29,2,3,16,8,1017,59,1,20140915170000
36,Beijing,,39.955906,116.474246,90,72,25,30,5,4,16,8,1017,59,1,20140915170000
37,Putuo,,31.232979,121.415378,59,29,33,14,6,3,23,19,1015,78,3,20140915170000
38,Yangpu Sipiao,,31.263795,121.540311,67,25,35,24,8,4,23,19,1015,78,3,20140915170000
39,Shanghai Normal College Primary Division,,31.199031,121.487719,60,24,33,13,4,6,23,19,1015,78,3,20140915170000
40,Dianshan Lake,,31.091338,120.982293,78,54,23,24,5,6,23,19,1015,78,3,20140915170000
41,Hongkou Liangcheng,,31.298906,121.47155,46,24,34,16,8,4,23,19,1015,78,3,20140915170000
42,Jingan,,31.224251,121.429637,55,23,33,10,5,6,23,19,1015,78,3,20140915170000
43,Shanghai Normal University,,31.163531,121.416643,56,24,34,14,5,7,23,19,1015,78,3,20140915170000
44,Chuansha,,31.188626,121.707342,69,43,34,14,4,4,23,19,1015,78,3,20140915170000
45,Zhangjiang,,31.204896,121.581215,63,33,31,15,3,4,23,19,1015,78,3,20140915170000
46,Lingshan Road,,31.226286,121.537317,48,29,35,14,4,4,23,19,1015,78,3,20140915170000
1080,City average,,31.228451,121.478227,58,28,33,15,5,4,23,19,1015,78,3,20140915170000
47,Shanghai,,31.202842,121.453493,60,24,33,13,5,6,23,19,1015,78,3,20140915170000
48,Guangzhou,,23.138517,113.263701,78,39,15,48,5,9,27,25,1003,89,3,20140915170000
49,"Huadu town, Guangzhou",,23.389121,113.220062,89,46,24,9,2,6,27,25,1003,89,3,20140915170000
50,"Luogang Zhenlong, Guangzhou",,23.308027,113.567032,70,22,31,8,4,7,27,25,1003,89,3,20140915170000
51,"LuHu, Guangzhou",,23.151743,113.281842,78,39,15,12,2,8,27,25,1003,89,3,20140915170000
52,"Tianhu, Guangzhou",,23.647433,113.629715,68,28,35,1,4,7,27,26,1002,94,1,20140915170000
53,"Zhudong, Guangzhou",,23.418406,113.078552,70,29,34,8,4,7,27,26,1002,94,1,20140915170000
54,"Modiesha station, Guangzhou",,23.103814,113.338238,13,15,17,10,3,8,27,25,1003,89,3,20140915170000
55,Zhuhai,,22.2677,113.581765,61,21,30,10,3,9,30,25,999,74,16,20140915170000
1075,"Huicai technical school, Foshan",,23.039667,113.105492,57,23,20,10,7,6,27,25,1003,89,3,20140915170000
56,"Sanshuiyun donghai, Foshan",,23.185788,112.865368,89,46,22,10,6,6,27,25,1003,89,3,20140915170000
57,"Nanhai Bureau of Meteorology, Foshan",,23.046836,113.145764,91,48,19,10,3,11,27,25,1003,89,3,20140915170000
58,"Sanshui Monitoring Station, Foshan",,23.163551,112.890843,76,37,19,7,5,5,27,25,1003,89,3,20140915170000
1087,Foshan,,23.018995,113.126899,91,48,20,10,7,11,27,25,1003,89,3,20140915170000
59,"Ronggui street committee, Shunde",,22.762729,113.258356,46,17,17,9,5,9,27,25,1003,89,3,20140915170000
60,Shunde,,22.80246,113.298701,46,17,17,9,9,9,-,-,0,-,-,20140915170000
61,"Donghu, Jiangmen",,22.590411,113.087351,46,14,7,11,6,5,30,25,999,74,16,20140915170000
62,"Taoyuan Atmosphere Premier Station, Jiangmen",,22.72489,112.93404,5,1,21,5,4,6,30,25,999,74,16,20140915170000
63,Jiangmen,,22.576047,113.087351,61,26,20,11,10,13,30,25,999,74,16,20140915170000
64,"Kengkouzi station, Zhaoqing",,23.158865,112.570287,68,36,9,26,7,8,27,25,1003,89,3,20140915170000
65,"Mugangzi station, Zhaoqing",,23.067961,112.431934,76,26,26,12,4,9,27,25,1003,89,3,20140915170000
67,Zhaoqing,,23.044571,112.470346,76,26,33,12,4,9,27,25,1003,89,3,20140915170000
68,"Jinguo Bay, Huizhou",,22.937223,114.385567,21,17,24,3,3,6,28,24,1001,79,10,20140915170000
1091,"Xiabu, Huizhou",,23.077493,114.410275,53,16,18,8,3,4,28,24,1001,79,10,20140915170000
69,"Xijiao, Huizhou",,23.338178,114.112867,25,12,25,5,2,8,28,24,1001,79,10,20140915170000
70,"Jiangbei, Huizhou",,23.111706,114.415274,30,38,12,6,7,3,28,24,1001,79,10,20140915170000
71,"Huiyang chuanhu, Huizhou",,22.814485,114.329292,38,11,16,1,5,6,28,24,1001,79,10,20140915170000
72,"Daya bay management committee, Huizhou",,22.739283,114.53631,34,12,10,7,7,3,28,24,1001,79,10,20140915170000
73,Huizhou,,23.109349,114.421164,53,38,19,8,7,5,28,24,1001,79,10,20140915170000
74,"Guancheng No.2 water plant, Dongguan",,23.057294,113.753254,57,23,24,4,5,6,28,24,1001,79,10,20140915170000
75,"Dongcheng Shijing, Dongguan",,23.010039,113.799529,57,23,19,6,4,6,28,24,1001,79,10,20140915170000
76,"Nancheng Xiping, Dongguan",,22.963051,113.743494,70,30,20,8,5,5,28,24,1001,79,10,20140915170000
77,"Nancheng Yuanling, Dongguan",,23.025058,113.751308,63,28,24,4,6,6,28,24,1001,79,10,20140915170000
78,Dongguan,,23.017813,113.756958,70,30,24,8,6,8,28,24,1001,79,10,20140915170000
79,"Zimaling, Zhongshan",,22.505112,113.407183,-,-,-,-,-,-,-,-,0,-,-,20140915170000
80,"Yangtze River tourist area, Zhongshan",,22.48589,113.439054,38,14,23,4,2,8,30,25,999,74,16,20140915170000
81,"Huabai Park, Zhongshan",,22.51839,113.374362,25,9,14,5,4,11,30,25,999,74,16,20140915170000
82,Zhongshan,,22.513997,113.398277,50,15,23,6,6,12,30,25,999,74,16,20140915170000
83,"No.8 middle school, Shaoguan",,24.767777,113.583537,137,52,23,6,9,7,30,22,1005,55,4,20140915170000
83,"No.8 middle school, Shaoguan",,24.767777,113.583537,137,52,23,6,9,7,30,22,1005,55,4,20140915170000
84,"Forest area, Shaoguan",,24.796106,113.612131,122,53,27,2,7,8,30,22,1005,55,4,20140915170000
84,"Forest area, Shaoguan",,24.796107,113.612131,122,53,27,2,7,8,30,22,1005,55,4,20140915170000
86,"Shaoguan University, Shaoguan",,24.790864,113.646598,93,30,31,4,6,14,30,22,1004,52,3,20140915170000
86,"Shaoguan University, Shaoguan",,24.790864,113.646599,93,30,31,4,6,14,30,22,1004,52,3,20140915170000
88,"Qujiang Monitoring Station, Shaoguan",,24.683042,113.60157,114,54,29,9,16,8,30,22,1005,55,4,20140915170000
88,"Qujiang Monitoring Station, Shaoguan",,24.683042,113.60157,114,54,29,9,16,8,30,22,1005,55,4,20140915170000
89,Shaoguan,,24.807342,113.602712,137,54,33,9,16,12,30,22,1005,55,4,20140915170000
90,"Chaonanzi Station, Shantou",,23.251213,116.406762,72,30,22,4,4,7,29,26,1005,84,6,20140915170000
91,Shantou,,23.350642,116.686306,65,37,29,4,3,9,29,26,1005,84,6,20140915170000
92,"City Environmental Monitoring Station, Zhanjiang",,21.220431,110.397317,70,32,20,6,4,7,26,24,1000,85,4,20140915170000
93,"EPB Dormitory, Zhanjiang",,21.197376,110.406487,68,30,12,5,3,10,26,24,1000,85,4,20140915170000
94,"Xiashan Swimming Park, Zhanjiang",,21.200431,110.415655,50,19,23,4,8,9,26,24,1000,85,4,20140915170000
95,"Zhanjiang Theatre, Zhanjiang",,21.268177,110.366445,63,28,25,4,4,9,26,24,1000,85,4,20140915170000
96,"Mazhang EPA, Zhanjiang",,21.265486,110.335993,42,10,10,4,3,6,26,24,1000,85,4,20140915170000
97,"Potou District EPB, Zhanjiang",,21.247604,110.454508,65,30,30,5,4,8,26,24,1000,85,4,20140915170000
98,Zhanjiang,,21.26832,110.363883,70,32,30,6,8,10,26,24,1000,85,4,20140915170000
99,"Maogang sub-office EPB, Maoming",,21.466435,111.033462,55,15,32,1,4,4,26,24,0,86,9,20140915170000
100,"Petrochemical No. 7 elementaty school, Maoming",,21.648905,110.937861,30,10,31,2,2,12,26,24,0,86,9,20140915170000
101,"Jiankang road, Maoming",,21.662211,110.909482,42,21,22,2,7,7,26,24,0,86,9,20140915170000
102,"Gaoling, Maoming",,21.690558,110.871146,42,13,22,2,6,4,26,24,0,86,9,20140915170000
1094,Maoming,,21.660223,110.929968,42,21,31,2,7,12,26,24,0,86,9,20140915170000
103,"Jiaying University, Meizhou",,24.325415,116.12816,63,27,30,2,4,6,29,26,1005,84,6,20140915170000
104,"Mexian new town, Meizhou",,24.269283,116.084546,68,45,30,5,4,8,29,26,1005,84,6,20140915170000
105,"Environmental Monitoring Center, Meizhou",,24.262778,116.129621,80,63,28,7,8,7,29,26,1005,84,6,20140915170000
1095,Meizhou,,24.285988,116.127065,80,63,30,7,8,8,29,26,1005,84,6,20140915170000
106,"City EPA, Shanwei",,22.772349,115.370227,59,19,23,1,4,4,28,25,1004,79,6,20140915170000
107,"City government, Shanwei",,22.787161,115.375536,46,13,23,1,4,8,28,25,1004,79,6,20140915170000
108,"Xincheng Middle School, Shanwei",,22.789851,115.367124,50,14,22,2,3,6,28,25,1004,79,6,20140915170000
1099,Shanwei,,22.783576,115.38022,59,19,23,2,4,8,28,25,1004,79,6,20140915170000
109,"No.3 elementary school, Heyuan",,23.75435,114.703514,72,36,25,6,5,7,29,24,1004,67,4,20140915170000
109,"No.3 elementary school, Heyuan",,23.755946,114.699091,72,36,25,6,5,7,29,24,1004,67,4,20140915170000
111,"City water company, Heyuan",,23.754246,114.682459,80,36,9,6,2,9,29,24,1004,67,4,20140915170000
111,"City water company, Heyuan",,23.688709,114.954652,80,36,9,6,2,9,29,24,1004,67,4,20140915170000
113,"Heyuan high school, Heyuan",,23.720666,114.693879,76,31,25,7,4,8,29,24,1004,67,4,20140915170000
113,"Heyuan high school, Heyuan",,23.720037,114.699563,76,31,25,7,4,8,29,24,1004,67,4,20140915170000
115,Heyuan,,23.740888,114.705147,80,36,25,7,5,9,29,24,1004,67,4,20140915170000
116,"Yuanyang Lake, Yangjiang",,21.855869,111.983676,50,22,35,6,5,9,27,24,998,84,11,20140915170000
1100,Yangjiang,,21.855227,111.987308,53,22,35,6,5,9,27,24,998,84,11,20140915170000
118,"Town governement, Qingyuan",,23.708005,113.026215,89,49,20,12,6,10,27,25,1003,89,3,20140915170000
119,"Fupin district, Qingyuan",,24.185415,113.419369,149,69,5,13,10,8,27,25,1003,89,3,20140915170000
119,"Fupin district, Qingyuan",,23.624781,113.067713,149,69,5,13,10,8,27,25,1003,89,3,20140915170000
121,"Environment protection office, Qingyuan",,23.691109,113.047948,91,43,26,8,9,10,28,26,1003,89,5,20140915170000
121,"Environment protection office, Qingyuan",,23.685931,113.053239,91,43,26,8,9,10,28,26,1003,89,5,20140915170000
123,"Fengcheng Subdistrict, Qingyuan",,23.695447,113.068189,89,49,20,12,6,10,27,25,1003,89,3,20140915170000
124,Qingyuan,,23.679304,113.061513,149,69,20,13,10,10,27,25,1003,89,3,20140915170000
125,"Xiyuan Road, Chaozhou",,23.668654,116.638272,61,21,34,1,4,8,29,26,1005,84,6,20140915170000
126,"Archives Bureau, Chaozhou",,23.667881,116.649104,63,33,32,2,4,7,29,26,1005,84,6,20140915170000
127,"Municipal Corporation, Chaozhou",,23.65035,116.621859,63,30,33,2,6,12,29,26,1005,84,6,20140915170000
1101,Chaozhou,,23.654204,116.626969,63,33,34,2,6,12,29,26,1005,84,6,20140915170000
128,"Donghu Park, Jieyang",,23.532877,116.374427,68,40,35,1,5,7,29,26,1005,84,6,20140915170000
129,"Yuhu Middle School, Jieyang",,23.52682,116.414123,80,47,30,1,1,8,29,26,1005,84,6,20140915170000
130,"Experimental Primary School, Jieyang",,23.571473,116.364137,55,36,30,3,6,8,29,26,1005,84,6,20140915170000
1102,Jieyang,,23.547596,116.37754,80,47,35,3,9,8,29,26,1005,84,6,20140915170000
131,"City Environmental Monitoring Station, Yunfu",,22.936779,112.042248,63,21,21,9,5,13,27,25,1003,89,3,20140915170000
132,"The new city government headquarters, Yunfu",,22.914275,112.044475,70,32,22,11,5,16,27,25,1003,89,3,20140915170000
133,"Muyang police sub-station, Yunfu",,22.951267,112.05923,59,25,25,9,7,12,27,25,1003,89,3,20140915170000
1103,Yunfu,,22.912436,112.049811,70,32,25,11,5,16,27,25,1003,89,3,20140915170000
134,Yantian,,22.587949,114.266899,50,12,29,4,3,4,28,24,1001,79,10,20140915170000
135,Kwai Chung,,22.627947,114.428875,38,11,17,6,2,12,28,24,1001,79,10,20140915170000
135,Kwai Chung,,22.354168,114.134558,38,11,17,6,2,12,28,24,1001,79,10,20140915170000
135,Kwai Chung,,22.572837,113.867166,38,11,17,6,2,12,28,24,1001,79,10,20140915170000
137,Nanyou,,22.513802,113.928051,61,27,32,4,4,5,28,24,1001,79,10,20140915170000
138,Meisha,,22.59611,114.318345,53,20,19,1,1,10,28,24,1001,79,10,20140915170000
139,Xi xiang,,22.717524,114.252304,53,23,16,8,2,11,28,24,1001,79,10,20140915170000
140,Liyuan,,22.54732,114.101205,34,14,12,3,1,11,28,24,1001,79,10,20140915170000
1072,Kwai Chung,,22.627947,114.428875,50,13,20,3,2,12,28,24,1001,79,10,20140915170000
1072,Kwai Chung,,22.354168,114.134558,50,13,20,3,2,12,28,24,1001,79,10,20140915170000
1072,Kwai Chung,,22.572837,113.867166,50,13,20,3,2,12,28,24,1001,79,10,20140915170000
141,OCT,,22.539549,113.992458,63,19,15,2,1,12,28,24,1001,79,10,20140915170000
142,Honghu,,22.559647,114.121976,61,21,20,5,1,10,28,24,1001,79,10,20140915170000
143,Mission Hills,,22.694131,114.050496,38,18,19,5,2,13,28,24,1001,79,10,20140915170000
144,Shenzhen,,22.540382,114.062982,63,28,32,8,4,13,-,-,0,-,-,20140915170000
145,Chengdu,,30.622581,104.069564,137,65,23,33,9,11,22,18,1013,78,0,20140915170000
146,"Jinquan lianghe, Chengdu",,30.710359,103.974209,142,57,11,23,2,11,21,18,1013,83,1,20140915170000
147,"Shilidian, Chengdu",,30.684718,104.17845,159,95,8,44,9,12,21,18,1013,83,1,20140915170000
148,"Sanwayao, Chengdu",,30.568159,104.081524,164,66,10,38,5,10,21,18,1013,83,1,20140915170000
149,"Shahepu, Chengdu",,30.633685,104.120536,144,72,10,38,5,13,21,18,1013,83,1,20140915170000
150,"Liang Lane, Chengdu",,30.682601,104.076522,114,61,23,33,9,9,21,18,1013,83,1,20140915170000
151,"Caotang Temple, Chengdu",,30.651891,104.0284,122,65,20,32,7,11,21,18,1013,83,1,20140915170000
152,"Lingyansi, Chengdu",,31.025729,103.615022,61,21,25,6,2,4,21,18,1013,83,1,20140915170000
153,"Fuleshan, Mianyang",,31.472493,104.7806,25,8,27,7,4,8,23,16,1010,54,2,20140915170000
154,"High-tech Zone Water Company, Mianyang",,31.463309,104.674293,42,19,21,16,8,9,23,16,1010,54,2,20140915170000
155,"No.3 water company, Mianyang",,31.505002,104.731054,42,19,24,27,8,4,23,16,1010,54,2,20140915170000
156,Mianyang,,31.465174,104.681731,50,19,27,27,10,10,23,16,1010,54,2,20140915170000
157,"Dongshan Park, Deyang",,31.118648,104.424587,25,6,31,4,1,8,21,18,1013,83,1,20140915170000
158,"Xixiaoqu, Deyang",,31.131159,104.390972,17,6,26,6,8,10,21,18,1013,83,1,20140915170000
159,"City Procuratorate, Deyang",,31.114554,104.407986,46,13,38,6,11,17,21,18,1013,83,1,20140915170000
160,"Refractory Factory, Deyang",,31.108606,104.356506,17,13,25,12,13,6,21,18,1013,83,1,20140915170000
161,Deyang,,31.124715,104.400703,46,13,38,12,13,17,21,18,1013,83,1,20140915170000
162,"Nongnongping, Panzhihua",,26.566698,101.695438,61,32,17,16,1,4,24,16,0,50,3,20140915170000
163,"Hemenkou, Panzhihua",,26.589072,101.578312,70,36,15,12,9,12,24,16,0,50,3,20140915170000
164,"Bingcaogang, Panzhihua",,26.58143,101.718473,42,50,11,22,6,7,24,16,0,50,3,20140915170000
165,"Renhe, Panzhihua",,26.498166,101.746887,46,31,11,15,5,6,24,16,0,50,3,20140915170000
166,"Jinjina, Panzhihua",,26.553226,101.84862,82,40,21,10,34,7,24,16,0,50,3,20140915170000
167,Panzhihua,,26.578779,101.720211,82,40,21,16,34,12,24,16,0,50,3,20140915170000
168,"Shima Middle School, Yibin",,28.815979,104.599199,82,44,19,13,9,11,22,19,1012,82,1,20140915170000
169,"Municipal party committee, Yibin",,28.762654,104.624834,87,22,13,15,13,14,22,19,1012,82,1,20140915170000
170,"No. 4 middle school, Yibin",,28.783257,104.608407,95,50,14,12,6,9,22,19,1012,82,1,20140915170000
171,"City government, Yibin",,28.760477,104.644079,102,56,11,16,10,12,22,19,1012,82,1,20140915170000
172,"Huangjinzui, Yibin",,28.712319,104.578389,76,52,14,13,11,12,22,19,1012,82,1,20140915170000
173,"Shaping Middle School, Yibin",,28.795569,104.681393,63,21,17,13,11,9,22,19,1012,82,1,20140915170000
174,Yibin,,28.748384,104.645766,102,56,19,16,13,14,22,19,1012,82,1,20140915170000
175,"Datang Hill, Zigong",,29.359969,104.757388,87,51,24,11,4,5,21,19,1001,88,1,20140915170000
176,"Yanma Road, Zigong",,29.355752,104.724036,65,55,24,6,4,9,21,19,1001,88,1,20140915170000
177,"Tanmulin Street, Zigong",,29.353555,104.777397,80,20,19,9,7,5,21,19,1001,88,1,20140915170000
178,"Chunhua Road, Zigong",,29.33825,104.771895,72,34,13,16,14,9,21,19,1001,88,1,20140915170000
179,Zigong,,29.33617,104.781138,87,55,24,16,14,9,21,19,1001,88,1,20140915170000
180,"Jiushi Hill, Luzhou",,28.955347,105.434207,55,41,34,7,5,3,21,19,1001,86,0,20140915170000
181,"Xiaoshishang Port, Luzhou",,28.899583,105.447192,82,44,23,14,4,6,21,19,1001,86,0,20140915170000
182,"Lantianxian Bridge, Luzhou",,28.852766,105.4358,74,29,31,7,1,3,21,19,1001,86,0,20140915170000
183,"City Environment Monitoring Station, Luzhou",,28.895898,105.435802,65,25,19,16,5,5,21,19,1001,86,0,20140915170000
184,Luzhou,,28.868782,105.445938,82,44,34,16,5,6,21,19,1001,86,0,20140915170000
185,"City Committee, Nanchong",,30.799993,106.082906,80,23,9,12,6,6,20,20,1012,98,1,20140915170000
186,"Refinery Factory, Nanchong",,30.819412,106.10712,82,20,11,22,4,3,20,20,1012,98,1,20140915170000
187,"Gaoping District Monitoring Station, Nanchong",,30.783291,106.110417,53,17,6,7,9,7,20,20,1012,98,1,20140915170000
188,"Jialing District EPB, Nanchong",,30.761255,106.06818,91,45,15,8,3,4,20,20,1012,98,1,20140915170000
189,"City Environmental Monitoring Station, Nanchong",,30.836519,106.11272,70,40,24,15,4,3,20,20,1012,98,1,20140915170000
190,Nanchong,,30.835511,106.114717,91,45,29,22,9,7,20,20,1012,98,1,20140915170000
1249,"City Monitoring Station, Neijiang",,29.592673,105.036234,78,33,14,10,4,6,21,19,1001,88,1,20140915170000
1250,"Dongxing District Government , Neijiang",,29.592148,105.074966,76,34,17,9,1,5,21,19,1001,88,1,20140915170000
1251,"No 2 middle school, Neijiang",,29.579135,105.068548,70,35,20,5,1,7,21,19,1001,88,1,20140915170000
1252,Neijiang,,29.577653,105.06166,78,35,20,10,4,7,21,19,1001,88,1,20140915170000
1253,"City Monitoring Station, Suining",,30.610641,105.683583,61,21,23,8,3,2,20,19,0,91,1,20140915170000
1254,"Administrative center , Suining",,30.63206,105.819747,59,51,30,4,2,4,20,19,0,91,1,20140915170000
1255,Suining,,30.530053,105.596307,61,51,30,12,5,10,20,19,0,91,1,20140915170000
1256,"City Monitoring Station, Leshan",,29.560651,103.759211,72,30,22,9,7,9,21,18,0,80,1,20140915170000
1257,"Leshan Giant Buddha Scenic Area , Leshan",,29.543938,103.772706,61,21,21,7,5,7,21,18,0,80,1,20140915170000
1258,Leshan,,29.54935,103.767777,72,30,22,18,7,9,21,18,0,80,1,20140915170000
1259,"Heilongtan , Meishan",,30.047726,103.900649,198,119,26,5,18,9,21,18,1013,83,1,20140915170000
1260,"Bureau of Meteorology, Meishan",,30.084591,103.843715,208,115,24,14,7,9,21,18,1013,83,1,20140915170000
1261,"Xuguang Community , Meishan",,30.066277,103.8516,230,137,15,18,6,8,21,18,1013,83,1,20140915170000
1262,"City Monitoring Station, Meishan",,30.059205,103.836229,225,130,22,20,7,9,21,18,1013,83,1,20140915170000
1263,Meishan,,30.072618,103.85064,230,137,26,20,18,9,21,18,1013,83,1,20140915170000
1264,"Ziyang middle school, Ziyang",,30.147763,104.638024,55,37,26,2,4,6,21,19,1001,88,1,20140915170000
1265,Ziyang,,30.126054,104.63004,65,48,32,4,16,10,21,19,1001,88,1,20140915170000
191,Shenyang US Consulate,,41.785668,123.432865,117,74,28,35,10,4,8,3,1018,71,1,20140915170000
192,"Huishan, Shenyang",,41.835421,123.647773,55,30,28,11,4,4,9,3,1017,66,1,20140915170000
193,"Hunnan, Shenyang",,41.758263,123.540809,95,67,13,27,12,4,8,3,1018,71,1,20140915170000
194,"Zhangshi, Shenyang",,41.771679,123.289859,142,99,7,37,14,5,9,3,1017,66,1,20140915170000
195,"Artillery College, Shenyang",,41.835749,123.547799,38,52,13,21,3,3,8,3,1018,71,1,20140915170000
196,"Beiling, Shenyang",,41.849633,123.434146,158,179,8,33,6,5,8,3,1018,71,1,20140915170000
197,"Wenyi Road, Shenyang",,41.767444,123.416144,80,74,21,35,10,5,8,3,1018,71,1,20140915170000
198,"Xiaoheyan, Shenyang",,41.779828,123.484015,132,82,15,31,7,6,8,3,1018,71,1,20140915170000
199,"Taiyuan Street, Shenyang",,41.799646,123.406146,99,68,5,36,10,6,9,3,1017,66,1,20140915170000
200,"Ermao, Shenyang",,41.783011,123.366679,104,75,22,38,7,5,8,3,1018,71,1,20140915170000
201,"Liaoning University, Shenyang",,41.830704,123.361071,134,71,17,29,7,3,8,3,1018,71,1,20140915170000
202,Shenyang,,41.808126,123.437611,158,179,8,36,10,6,8,3,1018,71,1,20140915170000
1104,"wenhua street, Shenyang , Shenyang",,41.774139,123.441839,80,74,21,35,10,5,9,3,1017,66,1,20140915170000
1105,"Tanglin Road , Shenyang , Shenyang",,41.823665,123.562317,38,52,13,21,3,3,9,3,1017,66,1,20140915170000
203,"Ganjingzi, Dalian",,38.9747,121.616893,61,40,15,27,4,3,16,9,1018,63,2,20140915170000
204,"Zhoushuizi, Dalian",,38.951928,121.569981,59,45,11,19,6,10,16,9,1018,63,2,20140915170000
205,"Xinghai No 3 station, Dalian",,38.885779,121.568864,61,26,18,7,4,6,16,9,1018,63,1,20140915170000
206,"Qingniwa Bridge, Dalian",,38.91274,121.638018,68,47,8,39,1,6,16,9,1018,63,2,20140915170000
207,"Fujiazhuang, Dalian",,38.864647,121.629947,61,30,19,8,3,4,16,9,1018,63,1,20140915170000
208,"Qixianling, Dalian",,38.856978,121.523169,53,46,32,8,2,9,16,9,1018,63,2,20140915170000
209,"Lushun, Dalian",,38.808946,121.264063,53,21,24,6,2,3,16,9,1018,63,1,20140915170000
210,"Jinzhou, Dalian",,39.132192,121.753259,59,31,4,28,4,1,16,9,1018,63,1,20140915170000
211,"BDA, Dalian",,39.05213,121.782022,72,20,8,15,1,4,16,9,1018,63,2,20140915170000
212,"D&D Port, Dalian",,39.064087,121.981874,42,29,13,7,1,3,16,9,1018,63,1,20140915170000
213,Dalian,,38.91478,121.619625,61,30,19,8,3,4,-,-,0,-,-,20140915170000
214,"Bearing Factory, Dandong",,40.068929,124.345703,68,56,27,21,13,13,14,6,1017,45,2,20140915170000
215,"Financial school, Dandong",,40.158723,124.432593,65,41,19,23,20,6,14,6,1017,45,2,20140915170000
216,"Yuanbaoshan water, Dandong",,40.149431,124.391698,55,25,31,7,15,8,14,6,1017,45,2,20140915170000
217,"Experimental Primary School, Dandong",,39.887343,124.158056,68,39,20,15,8,25,14,6,1017,45,2,20140915170000
218,Dandong,,40.002046,124.360479,68,56,27,21,13,13,14,6,1017,45,2,20140915170000
1106,"minzhu bridge, Dandong , Dandong",,40.112974,124.373604,68,39,20,15,8,25,14,6,1017,45,2,20140915170000
1107,"yuanbaoshan, Dandong , Dandong",,40.146298,124.399081,55,25,31,7,15,8,14,6,1017,45,2,20140915170000
1108,"linjiang houjie, Dandong , Dandong",,40.152757,124.431745,65,41,19,23,20,6,14,6,1017,45,2,20140915170000
219,"BDA, Panjin",,41.157144,122.06645,65,52,17,24,17,16,10,-2,0,38,2,20140915170000
220,"Xinglongtai, Panjin",,41.140948,122.111343,61,53,11,20,17,6,10,-2,0,38,2,20140915170000
221,"Dingxiang, Panjin",,41.16139,121.928781,50,36,16,14,8,7,10,-2,0,38,2,20140915170000
222,Panjin,,41.122089,122.076206,65,52,17,24,17,16,10,-2,0,38,2,20140915170000
223,"No.3 water company, Yingkou",,40.682052,122.385352,46,30,22,16,3,5,13,4,1018,43,1,20140915170000
224,"Yingkou University, Yingkou",,40.683689,122.388285,21,22,19,23,7,4,13,4,1018,43,1,20140915170000
225,"Botanical garden, Yingkou",,40.711674,122.281568,55,23,20,14,8,6,13,4,1018,43,1,20140915170000
226,Yingkou,,40.668578,122.24059,72,33,16,29,8,6,13,4,1018,43,1,20140915170000
1109,"jinghu west street, Yingkou , Yingkou",,40.653831,122.221943,46,30,22,16,3,5,13,4,1018,43,1,20140915170000
1110,"Daqing Road , Yingkou , Yingkou",,40.709181,122.28243,72,33,16,22,7,6,13,4,1018,43,1,20140915170000
227,"Xishanpo, Huludao",,40.724078,120.921974,68,57,27,32,24,2,10,-2,0,38,2,20140915170000
228,"Huagong hospital, Huludao",,40.755662,120.848435,93,68,16,27,5,10,10,-2,0,38,2,20140915170000
229,"New district park, Huludao",,40.723415,120.853801,61,55,10,23,3,7,10,-2,0,38,2,20140915170000
230,"Lianshan district governement, Huludao",,40.775488,120.872292,59,72,16,33,8,7,10,-2,0,38,2,20140915170000
231,Huludao,,40.712501,120.842107,57,68,11,31,7,8,16,-1,0,21,0,20140915170000
1111,"Dongcheng District , Huludao , Huludao",,40.775362,120.871706,57,68,11,31,7,8,,,0,,,20140915170000
1112,"huagong street, Huludao , Huludao",,40.758901,120.842935,93,68,16,27,5,10,,,0,,,20140915170000
232,Anshan,,41.110466,123.000147,95,60,11,30,17,12,6,2,1018,76,1,20140915170000
233,"Qianshan Park, Anshan",,41.033486,123.143897,65,31,20,12,9,4,8,3,1018,71,1,20140915170000
234,"Tiexi, Anshan",,41.121636,122.97506,109,80,14,33,14,19,8,3,1018,71,1,20140915170000
235,"Taiping Station, Anshan",,41.153322,123.052433,147,83,10,24,6,15,8,3,1018,71,1,20140915170000
236,"Central Station, Anshan",,41.106731,123.002736,95,70,20,25,17,10,8,3,1018,71,1,20140915170000
237,"Shengou Temple, Anshan",,41.137157,123.031901,72,48,11,23,17,12,8,3,1018,71,1,20140915170000
1113,"Qianshan , Anshan , Anshan",,41.014521,123.122538,53,24,16,16,10,4,6,2,1018,76,1,20140915170000
1114,"Tiexi Sandao jie, Anshan",,41.103264,122.978613,109,80,14,33,14,19,8,3,1018,71,1,20140915170000
1115,"Taiyang, Anshan",,41.094946,123.019037,95,65,17,25,13,10,6,2,1018,76,1,20140915170000
238,Fushun,,41.883028,123.962984,95,64,8,21,34,12,8,3,1018,71,1,20140915170000
239,"Shenfu new town, Fushun",,41.804638,123.631684,70,55,8,15,3,6,6,2,1018,76,1,20140915170000
240,"Reservoir, Fushun",,41.8464,123.802857,42,35,20,7,4,7,8,3,1018,71,1,20140915170000
241,"Train Station, Fushun",,41.89726,124.017604,134,92,8,19,16,6,8,3,1018,71,1,20140915170000
242,"Dongzhou, Fushun",,41.855578,124.044738,46,35,17,11,9,4,8,3,1018,71,1,20140915170000
243,"Xinhua, Fushun",,41.888598,123.932932,87,72,9,22,11,12,8,3,1018,71,1,20140915170000
244,"Wanghua, Fushun",,41.888825,123.093723,132,79,12,24,36,7,8,3,1018,71,1,20140915170000
245,Benxi,,41.296267,123.772371,74,61,10,16,12,18,6,2,1018,76,1,20140915170000
246,"Weining, Benxi",,41.349663,123.826071,46,57,13,4,3,33,9,3,1018,66,1,20140915170000
247,"Occupational disease hospital, Benxi",,41.305432,123.74645,46,20,11,14,6,5,9,3,1018,66,1,20140915170000
248,"Dongming, Benxi",,41.292369,123.765058,85,30,16,16,20,10,6,2,1018,76,1,20140915170000
249,"Caitun, Benxi",,41.301591,123.746039,74,61,8,6,3,18,6,2,1018,76,1,20140915170000
250,"Xihu, Benxi",,41.331332,123.773537,102,151,10,20,7,8,9,3,1018,66,1,20140915170000
251,"Dayu, Benxi",,41.308091,123.818442,57,23,10,16,12,6,6,2,1018,76,1,20140915170000
1116,"Xinlitun , Benxi , Benxi",,41.264104,123.811523,42,34,8,13,6,5,6,2,1018,76,1,20140915170000
252,Jinzhou,,41.097169,121.132647,122,132,9,25,7,7,16,-1,1018,21,0,20140915170000
253,"Beihu Park, Jinzhou",,41.141447,121.137339,65,56,17,23,11,5,16,-1,1018,21,0,20140915170000
254,"Monitoring station, Jinzhou",,41.113441,121.140911,109,157,12,41,16,6,16,-1,1018,21,0,20140915170000
255,"Nanshan, Jinzhou",,41.570689,122.046753,122,55,9,19,7,6,16,-1,1018,21,0,20140915170000
1118,"BDA, Jinzhou",,40.853915,121.061756,144,132,7,32,38,8,16,-1,1018,21,0,20140915170000
1119,"tianan street, Jinzhou , Jinzhou",,41.124468,121.126119,87,132,9,25,7,7,16,-1,1018,21,0,20140915170000
1120,"baigu street, Jinzhou, Jinzhou",,41.12214,121.21027,74,54,12,17,5,6,16,-1,1018,21,0,20140915170000
1121,Chaoyang,,41.576022,120.456053,80,68,13,23,5,14,-,-,0,-,-,20140915170000
472,"Fukang road, Tianjin",,39.098136,117.157621,124,83,12,39,13,7,18,7,1018,49,2,20140915170000
1122,"Agricultural Area, Chaoyang",,43.93968,125.247371,59,38,5,7,5,5,16,-1,1018,18,3,20140915170000
1123,Tieling,,42.225197,123.732174,72,65,18,15,9,5,-,-,0,-,-,20140915170000
260,"Waterpark, Tieling",,42.297031,123.880748,53,54,9,14,9,4,6,2,1018,76,1,20140915170000
1124,"Huigong Street West , Tieling , Tieling",,42.311115,123.845614,99,86,27,12,20,4,9,3,1017,66,1,20140915170000
1125,Liaoyang,,41.269312,123.24268,80,58,7,25,12,6,-,-,0,-,-,20140915170000
1126,"Riverside Road , Liaoyang , Liaoyang",,41.176884,123.419859,107,68,9,16,12,4,9,3,1017,66,1,20140915170000
1127,Fuxin,,42.02373,121.675733,74,62,13,15,8,7,-,-,0,-,-,20140915170000
266,"Agricultural Area, Fuxin",,42.071291,121.696445,72,99,15,11,8,4,9,-3,0,37,2,20140915170000
267,"Industrial Area, Fuxin",,42.041052,121.715554,68,59,13,19,3,7,9,-3,0,37,2,20140915170000
1128,"Yulong Metro , Fuxin , Fuxin",,42.035091,121.666531,74,62,20,15,8,7,9,-3,0,38,2,20140915170000
1129,"Dongyuan , Fuxin , Fuxin",,42.029119,121.681553,-,-,65,-,-,10,-,-,0,-,-,20140915170000
268,"City Monitoring Station, Jinan",,36.662614,117.054645,175,99,3,27,22,11,17,17,1019,99,1,20140915170000
269,"Shandong Institute of Economics, Jinan",,36.63819,117.074975,163,76,6,15,17,17,17,17,1019,99,1,20140915170000
270,"Quancheng Plaza, Jinan",,36.661711,117.027043,161,75,8,15,13,12,17,17,1019,99,1,20140915170000
271,"Kegansuo, Jinan",,36.611582,116.99384,155,73,5,24,15,11,17,17,1019,99,1,20140915170000
272,"Agriculture Science Institute, Jinan",,36.663115,116.95063,144,62,4,25,6,13,17,17,1019,99,1,20140915170000
273,"Lanxiang technical school, Jinan",,36.700421,116.95342,139,58,11,7,18,9,17,17,1019,99,1,20140915170000
274,"Chemical factory, Jinan",,36.687463,116.994406,151,61,4,28,8,10,17,17,1019,99,1,20140915170000
275,"Provincial Seed Warehouse, Jinan",,36.685706,117.066348,161,77,9,25,6,12,17,17,1019,99,1,20140915170000
276,"Shandong Architecture University, Jinan",,36.681732,117.191868,161,70,7,18,15,18,17,17,1019,99,1,20140915170000
277,"Baosheng cable company, Jinan",,36.724638,117.130855,153,65,5,26,5,8,17,17,1019,99,1,20140915170000
278,"Paomaling, Jinan",,36.47869,117.219027,53,17,38,8,13,9,17,17,1019,99,1,20140915170000
279,"Changqing District Communist Party School, Jinan",,36.548797,116.770859,137,70,8,17,23,14,17,17,1019,99,1,20140915170000
280,"BDA, Jinan",,36.685835,117.130851,154,76,15,33,15,17,17,17,1019,99,1,20140915170000
281,Jinan,,36.651426,117.126625,175,99,14,28,22,17,17,17,1019,99,1,20140915170000
282,"Shinan district No. 1, Qingdao",,36.065534,120.40839,89,60,3,21,27,6,19,16,1018,83,0,20140915170000
283,"Shibei district No. 1, Qingdao",,36.069919,120.341264,74,53,5,22,9,7,19,16,1018,83,0,20140915170000
284,"Shibei district No. 2, Qingdao",,36.104146,120.36637,46,39,26,37,13,12,19,16,1018,83,0,20140915170000
285,"Huangdao District No. 1, Qingdao",,35.958935,120.191041,85,60,13,20,18,6,19,16,1018,83,0,20140915170000
286,"Huangdao District No. 2, Qingdao",,35.970487,120.160339,57,46,19,18,15,5,19,16,1018,83,0,20140915170000
287,"Laoshan District No. 1, Qingdao",,36.085881,120.451839,112,73,8,39,35,8,19,16,1018,83,0,20140915170000
288,"Laoshan District No. 2, Qingdao",,36.091075,120.490388,68,58,16,19,12,3,19,16,1018,83,0,20140915170000
289,"Licang District No. 1, Qingdao",,36.184872,120.38533,91,85,5,36,13,11,19,16,1018,83,0,20140915170000
290,"Licang District No. 2, Qingdao",,36.154369,120.432287,89,64,7,38,13,5,19,16,1018,83,0,20140915170000
291,"Chengyang District No. 1, Qingdao",,36.308502,120.40008,127,71,8,37,20,8,19,16,1018,83,0,20140915170000
292,"Chengyang District No. 2, Qingdao",,36.308429,120.465806,55,43,14,18,9,4,19,16,1018,83,0,20140915170000
293,Qingdao,,36.067358,120.387773,112,73,22,39,35,8,19,16,1018,83,0,20140915170000
294,"Zichuan Meteo. Stations, Zibo",,36.637916,117.960222,137,59,5,30,40,16,14,13,0,92,1,20140915170000
295,"Dongfeng Chemical factory, Zibo",,36.838576,118.050785,139,100,6,38,54,26,13,12,0,93,1,20140915170000
296,"Boshan shuangshan, Zibo",,36.497278,117.853581,93,34,4,29,9,13,14,13,0,92,1,20140915170000
297,"Linzi Putian Park, Zibo",,36.820171,118.315022,109,69,14,29,22,23,14,13,0,92,1,20140915170000
298,"Qilu Petrochemical, Zibo",,36.765907,118.254967,97,73,6,24,18,23,13,12,0,93,1,20140915170000
299,"Zhoucun sanjin Group, Zibo",,36.8044,117.85694,159,71,11,11,13,23,13,12,0,93,1,20140915170000
300,"Vocational College, Zibo",,36.825208,117.926305,157,78,5,35,54,24,14,13,0,92,1,20140915170000
301,"BDA, Zibo",,36.905214,118.021824,137,71,10,28,28,16,14,13,0,92,1,20140915170000
302,Zibo,,36.813618,118.060948,160,102,12,38,62,26,13,12,0,93,1,20140915170000
303,"Shizhong District Government, Zaozhuang",,34.850397,117.569545,89,30,26,4,48,5,18,14,1018,75,3,20140915170000
304,"Sewage treatment plant, Zaozhuang",,34.818951,117.595345,102,30,18,13,27,4,18,14,1018,75,3,20140915170000
305,"Xuecheng EPA, Zaozhuang",,34.790214,117.272455,93,37,18,11,18,6,18,14,1018,75,3,20140915170000
306,"Yicheng District government, Zaozhuang",,34.772806,117.57647,50,22,29,10,4,4,18,14,1018,75,3,20140915170000
307,"Taierzhuang EPA, Zaozhuang",,34.579462,117.741067,87,41,20,16,5,7,18,14,1018,75,3,20140915170000
308,"Shanting EPA, Zaozhuang",,35.070373,117.457691,57,46,30,4,10,9,18,14,1018,75,3,20140915170000
309,"City EPA, Zaozhuang",,34.809466,117.320608,85,38,24,6,38,4,18,14,1018,75,3,20140915170000
310,"High-tech zone, Zaozhuang",,34.821779,117.363495,117,42,20,7,35,4,18,14,1018,75,3,20140915170000
311,Zaozhuang,,34.809693,117.329634,93,46,30,16,48,9,18,14,1018,75,3,20140915170000
312,"City EPA, Dongying",,37.432052,118.672871,107,77,14,27,22,12,17,13,0,78,3,20140915170000
313,"Vocational College, Dongying",,37.438653,118.630567,107,82,16,43,17,8,18,12,0,72,3,20140915170000
314,"Xianhe Oil Production Plant, Dongying",,37.442419,118.510222,153,99,17,22,20,8,17,13,0,78,3,20140915170000
315,"Gengjin village, Dongying",,37.445072,118.55839,155,91,16,18,19,9,17,13,0,78,3,20140915170000
316,"City environmental company, Dongying",,37.466599,118.508012,152,82,17,23,11,8,17,13,0,78,3,20140915170000
317,"Hekou  district, Dongying",,37.883786,118.522171,95,61,15,23,6,8,17,13,0,78,3,20140915170000
318,"BDA, Dongying",,37.435162,118.701827,137,74,19,28,20,12,17,13,0,78,3,20140915170000
319,Dongying,,37.435429,118.680434,155,99,17,39,20,10,17,13,0,78,3,20140915170000
320,"Bearing Factory, Yantai",,37.544126,121.376956,142,77,16,53,54,15,,,0,,,20140915170000
321,"Xijiao Chemical Station, Yantai",,37.547148,121.323695,142,70,16,46,24,17,,,0,,,20140915170000
322,"Fushan Monitoring Stations, Yantai",,37.472245,121.260116,134,51,11,10,5,17,,,0,,,20140915170000
323,"Mouping EPA, Yantai",,37.376681,121.586509,95,65,11,22,7,12,,,0,,,20140915170000
324,"Laishan EPA, Yantai",,37.478422,121.44829,104,56,17,37,16,13,,,0,,,20140915170000
325,"Laishan Shengquan Industrial Park, Yantai",,37.4271,121.408386,91,77,8,34,10,14,,,0,,,20140915170000
326,"China Agricultural University, Yantai",,37.423568,121.511838,89,71,11,34,6,14,,,0,,,20140915170000
327,"BDA EPA, Yantai",,37.560827,121.257954,95,55,21,15,7,15,,,0,,,20140915170000
329,"Dajijia, Yantai",,37.673849,121.071465,61,30,21,16,12,12,,,0,,,20140915170000
330,Yantai,,37.464793,121.453142,142,77,16,53,54,17,22,10,0,46,5,20140915170000
331,"BDA, Weifang",,36.720022,119.054064,153,72,7,14,21,8,,,0,,,20140915170000
332,"Business School, Weifang",,36.682442,119.105909,117,54,11,26,29,7,,,0,,,20140915170000
333,"Hanting District, Weifang",,36.773484,119.199705,159,90,13,18,13,9,,,0,,,20140915170000
334,"Gongda Company, Weifang",,36.657635,119.167266,102,53,13,21,6,9,,,0,,,20140915170000
335,"City EPA, Weifang",,36.701272,119.16838,144,71,10,23,54,16,,,0,,,20140915170000
336,"City Arbitration Committee, Weifang",,36.702422,119.145927,114,66,19,22,46,11,,,0,,,20140915170000
337,"Xinhui Group, Weifang",,36.641581,119.11679,72,38,11,18,6,8,,,0,,,20140915170000
338,"Jincheng Middle School, Weifang",,36.773611,119.115539,109,57,16,13,9,10,,,0,,,20140915170000
339,Weifang,,36.707217,119.167638,159,90,19,29,46,11,17,13,0,78,3,20140915170000
340,"City Monitoring Station, Jining",,35.408443,116.623917,76,50,13,24,10,9,16,15,1020,93,1,20140915170000
1090,"Shengdi Hollidays Resort, Jining",,35.424746,116.699093,102,36,13,29,13,4,16,15,1020,93,1,20140915170000
341,"Sewage treatment plant, Jining",,35.364286,116.609177,109,41,14,18,23,8,16,15,1020,93,1,20140915170000
342,"Electrochemical Factory, Jining",,35.390473,116.552956,80,40,12,19,13,8,16,15,1020,93,1,20140915170000
343,"Rencheng BDA, Jining",,35.390484,116.662995,91,44,19,25,11,10,16,15,1020,93,1,20140915170000
344,"Agricultural School, Jining",,35.44235,116.601682,61,46,10,28,7,6,16,15,1020,93,1,20140915170000
345,"BDA Huojucheng, Jining",,35.436377,116.642953,82,24,13,19,4,9,16,15,1020,93,1,20140915170000
346,Jining,,35.414473,116.59239,102,50,13,29,13,9,16,15,1020,93,1,20140915170000
347,"Taishan monitoring station, Taian",,36.194362,117.159648,99,52,9,8,8,12,11,10,0,96,1,20140915170000
348,"Shandong Electric Power School, Taian",,36.176071,117.12413,112,41,12,18,13,26,11,10,0,96,1,20140915170000
349,"Population Education school, Taian",,36.194417,117.104131,107,58,11,10,7,12,11,10,0,96,1,20140915170000
350,"Houfeng company, Taian",,36.204863,117.19015,124,55,11,8,12,13,11,10,0,96,1,20140915170000
351,"Nongda new campus, Taian",,36.170179,117.165191,109,60,6,10,14,13,11,10,0,96,1,20140915170000
352,"Transportation technical school, Taian",,36.202126,117.047068,99,49,3,9,4,15,11,10,0,96,1,20140915180000
353,"ICT Technology, Taian",,36.116621,117.107458,99,60,5,26,5,12,11,10,0,96,1,20140915180000
354,Taian,,36.200502,117.093682,124,60,12,26,13,26,11,10,0,96,1,20140915180000
355,"City Environmental Monitoring Station, Weihai",,37.513939,122.067058,55,41,33,12,4,9,22,10,0,46,5,20140915180000
356,"Woodworking Factory, Weihai",,37.325455,122.160777,91,53,31,17,11,8,22,10,0,46,5,20140915180000
357,"Lantian Hotel, Weihai",,37.514641,122.146276,74,53,43,6,5,12,22,10,0,46,5,20140915180000
358,"Zhang village government, Weihai",,37.485561,122.049436,50,25,32,10,6,10,22,10,0,46,5,20140915180000
359,"Gao District Bank, Weihai",,37.534919,122.056294,63,30,39,9,6,11,22,10,0,46,5,20140915180000
360,"Huxia technical school, Weihai",,37.427951,122.130811,85,54,35,12,9,9,22,10,0,46,5,20140915180000
361,Weihai,,37.5141,122.125477,91,54,43,17,11,12,22,10,0,46,5,20140915180000
362,"City governement square, Rizhao",,35.4075,119.526008,46,25,23,3,7,3,17,14,1018,74,2,20140915180000
363,"Port Authority, Rizhao",,35.381297,119.55396,55,25,23,6,4,2,17,14,1018,74,2,20140915180000
364,"City Monitoring Station, Rizhao",,35.388683,119.496405,63,40,13,31,6,3,17,14,1018,74,2,20140915180000
365,"Professor Garden, Rizhao",,35.462161,119.574193,50,38,25,12,5,6,17,14,1018,74,2,20140915180000
366,"Vocational and Technical College, Rizhao",,35.441939,119.538187,57,24,29,6,6,3,17,14,1018,74,2,20140915180000
367,"Lanshan EPA branch, Rizhao",,35.293405,119.345716,55,26,16,16,8,4,17,14,1018,74,2,20140915180000
368,"Jinma Industrial Park, Rizhao",,35.373339,119.514108,46,32,11,25,8,4,17,14,1018,74,2,20140915180000
369,Rizhao,,35.416089,119.532316,57,38,29,25,8,6,17,14,1018,74,2,20140915180000
370,"Vegetable oil factory, Laiwu",,36.205028,117.700917,153,31,5,21,19,11,15,13,1020,86,1,20140915180000
371,"Nursing home, Laiwu",,36.266067,117.652769,102,53,6,22,11,16,15,13,1020,86,1,20140915180000
372,"Xinyi middle school, Laiwu",,36.245086,117.739025,74,32,7,19,8,12,15,13,1020,86,1,20140915180000
373,"Risheng International School, Laiwu",,36.208125,117.730959,85,44,3,5,11,10,15,13,1020,86,1,20140915180000
374,"Gangcheng EPA, Laiwu",,36.066836,117.871823,102,59,3,20,50,20,15,13,1020,86,1,20140915180000
375,"City EPA, Laiwu",,36.228913,117.694797,72,24,5,21,10,16,15,13,1020,86,1,20140915180000
376,Laiwu,,36.213688,117.682612,153,59,5,22,50,20,-,-,0,-,-,20140915180000
377,"Lunan Pharmaceutical Factory, Linyi",,35.061671,118.299527,61,32,14,12,11,6,15,13,0,89,2,20140915180000
378,"Yihe compound, Linyi",,35.056752,118.34739,63,39,15,12,9,10,15,13,0,89,2,20140915180000
379,"Linyi University, Linyi",,35.114777,118.293414,76,18,12,11,15,11,15,13,0,89,2,20140915180000
380,City EPA,Nanfang,35.104871,118.353518,68,30,19,9,13,8,15,13,0,89,2,20140915180000
381,"Xinguang woolen factory, Linyi",,34.981004,118.282,72,29,13,11,10,7,15,13,0,89,2,20140915180000
382,"Hongfu Baijiu Factory, Linyi",,34.998788,118.257275,57,42,13,13,11,10,15,13,0,89,2,20140915180000
384,"Hedong insurance company, Linyi",,35.089354,118.40812,72,30,15,11,6,7,15,13,0,89,2,20140915180000
385,"Jianghua vehicule center, Linyi",,35.010082,118.435749,59,41,10,17,26,7,15,13,0,89,2,20140915180000
386,Linyi,,35.10428,118.362202,76,42,19,17,26,11,15,13,0,89,2,20140915180000
387,"Heima group, Dezhou",,37.466063,116.314134,157,79,9,14,7,14,18,15,1019,78,1,20140915180000
388,"Monitoring station, Dezhou",,37.433107,116.377312,152,71,7,14,9,11,18,15,1019,78,1,20140915180000
389,"Supervision Station, Dezhou",,37.449689,116.324709,154,87,10,22,11,25,18,15,1019,78,1,20140915180000
390,"Huayu technical school, Dezhou",,37.462809,116.357559,132,67,12,34,9,14,18,15,1019,78,1,20140915180000
391,"Shuangyi group, Dezhou",,37.478848,116.316362,163,96,7,21,9,13,18,15,1019,78,1,20140915180000
392,Dezhou,,37.434959,116.363366,163,96,12,34,27,22,18,15,1019,78,1,20140915180000
393,"Dongchang District Government, Liaocheng",,36.444473,115.971733,109,37,5,15,12,15,16,15,1020,94,0,20140915180000
394,"Light Machinery Factory No. 2, Liaocheng",,36.456788,116.002383,132,58,5,17,11,14,16,15,1020,94,0,20140915180000
395,"City committee communist party school, Liaocheng",,36.479537,115.989288,122,55,4,33,12,17,16,15,1020,94,0,20140915180000
396,"Customs, Liaocheng",,36.431933,115.956974,109,51,7,17,6,14,16,15,1020,94,0,20140915180000
397,"Hongshun Garden, Liaocheng",,36.471124,115.960319,137,73,4,22,14,16,16,15,1020,94,0,20140915180000
398,"BDA, Liaocheng",,36.459407,116.043621,124,55,5,17,11,17,16,15,1020,94,0,20140915180000
399,Liaocheng,,36.456792,115.991051,137,73,7,33,14,17,16,15,1020,94,0,20140915180000
400,"City EPA, Binzhou",,37.38024,118.026895,144,52,12,16,17,14,19,14,1019,64,2,20140915180000
401,"Beizhong new school, Binzhou",,37.38374,117.988996,117,58,10,17,9,17,19,14,1019,64,2,20140915180000
402,"No.2 water factory, Binzhou",,37.36155,118.002648,161,69,10,13,16,13,19,14,1019,64,2,20140915180000
403,"Keling Chemical factory, Binzhou",,37.396138,117.943609,129,52,12,29,17,19,19,14,1019,64,2,20140915180000
404,"Yinhe logistics company, Binzhou",,37.356122,117.943326,155,76,13,20,12,17,19,14,1019,64,2,20140915180000
405,"Bilin compond, Binzhou",,37.36815,117.978964,154,77,7,12,13,13,19,14,1019,64,2,20140915180000
406,Binzhou,,37.382639,117.976606,161,77,13,20,16,17,19,14,1019,64,2,20140915180000
407,"Bureau of Meteorology, Heze",,35.248625,115.428775,109,45,16,9,7,9,15,15,0,98,2,20140915180000
408,"Sewage treatment plant, Heze",,35.222517,115.531511,114,44,13,10,8,10,15,15,0,98,2,20140915180000
409,"Municipal CPPCC, Heze",,35.237125,115.480591,93,32,21,9,9,10,15,15,0,98,2,20140915180000
410,"Huarun Pharmaceutical Company, Heze",,35.261463,115.524873,85,34,12,10,7,10,15,15,0,98,2,20140915180000
411,"Heze University, Heze",,35.269706,115.460934,97,34,18,12,4,10,15,15,0,98,2,20140915180000
412,Heze,,35.233354,115.486503,109,45,21,12,9,10,15,15,0,98,2,20140915180000
413,"Shiji Park, Shijiazhuang",,38.03155,114.547873,144,74,2,12,3,6,10,10,1018,100,1,20140915180000
414,"Xinan College, Shijiazhuang",,38.012764,114.473163,139,95,1,6,13,7,10,10,1018,100,1,20140915180000
415,"Chemical College, Shijiazhuang",,38.055503,114.569816,142,70,4,12,5,6,10,10,1018,100,1,20140915180000
416,"Worker hospital, Shijiazhuang",,38.051784,114.461209,122,90,3,12,4,7,10,10,1018,100,1,20140915180000
417,"Northwest Water Company, Shijiazhuang",,38.140638,114.508038,137,94,2,18,9,8,10,10,1018,100,1,20140915180000
418,"High-tech zone, Shijiazhuang",,38.040482,114.610775,109,61,5,17,10,7,10,10,1018,100,1,20140915180000
419,"Fenglong Montain, Shijiazhuang",,37.910829,114.360264,30,3,22,3,3,1,10,10,1018,100,1,20140915180000
1130,"Zhengding Unicom, Shijiazhuang",,38.159458,114.59879,191,185,20,38,10,12,10,10,1018,100,1,20140915180000
1131,"Luancheng Communications, Shijiazhuang",,37.906534,114.638785,144,75,13,24,8,8,10,10,1018,100,1,20140915180000
1132,"Gaocheng Experimental School, Shijiazhuang",,38.039518,114.867812,161,85,4,20,17,6,10,10,1018,100,1,20140915180000
1133,"Wuji EPA, Shijiazhuang",,38.17862,114.997012,175,116,6,38,64,12,10,10,1018,100,1,20140915180000
1134,"Shenze Power Supply Bureau, Shijiazhuang",,38.197674,115.219126,182,174,2,46,71,7,10,10,1018,100,1,20140915180000
1135,"Zhaoxian EPA, Shijiazhuang",,37.77171,114.775957,139,139,10,36,24,8,10,10,1018,100,1,20140915180000
1136,"Gaoyi County City Hall, Shijiazhuang",,37.623535,114.612729,168,115,3,26,23,9,10,10,1018,100,1,20140915180000
1137,"Zanhuang County City Hall, Shijiazhuang",,37.672898,114.398269,97,52,5,19,1,4,10,10,1018,100,1,20140915180000
1138,"Jingxing Bureau of Meteorology, Shijiazhuang",,38.038788,114.158406,107,77,4,20,14,9,10,10,1018,100,1,20140915180000
1139,"Pingshan Ye River, Shijiazhuang",,38.266657,114.210275,109,59,3,23,13,11,10,10,1018,100,1,20140915180000
420,Shijiazhuang,,38.042926,114.520834,144,105,4,17,13,7,10,10,1018,100,1,20140915180000
421,"No. 12 middle school, Tangshan",,39.659306,118.190271,180,60,33,21,10,12,-,-,0,-,-,20140915180000
422,"Ceramics Company, Tangshan",,39.669255,118.225185,95,56,8,29,11,2,18,7,1018,49,2,20140915180000
423,"Commodities Bureau, Tangshan",,39.642301,118.191265,89,54,5,20,8,2,18,7,1018,49,2,20140915180000
424,"Leidazhanzi Station, Tangshan",,39.644375,118.150383,95,63,10,1,8,2,18,7,1018,49,2,20140915180000
425,"Supply and marketing cooperatives, Tangshan",,39.632334,118.17232,107,55,13,27,11,2,18,7,1018,49,2,20140915180000
1140,"Guye District City Hall, Tangshan",,39.741379,118.460246,167,143,8,36,2,15,18,7,1018,49,2,20140915180000
1141,"Kaiping Stations, Tangshan",,39.675246,118.275149,139,76,8,46,15,1,18,7,1018,49,2,20140915180000
1142,"Fengnan District City Hall, Tangshan",,39.5834,118.097454,151,86,18,44,26,3,18,7,1018,49,2,20140915180000
1143,"Fengrun City Hall, Tangshan",,39.840355,118.175338,151,93,11,36,14,6,18,7,1018,49,2,20140915180000
1144,"Qianxi EPA, Tangshan",,40.153339,118.317265,87,53,11,27,4,8,18,7,1018,49,2,20140915180000
1145,"Caofeidian Xinli  Primary School, Tangshan",,39.291232,118.462182,119,77,16,48,22,7,18,7,1018,49,2,20140915180000
1146,"Zunhua EPA, Tangshan",,40.206249,117.997315,55,51,12,29,23,5,18,7,1018,49,2,20140915180000
1147,"Qianan No.1 middle school, Tangshan",,40.004248,118.717055,132,74,11,25,12,18,18,7,1018,49,2,20140915180000
1266,"Luannan County , Tangshan",,39.511132,118.686928,119,69,10,46,49,7,18,7,1018,49,2,20140915180000
1267,"Yutian County , Tangshan",,39.908249,117.751417,163,144,10,40,15,8,18,7,1018,49,2,20140915180000
426,Tangshan,,39.632175,118.186472,151,86,18,46,26,3,-,-,0,-,-,20140915180000
427,"City Monitoring Station, Qinhuangdao",,39.958109,119.607773,82,82,10,43,10,7,,,0,,,20140915180000
428,"Beidaihe, Qinhuangdao",,39.829209,119.53194,80,59,12,30,52,18,,,0,,,20140915180000
429,"Shanhai Pass, Qinhuangdao",,40.019298,119.767898,85,57,7,49,4,9,,,0,,,20140915180000
430,"Contruction Plazz, Qinhuangdao",,39.943187,119.542912,65,93,10,34,20,7,,,0,,,20140915180000
431,"City government, Qinhuangdao",,39.93711,119.612769,97,82,5,30,10,10,,,0,,,20140915180000
1148,"Qinglong EPA, Qinhuangdao",,40.419223,118.958002,80,26,21,16,2,1,18,7,0,49,2,20140915180000
1149,"Changli EPA, Qinhuangdao",,39.714369,119.173237,152,95,11,36,26,13,,,0,,,20140915180000
1268,"Lulong County Bureau of Meteorology , Qinhuangdao",,39.901091,118.904857,161,92,15,26,22,9,18,7,0,49,2,20140915180000
432,Qinhuangdao,,39.936485,119.606263,97,93,10,43,20,10,-,-,0,-,-,20140915180000
433,"CongTai Park, Handan",,36.620197,114.501891,80,60,2,8,5,12,16,13,0,80,1,20140915180000
434,"City EPA, Handan",,36.618145,114.518822,161,50,4,19,6,13,16,13,0,80,1,20140915180000
435,"East Sewage Factory, Handan",,36.616064,114.548714,85,63,2,12,4,8,16,13,0,80,1,20140915180000
436,"Mine Hospital, Handan",,36.578149,114.509854,102,47,2,12,3,5,16,13,0,80,1,20140915180000
1150,"Fengfeng mine Inland Revenue Department, Handan",,36.423085,114.245994,57,20,15,6,1,9,14,12,0,81,2,20140915180000
1151,"Shexian EPA, Handan",,36.589084,113.692341,76,36,10,21,3,7,,,0,,,20140915180000
1152,"Ci County Vocational Education Center, Handan",,36.380247,114.390119,74,20,14,9,2,8,,,0,,,20140915180000
1153,"Yongnian government guesthouse, Handan",,36.783297,114.502905,287,178,2,22,82,52,16,13,0,80,1,20140915180000
1154,"Wuan BDA, Handan",,36.686223,114.269009,155,62,5,25,55,18,,,0,,,20140915180000
1085,Handan,,36.625683,114.544812,161,63,4,19,6,13,16,13,0,80,1,20140915180000
437,"Road and Bridge Corporation, Xingtai",,37.096415,114.538799,85,66,2,3,4,8,16,13,1019,80,1,20140915180000
438,"Dahuo fontain, Xingtai",,37.097563,114.488001,70,28,5,6,3,3,16,13,1019,80,1,20140915180000
439,"Xingtai Normal College, Xingtai",,37.053404,114.531819,93,56,3,12,4,16,16,13,1019,80,1,20140915180000
440,"Environment protection office, Xingtai",,37.06253,114.490985,53,40,7,6,5,7,16,13,1019,80,1,20140915180000
1155,"Cultural centers within the mound, Xingtai",,37.293569,114.524873,61,26,12,4,1,1,16,13,1019,80,1,20140915180000
383,Xingtai,,37.071066,114.510749,93,66,7,12,5,16,16,13,1019,80,1,20140915180000
441,"City Monitoring Station, Baoding",,38.871737,115.527103,152,68,19,23,22,33,17,11,1018,62,2,20140915180000
442,"Surface water Company, Baoding",,38.842891,115.467326,152,93,20,30,5,5,17,11,1018,62,2,20140915180000
443,"Huadian II, Baoding",,38.896748,115.528102,99,71,27,7,16,2,17,11,1018,62,2,20140915180000
444,"Reception Center, Baoding",,38.911905,115.477301,142,75,18,67,6,8,17,11,1018,62,2,20140915180000
445,"Film Factory, Baoding",,38.876949,115.448383,153,88,16,29,8,7,17,11,1018,62,2,20140915180000
446,"Natatorium, Baoding",,38.863815,115.499212,109,83,20,33,25,10,17,11,1018,62,2,20140915180000
1156,"Qingyuan City Hall, Baoding",,38.771758,115.502189,127,78,18,17,9,1,17,11,1018,62,2,20140915180000
1157,"Xushui EPA, Baoding",,39.025781,115.668023,129,83,16,32,59,4,17,11,1018,62,2,20140915180000
1158,"Zhouzhou Monitoring Stations, Baoding",,39.493241,116.040187,104,56,24,19,9,3,17,11,1018,62,2,20140915180000
1159,"Gaobeidian EPA, Baoding",,39.3329,115.885891,97,61,19,28,20,0,17,11,1018,62,2,20140915180000
447,Baoding,,38.874791,115.471124,153,93,23,33,25,10,17,11,1018,62,2,20140915180000
448,"Century Compound, Zhangjiakou",,40.770279,114.909106,13,9,11,8,36,2,11,3,1019,43,1,20140915180000
449,"North Pumping Station, Zhangjiakou",,40.874362,114.910119,93,26,1,5,2,4,11,3,1019,43,1,20140915180000
450,"Hardware Warehouse, Zhangjiakou",,40.81232,114.887119,30,27,49,19,1,14,11,3,1019,43,1,20140915180000
451,"Tanji Chang, Zhangjiakou",,40.796301,114.89811,25,14,12,7,1,0,11,3,1019,43,1,20140915180000
1160,"Xiahuayuan EPA, Zhangjiakou",,40.509345,115.302442,68,34,4,12,12,3,11,3,1019,43,1,20140915180000
1161,"Huaian EPA, Zhangjiakou",,40.68157,114.398646,17,28,19,10,12,0,11,3,1019,43,1,20140915180000
1162,"Huailai Fuqian Primary School, Zhangjiakou",,40.422204,115.530285,91,34,16,26,1,0,11,3,1019,43,1,20140915180000
1269,"Zhangbei EPA , Zhangjiakou",,41.166775,114.732369,89,60,9,16,6,6,11,3,1019,43,1,20140915180000
1270,"Kangbao County Environmental Protection Agency , Zhangjiakou",,41.837866,114.591246,87,62,13,12,5,3,11,3,1019,43,1,20140915180000
1271,"Guyuan County welfare , Zhangjiakou",,41.669984,115.687401,95,6,22,21,4,5,11,3,1019,43,1,20140915180000
1272,"Shangyi County Environmental Protection Bureau , Zhangjiakou",,41.086638,113.984688,78,64,13,11,5,13,11,3,1019,43,1,20140915180000
1273,"Yuxian Secondary School , Zhangjiakou",,39.84699,114.601986,93,60,18,12,6,4,11,3,1019,43,1,20140915180000
1274,"Yang County Vocational Education Center , Zhangjiakou",,40.106343,114.134732,97,45,18,12,3,4,11,3,1019,43,1,20140915180000
1275,"Wan county Environmental Protection Agency , Zhangjiakou",,40.770459,114.75033,63,39,24,12,4,2,11,3,1019,43,1,20140915180000
473,"Nankou road, Tianjin",,39.174022,117.199688,158,86,9,31,16,8,17,7,1018,52,2,20140915180000
1276,"Zhuolu County Environmental Protection Agency , Zhangjiakou",,40.374273,115.221393,68,42,18,1,5,4,11,3,1019,43,1,20140915180000
452,Zhangjiakou,,40.825744,114.893659,93,27,49,19,2,14,11,3,1019,43,1,20140915180000
453,"Railway, Chengde",,40.917557,117.972331,76,52,6,16,4,3,11,5,1019,57,1,20140915180000
454,"Cultural Center, Chengde",,40.974625,117.824437,74,54,6,15,4,4,11,5,1019,57,1,20140915180000
455,"Bank of China, Chengde",,40.985582,117.958304,61,43,14,14,23,5,11,5,1019,57,1,20140915180000
456,"BDA, Chengde",,40.937567,117.969325,61,58,9,22,38,5,11,5,1019,57,1,20140915180000
457,"Ligong, Chengde",,41.012579,117.94428,154,25,11,15,1,1,11,5,1019,57,1,20140915180000
1163,"Chengde County EPA, Chengde",,40.776643,118.17646,76,71,7,17,3,8,11,5,1019,57,1,20140915180000
1164,"Xinglong County City Hall, Chengde",,40.424301,117.513488,99,38,11,14,1,7,11,5,1019,57,1,20140915180000
1165,"Luanping EPA, Chengde",,40.950792,117.350715,70,30,8,12,2,5,11,5,1019,57,1,20140915180000
1166,"Fengning County City Hall, Chengde",,41.216739,116.658037,70,37,11,9,3,5,11,5,1019,57,1,20140915180000
1277,"Longhua EPA , Chengde",,41.311956,117.739605,74,42,9,17,7,5,11,5,1019,57,1,20140915180000
458,Chengde,,40.955652,117.968737,154,58,11,22,38,5,11,5,1019,57,1,20140915180000
459,"Municipal EPB, Cangzhou",,38.323507,116.876746,114,75,12,29,12,7,17,6,1018,48,2,20140915180000
460,"Cangxian Urban Construction Bureau, Cangzhou",,38.299495,116.890734,124,61,3,24,6,8,17,6,1018,48,2,20140915180000
461,"TV Broadcast Station, Cangzhou",,38.325525,116.863761,149,58,7,22,7,8,17,6,1018,48,2,20140915180000
1167,"Qing County City Hall, Cangzhou",,38.589643,116.815876,174,31,1,30,21,3,17,6,1018,48,2,20140915180000
1168,"Poyoushi City Hall, Cangzhou",,38.089516,116.590575,163,90,1,31,12,10,17,6,1018,48,2,20140915180000
1169,"Huanghua Finance Bureau Training Center, Cangzhou",,38.377793,117.343356,171,98,21,34,34,2,17,6,1018,48,2,20140915180000
462,Cangzhou,,38.305035,116.844625,149,75,12,29,12,8,17,6,1018,48,2,20140915180000
463,"Environmental Monitoring Supervision Center, Langfang",,39.558157,116.720995,78,46,22,7,9,5,17,6,1018,48,2,20140915180000
464,"TCM Medical Material Company, Langfang",,39.519096,116.689914,102,60,23,12,6,4,17,7,1018,52,2,20140915180000
465,"BDA, Langfang",,39.576175,116.779041,89,62,26,11,11,2,17,6,1018,48,2,20140915180000
466,"North China Institute of Aerospace, Langfang",,39.53517,116.743027,104,46,20,11,7,6,17,6,1018,48,2,20140915180000
1170,"Guan Party School, Langfang",,39.446185,116.311026,93,61,28,21,4,3,17,6,1018,48,2,20140915180000
1171,"Xianghe EPA, Langfang",,39.76725,117.015252,104,82,28,27,7,5,17,6,1018,48,2,20140915180000
1172,"Wenan County EPA, Langfang",,38.880927,116.47001,156,80,17,26,19,4,17,6,1018,48,2,20140915180000
1173,"Three Rivers Department of Transportation, Langfang",,39.989419,117.091528,137,157,20,42,10,3,17,6,1018,48,2,20140915180000
1278,"Yongqing EPA , Langfang",,39.329071,116.510917,117,64,18,16,11,4,17,6,1018,48,2,20140915180000
1279,"Dacheng EPA, Langfang",,38.712628,116.665751,156,89,16,30,14,7,17,6,1018,48,2,20140915180000
467,Langfang,,39.539148,116.689668,104,62,26,11,11,6,17,6,1018,48,2,20140915180000
468,"Hengshui City EPB, Hengshui",,37.739679,115.695929,161,64,7,12,13,9,12,9,0,84,1,20140915180000
469,"Environmental Monitoring Station, Hengshui",,37.738593,115.648837,153,73,20,22,4,7,12,9,0,84,1,20140915180000
470,"Electrical Machine North Factory, Hengshui",,37.758686,115.70094,153,65,6,27,17,10,12,9,0,84,1,20140915180000
1174,"Anping EPA, Hengshui",,38.238559,115.537988,198,116,5,34,15,11,12,9,0,84,1,20140915180000
1175,"Jizhou EPA, Hengshui",,37.548552,115.58679,156,79,25,27,16,9,12,9,0,84,1,20140915180000
1280,"Zaoqiang EPA, Hengshui",,37.520698,115.714936,161,78,29,24,10,8,12,9,0,84,1,20140915180000
1281,"Wuyi EPA, Hengshui",,37.801554,115.898697,170,95,20,20,24,9,12,9,0,84,1,20140915180000
1282,"Wuqiang EPA , Hengshui",,38.03557,115.959767,13,127,8,1,11,10,12,9,0,84,1,20140915180000
1283,"Raoyang EPA , Hengshui",,38.230652,115.741041,165,83,10,19,8,11,12,9,0,84,1,20140915180000
1284,"Gucheng County , Hengshui",,37.347569,115.966707,159,77,9,20,9,9,12,9,0,84,1,20140915180000
471,Hengshui,,37.739562,115.676066,161,73,22,27,17,10,12,9,0,84,1,20140915180000
1176,"Xinji City Hall, Xinji",,37.949711,115.230084,184,126,4,36,16,11,12,9,0,84,1,20140915180000
474,"Qinjian street, Tianjin",,39.166588,117.15104,154,86,9,35,23,12,17,7,1018,52,2,20140915180000
475,"Nanjing Road, Tianjin",,39.120958,117.195112,158,100,10,35,26,11,17,7,1018,52,2,20140915180000
476,"Dazhigu No.8 road, Tianjin",,39.111811,117.25147,109,68,9,39,17,12,17,7,1018,52,2,20140915180000
477,"Qianjin street, Tianjin",,39.09371,117.207981,132,80,10,30,22,6,17,7,1018,52,2,20140915180000
478,"Huaihe street, Tianjin",,39.227167,117.191293,155,88,8,20,15,8,17,7,1018,52,2,20140915180000
479,"Xiangshan street, Tianjin",,39.134752,117.275125,112,70,12,22,14,9,17,7,1018,52,2,20140915180000
480,"Yuejin Road, Tianjin",,39.088177,117.320884,124,82,7,25,7,10,17,7,1018,52,2,20140915180000
482,"No.4 street, Tianjin",,39.035228,117.713424,137,60,4,23,10,8,17,7,1018,52,2,20140915180000
483,"Yongming road, Tianjin",,38.840392,117.463805,160,80,5,30,29,16,17,7,1018,52,2,20140915180000
484,"Xinhua street, Tianjin",,39.138671,117.010083,160,92,9,25,28,10,18,7,1018,49,2,20140915180000
485,"Jingu Road, Tianjin",,38.985659,117.381254,161,89,6,29,15,12,18,7,1018,49,2,20140915180000
486,"Tanggu Yingkou street, Tianjin",,39.021768,117.656454,122,63,11,37,20,9,18,7,1018,49,2,20140915180000
487,"Hexi Yijing road, Tianjin",,39.248392,117.798043,147,65,8,33,11,8,18,7,1018,49,2,20140915180000
488,"Jianshe Road, Tianjin",,39.720075,117.310588,119,74,11,39,7,6,18,7,1018,49,2,20140915180000
489,"Quanzhou South road, Tianjin",,39.373857,117.050329,137,50,11,15,10,7,18,7,1018,49,2,20140915180000
490,"Donghuan road, Tianjin",,40.043144,117.451062,151,54,10,23,17,7,18,7,1018,49,2,20140915180000
491,"Tuanpowa, Tianjin",,38.920418,117.16299,165,93,15,17,14,12,17,7,1018,52,2,20140915180000
493,"Beiwei No.2 road, Tianjin",,38.943857,116.920624,168,76,9,25,17,7,18,7,1018,49,2,20140915180000
494,"Haitai fazhan No.2 road, Tianjin",,39.079608,117.096583,156,111,7,14,14,8,18,7,1018,49,2,20140915180000
495,"Hangtian road, Tianjin",,39.152244,117.381309,149,84,5,36,13,13,17,7,1018,52,2,20140915180000
496,"Hanbei road, Tianjin",,39.159768,117.770477,127,81,8,32,13,15,17,7,1018,52,2,20140915180000
497,"Baobai highway, Tianjin",,39.51757,117.349635,82,43,11,27,17,9,18,7,1018,49,2,20140915180000
498,Tianjin,,39.085164,117.207281,158,100,10,35,26,11,18,7,1018,49,2,20140915180000
499,"Wolong bridge, Hangzhou",,30.24371,120.132762,57,30,19,12,5,6,23,19,1014,78,2,20140915180000
500,"Hemu primary school, Hangzhou",,30.309669,120.124507,74,30,29,21,9,7,23,19,1014,78,2,20140915180000
501,"Zhejiang Agricultural University, Hangzhou",,30.265601,120.197583,97,50,25,27,10,4,23,19,1014,78,2,20140915180000
502,"Xiasha, Hangzhou",,30.303516,120.352618,91,39,24,7,19,2,23,19,1014,78,2,20140915180000
503,"Yunqi, Hangzhou",,30.178555,120.093142,50,20,30,6,7,7,23,19,1014,78,2,20140915180000
504,"Xixi, Hangzhou",,30.272425,120.068144,76,20,22,16,4,7,23,19,1014,78,2,20140915180000
505,"Chengxiang town, Hangzhou",,30.179493,120.274184,61,32,29,13,10,4,23,19,1014,78,2,20140915180000
506,"Qiandao lake, Hangzhou",,29.638139,119.031092,53,21,46,3,5,1,23,19,1014,78,2,20140915180000
507,"Linping town, Hangzhou",,30.415948,120.305059,80,35,21,20,8,5,23,19,1014,78,2,20140915180000
509,"No.2 Middle School, Hangzhou",,30.044303,119.956356,65,33,13,6,12,5,23,19,1014,78,2,20140915180000
510,"City Hall, Hangzhou",,30.234185,119.723503,63,39,37,9,5,5,23,19,1014,78,2,20140915180000
511,"No. 4 middle school, Hangzhou",,30.229428,119.699591,68,39,23,10,8,5,23,19,1014,78,2,20140915180000
512,Hangzhou,,30.271756,120.159765,97,50,30,27,10,7,23,19,1014,78,2,20140915180000
513,"City Station, Wenzhou",,28.009715,120.679129,78,35,24,9,3,9,22,21,0,93,3,20140915180000
514,"Ouhai, Wenzhou",,28.001846,120.641982,78,41,18,19,2,5,22,21,0,93,3,20140915180000
515,"Longwan, Wenzhou",,27.968122,120.768393,87,43,34,8,3,5,22,21,0,93,3,20140915180000
516,"Nanpu, Wenzhou",,27.981763,120.683685,74,40,24,9,2,8,22,21,0,93,3,20140915180000
517,Wenzhou,,27.990985,120.703425,87,43,34,9,3,9,22,21,0,93,3,20140915180000
518,"Monitoring station, Jiaxing",,30.75437,120.767373,97,48,26,14,6,4,23,19,1014,78,2,20140915180000
519,"Jiaxing University, Jiaxing",,30.745099,120.735004,74,46,28,6,5,7,23,19,1014,78,2,20140915180000
520,"Qinghe Primary School, Jiaxing",,30.775685,120.747969,78,73,29,12,4,6,23,19,1014,78,3,20140915180000
521,Jiaxing,,30.751627,120.762862,97,73,29,14,6,7,23,19,1014,78,2,20140915180000
522,"Chengbei water plant, Huzhou",,30.891155,120.096593,107,50,19,24,13,7,23,19,1014,78,2,20140915180000
523,"Jishan new village, Huzhou",,30.859939,120.120168,93,53,23,35,16,7,23,19,1014,78,2,20140915180000
524,"Town west water plant, Huzhou",,30.862371,120.084577,74,40,25,15,9,6,23,19,1014,78,3,20140915180000
525,Huzhou,,30.892304,120.091694,107,53,25,35,16,7,23,19,1014,78,2,20140915180000
526,"Donghu middle school, Shaoxing",,29.990447,120.647547,63,30,31,14,13,7,23,19,1014,78,2,20140915180000
527,"City EPA station, Shaoxing",,30.001695,120.584318,68,31,33,14,10,1,23,19,1014,78,2,20140915180000
528,"Chengdong BDA committee, Shaoxing",,29.986643,120.613578,72,31,28,17,17,3,23,19,1014,78,2,20140915180000
529,"Paojiang station, Shaoxing",,30.07574,120.62154,127,59,29,19,27,6,23,19,1014,78,2,20140915180000
530,"Shaoxing technical school, Shaoxing",,29.930983,120.577131,63,32,10,6,8,2,23,19,1014,78,2,20140915180000
531,"Library, Shaoxing",,29.706266,120.253183,70,40,28,7,14,5,23,19,1014,78,2,20140915180000
532,"Transporation management station, Shaoxing",,29.726405,120.221602,70,45,27,1,8,3,23,19,1014,78,2,20140915180000
533,"Dongpu Town Governement, Shaoxing",,30.049601,120.539893,65,54,24,13,20,8,23,19,1014,78,2,20140915180000
534,Shaoxing,,29.993122,120.590182,127,59,33,19,27,6,-,-,0,-,-,20140915180000
535,"City Monitoring Station, Jinhua",,29.100031,119.690373,76,37,34,11,12,8,21,20,0,96,2,20140915180000
536,"No.15 middle school, Jinhua",,29.074022,119.652121,76,35,32,6,10,5,21,20,0,96,2,20140915180000
537,"No.4 middle school, Jinhua",,29.110109,119.653654,91,36,31,8,12,7,21,20,0,96,2,20140915180000
538,"Beiyuan, Jinhua",,29.332898,120.083351,72,42,27,12,13,7,21,20,0,96,2,20140915180000
539,"Jiangdong, Jinhua",,29.302486,120.095291,76,38,32,11,9,7,21,20,0,96,2,20140915180000
540,Jinhua,,29.076083,119.65215,91,37,34,11,12,8,21,20,0,96,2,20140915180000
541,"EPA building, Quzhou",,28.937291,118.876081,74,46,29,9,7,5,25,21,1012,73,4,20140915180000
542,"Experimental school, Quzhou",,28.961502,118.880916,72,37,25,12,7,2,25,21,1012,73,4,20140915180000
543,"Quzhou University, Quzhou",,28.971452,118.860052,80,39,14,6,6,4,25,21,1012,73,4,20140915180000
544,Quzhou,,28.966994,118.864252,85,49,31,7,7,5,26,22,1012,75,4,20140915180000
545,"Putuo east port, Zhoushan",,29.951412,122.317679,34,17,38,1,3,3,23,22,1014,94,1,20140915180000
546,"Dinghai tanfeng, Zhoushan",,30.018014,122.126566,38,17,37,3,3,8,23,22,1014,94,1,20140915180000
547,Zhoushan,,29.983049,122.210763,46,21,38,3,3,8,23,21,1013,88,1,20140915180000
548,"Taizhou EPA building, Taizhou",,28.651216,121.42331,25,20,34,2,2,4,22,21,0,90,3,20140915180000
549,"Luqiao Tian Yang Wang, Taizhou",,28.574364,121.381194,57,30,33,6,2,4,22,21,0,90,3,20140915180000
550,"Huangyan EPA building, Taizhou",,28.656151,121.285064,57,26,30,7,1,7,22,21,0,90,3,20140915180000
551,"Yu Zhuang Qian, Lishui",,28.419638,119.883884,78,32,23,15,7,5,25,22,1012,81,2,20140915180000
552,"Monitoring station building, Lishui",,28.444379,119.923103,85,36,24,6,1,3,25,22,1012,81,2,20140915180000
553,"Liandu primary school, Lishui",,28.450912,119.939332,76,34,27,6,1,6,25,22,1012,81,2,20140915180000
554,Lishui,,28.464224,119.927201,85,36,27,15,7,6,25,22,1012,81,2,20140915180000
1248,Jingningxian,,27.977454,119.634837,63,40,2,9,2,7,25,22,1012,81,2,20140915180000
555,Taigu Primary School,,29.864178,121.60022,53,28,24,15,7,5,23,21,1013,88,1,20140915180000
556,Qianhu shuihan,,29.862459,121.5328,61,36,16,13,5,5,23,21,1013,88,1,20140915180000
557,Sanjiang secondary schools,,29.891563,121.568427,65,50,12,22,14,5,23,21,1013,88,1,20140915180000
558,Longsai Hospital,,29.957301,121.726734,53,19,30,10,132,5,23,22,1014,94,1,20140915180000
559,Beilun District EPB,,29.911633,121.850773,50,27,27,10,6,4,23,22,1014,94,1,20140915180000
560,Wanli University,,29.821314,121.574364,57,35,26,8,6,5,23,21,1013,88,1,20140915180000
561,Qianhu water plant,,29.774416,121.648136,59,24,18,9,78,5,23,21,1013,88,1,20140915180000
562,Municipal management station,,29.899182,121.626691,55,38,17,15,46,5,23,21,1013,88,1,20140915180000
1177,Daxie Literary Museum,,29.9027,121.986447,53,20,27,6,4,4,23,22,1014,94,1,20140915180000
1178,Cixi EPB,,30.165807,121.248991,57,34,29,6,4,14,23,21,1013,88,1,20140915180000
1179,Cixi Experimently Primary School,,30.179808,121.268672,50,34,32,6,4,7,23,21,1013,88,1,20140915180000
1180,"Yongsan Park, Yuyao",,30.050842,121.162477,61,30,29,6,7,6,23,22,1014,94,1,20140915180000
1182,Fenghua EPB,,29.666557,121.42069,68,38,19,13,6,8,23,22,1014,94,1,20140915180000
1183,"Yuelong station, Ninghai",,29.296505,121.445872,57,34,25,8,4,6,23,21,1013,88,1,20140915180000
1184,"Wenfeng Primary School, Xiangshan",,29.470908,121.889544,46,22,28,4,2,4,23,21,1013,88,1,20140915180000
1185,"Chengnan Primary School, Ninghai",,29.293812,121.43666,61,30,30,7,6,5,23,22,1014,94,1,20140915180000
1186,"Xingang Primary School, Xiangshan",,29.203878,121.952514,38,29,32,5,3,5,23,21,1013,88,1,20140915180000
1356,Haishu City Monitoring Center,,29.86835,121.539341,61,36,16,13,5,5,23,21,1013,88,1,20140915180000
1357,Fenghua Xikou government,,29.693164,121.29331,61,33,23,17,5,5,23,21,1013,88,1,20140915180000
1294,Ningbo,,29.865766,121.548164,65,50,26,22,78,5,23,21,1013,88,1,20140915180000
1187,Fuyang,,30.046157,119.96468,65,33,13,6,12,5,-,-,0,-,-,20140915180000
1188,Yiwu,,29.304353,120.079794,76,38,32,11,9,7,-,-,0,-,-,20140915180000
1189,Zhuji,,29.711185,120.240748,70,45,28,7,14,5,23,19,1014,78,2,20140915180000
563,"Shanxi Road , Nanjing",,32.06795,118.779216,104,52,17,25,10,9,22,20,1014,88,4,20140915180000
564,"Ruijin Road , Nanjing",,32.029321,118.80817,82,51,13,14,6,8,22,20,1014,88,4,20140915180000
565,"Xuanwu Lake, Nanjing",,32.075423,118.800188,97,58,14,19,5,4,22,20,1014,88,4,20140915180000
566,"Olympic Center, Nanjing",,32.007171,118.742217,85,44,24,7,2,3,22,20,1014,88,4,20140915180000
567,"Xianlin University Town , Nanjing",,32.106958,118.919882,91,56,24,12,5,4,22,20,1014,88,4,20140915180000
568,Nanjing,,32.058179,118.802061,95,62,26,17,12,3,22,20,1014,88,4,20140915180000
569,"Shangfang hill , Suzhou",,31.24502,120.565211,70,39,23,18,5,6,23,19,1014,78,2,20140915180000
570,"Wuzhong District , Suzhou",,31.268105,120.61717,61,28,24,13,4,6,23,19,1014,78,2,20140915180000
571,"Suzhou New District , Suzhou",,31.297277,120.547262,76,40,20,28,17,5,23,19,1014,78,2,20140915180000
572,"Suzhou Industrial Area, Suzhou",,31.307603,120.673257,63,39,26,19,8,7,23,19,1014,78,2,20140915180000
573,"Xiangcheng district, Suzhou",,31.368674,120.645209,68,36,28,22,6,6,23,19,1014,78,2,20140915180000
574,Suzhou,,31.296701,120.589493,82,45,18,38,12,5,23,19,1014,78,3,20140915180000
575,"South suburb , Nantong",,31.957836,120.917218,147,60,27,24,12,4,20,19,1003,90,2,20140915180000
576,"Xinghu park, Nantong",,31.927873,120.944254,152,70,30,24,25,6,20,19,1003,91,2,20140915180000
577,"Zilang school, Nantong",,32.039638,120.814358,144,60,26,24,11,0,20,19,1003,91,2,20140915180000
578,Nantong,,31.978005,120.898555,152,70,31,24,25,7,20,19,1003,91,2,20140915180000
579,Lianyungang,,34.595509,119.226814,152,84,21,27,10,7,8,8,1016,96,0,20140915180000
580,"Hongmen police substation, Lianyungang",,34.588692,119.146693,57,51,11,16,11,10,17,15,1018,82,2,20140915180000
581,"Xugou Nuclear Expert Village , Lianyungang",,34.749957,119.373707,42,30,16,6,3,7,16,15,1018,92,2,20140915180000
582,"Hengrui pharmaceutical company, BDA, Lianyungang",,34.697574,119.353668,46,34,18,13,6,6,16,15,1018,92,2,20140915180000
583,"City Monitoring Station, Lianyungang",,34.586791,119.186929,50,48,13,16,10,8,16,15,1018,92,2,20140915180000
584,"Yellow river new village , Xuzhou",,34.271542,117.177241,72,59,7,19,30,14,17,14,1017,75,1,20140915180000
585,"Tongshan Veterinary Hospital , Xuzhou",,34.307086,117.197766,91,64,9,35,46,15,17,14,1017,75,1,20140915180000
586,"New Town , Xuzhou",,34.213992,117.261718,68,53,18,12,11,10,17,14,1017,75,1,20140915180000
587,"Taoyuan road, Xuzhou",,34.289822,117.249721,46,57,2,18,23,11,17,14,1017,75,1,20140915180000
588,"Agricultural Science Academy , Xuzhou",,34.27655,117.299079,50,54,10,16,21,8,17,14,1017,75,1,20140915180000
589,"Tongshan EPA, Xuzhou",,34.179384,117.171798,50,61,10,15,24,7,18,14,1018,75,3,20140915180000
590,Xuzhou,,34.20346,117.289825,72,61,10,19,30,14,17,14,1017,75,1,20140915180000
591,Yangzhou,,32.39233,119.418446,159,69,10,19,10,5,11,9,0,90,6,20140915180000
592,"Hanjiang Monitoring Station, Yangzhou",,32.374218,119.394484,124,45,19,6,4,3,19,18,0,93,3,20140915180000
593,"No. 4 Hospital, Yangzhou",,32.401394,119.44444,89,65,25,2,9,2,19,18,0,93,3,20140915180000
594,"City Monitoring Station, Yangzhou",,32.406588,119.41591,139,51,22,4,5,4,19,18,0,93,3,20140915180000
595,"University Town , Wuxi",,31.484752,120.273571,80,46,16,11,14,5,23,19,1014,78,3,20140915180000
596,"Shibei High School , Wuxi",,31.619969,120.279584,151,60,15,29,25,8,23,19,1014,78,3,20140915180000
597,"Yuhong Elementary School , Wuxi",,31.561155,120.249588,97,54,24,16,12,7,23,19,1014,78,3,20140915190000
598,Wuxi,,31.488746,120.31575,152,51,23,31,23,7,-,-,0,-,-,20140915190000
599,Changzhou,,31.808037,119.979205,172,86,6,22,36,13,11,9,0,88,5,20140915190000
600,"Chengjian School, Changzhou",,31.776476,119.937681,112,58,24,22,13,6,19,18,1003,92,3,20140915190000
601,"Changzhou Engineering Institute , Changzhou",,31.806828,119.966724,124,55,20,20,18,7,19,18,1003,92,3,20140915190000
602,"Wujin Monitoring Station, Changzhou",,31.701788,119.939676,119,56,20,21,20,7,19,18,1003,92,3,20140915190000
603,"City Monitoring Station, Changzhou",,31.777201,119.979426,134,59,20,30,20,7,19,18,1003,92,3,20140915190000
604,Zhenjiang,,32.18597,119.431281,170,79,4,39,15,13,9,8,0,93,5,20140915190000
605,"New District Administrative office , Zhenjiang",,32.186174,119.685021,114,80,29,13,7,8,22,20,1014,88,4,20140915190000
696,Taiyuan,,37.871115,112.555178,99,64,4,12,10,8,-,-,0,-,-,20140915190000
606,"Vocational Education Center , Zhenjiang",,32.212973,119.496253,82,46,30,15,3,5,22,20,1014,88,4,20140915190000
607,"Dantu Monitoring Station , Zhenjiang",,32.130026,119.435432,78,54,22,22,9,6,22,20,1014,88,4,20140915190000
608,"City Monitoring Station, Zhenjiang",,32.202178,119.439766,82,50,29,18,6,9,22,20,1014,88,4,20140915190000
609,"Gaogang Adminstrative office , Taizhoushi",,32.300768,119.886757,144,55,16,10,9,5,19,18,0,93,3,20140915190000
610,"Students Innovation Park , Taizhoushi",,32.461672,119.892761,152,40,32,3,10,3,19,18,0,93,3,20140915190000
611,Taizhoushi,,32.453555,119.927852,152,69,32,24,19,7,19,18,0,93,3,20140915190000
612,"Yancheng power station , Yancheng",,33.400859,120.123067,102,44,36,11,11,3,-,-,0,-,-,20140915190000
613,Yancheng,,33.345939,120.168504,144,52,30,5,3,7,11,10,1016,95,4,20140915190000
614,"Wenfeng Middle School , Yancheng",,33.370531,120.134041,91,35,35,12,10,6,-,-,0,-,-,20140915190000
615,"BDA Management Committe, Yancheng",,33.393191,120.22978,104,34,36,5,3,4,-,-,0,-,-,20140915190000
616,"City Monitoring Station, Yancheng",,33.390623,120.164423,89,45,34,6,3,4,19,18,0,93,3,20140915190000
617,Suqian,,33.960666,118.281004,160,87,24,7,5,7,11,10,0,91,6,20140915190000
618,"Suqian College , Suqian",,33.951472,118.298523,74,30,21,22,12,9,17,17,0,96,3,20140915190000
619,"Suqian Middle School , Suqian",,33.95784,118.249505,82,56,17,18,16,8,17,17,0,96,3,20140915190000
620,"Suyu District Environmental Protection Agency , Suqian",,33.94932,118.326569,104,52,22,4,6,10,17,17,0,96,3,20140915190000
621,"City Monitoring Station, Suqian",,33.956982,118.277022,93,46,14,8,13,8,17,17,0,96,3,20140915190000
622,Taizhou,,28.653436,121.425185,57,29,32,7,1,7,22,21,0,90,3,20140915190000
623,Donghu Liyuan,,30.572324,114.377844,34,8,10,1,0,6,22,20,1012,88,1,20140915190000
624,Yuehu Lake,,30.554662,114.256937,25,8,9,12,2,5,22,20,1012,88,1,20140915190000
625,Hankou Huaqiao ,,30.61724,114.287652,25,7,7,15,5,8,22,20,1012,88,1,20140915190000
626,Wuchang Ziyang ,,30.530801,114.309438,46,5,7,14,0,4,22,20,1012,88,1,20140915190000
627,Qingshan Ganghua,,30.622435,114.375599,55,10,11,15,6,6,22,20,1012,88,1,20140915190000
628,Dunkou Xinou,,30.480091,114.162176,59,6,8,6,4,8,22,20,1012,88,1,20140915190000
629,Donghu Gaoxin,,30.48095,114.40724,42,13,11,14,5,11,22,20,1012,88,1,20140915190000
630,Wujianshan,,30.63114,114.135907,13,8,13,0,0,6,21,20,1012,94,2,20140915190000
631,Yuanshun Road,,30.297142,113.858587,13,5,20,2,3,5,22,20,1012,88,1,20140915190000
632,Wuhan,,30.590689,114.310838,63,10,11,15,6,9,22,20,1012,88,1,20140915190000
1190,"Silingsan Factory, Yichang",,30.713288,111.306585,65,46,11,13,37,8,20,18,1013,84,1,20140915190000
633,Yichang,,30.689528,111.292131,134,50,16,17,52,10,20,18,1013,84,1,20140915190000
633,Yichang,,30.689528,111.292131,134,50,16,17,52,10,20,18,1013,84,1,20140915190000
1191,"City Library , Jingzhou",,30.31494,112.260844,38,17,9,9,4,10,18,17,1014,92,5,20140915190000
1192,"City committee communist party school, Jingzhou",,30.35054,112.20743,63,19,11,8,4,10,18,17,1014,92,5,20140915190000
1193,"kerong EPA, Jingzhou",,30.302965,112.29443,55,24,18,6,4,10,18,17,1014,92,5,20140915190000
634,Jingzhou,,30.332608,112.245451,63,24,18,9,4,10,18,17,1014,92,5,20140915190000
634,Jingzhou,,30.332608,112.245451,63,24,18,9,4,10,18,17,1014,92,5,20140915190000
635,Huangshi,,30.19723,115.043908,109,59,6,18,36,21,25,20,1011,81,6,20140915190000
635,Huangshi,,30.19723,115.043908,109,59,6,18,36,21,25,20,1011,81,6,20140915190000
1194,"Chenjiaying, Huangshi",,30.232823,115.067923,87,60,5,12,17,20,25,,1011,81,6,20140915190000
1195,"Chenjiawan , Huangshi",,30.200422,115.082138,109,59,5,15,36,21,25,,1011,81,6,20140915190000
1196,"Xinxialu, Huangshi",,30.17332,114.954357,102,58,4,34,23,25,25,,1011,81,6,20140915190000
1197,"Tie montian, Huangshi",,30.203885,114.906439,104,55,4,15,1,11,25,,1011,81,6,20140915190000
1198,"BDA, Huangshi",,30.207491,115.031739,109,55,6,17,20,20,25,,1011,81,6,20140915190000
636,Shiyan,,32.627208,110.803311,50,14,19,7,7,7,15,,1016,99,2,20140915190000
636,Shiyan,,32.627208,110.803311,50,14,19,7,7,7,15,,1016,99,2,20140915190000
1199,"Wudang Mountain , Shiyan",,32.392921,111.047655,-,8,18,2,2,6,15,,,99,2,20140915190000
1200,"Riverside Village , Shiyan",,32.647286,110.785335,50,13,19,5,4,7,15,,,99,2,20140915190000
1201,"Liujiagou , Shiyan",,32.636732,110.731129,25,16,12,12,10,2,15,,,99,2,20140915190000
637,Xiangyang,,32.007029,112.128496,57,13,12,7,7,8,17,,1016,98,6,20140915190000
637,Xiangyang,,32.007029,112.128496,57,13,12,7,7,8,17,,1016,98,6,20140915190000
638,Ezhou,,30.389244,114.899884,55,30,11,9,3,17,25,20,1021,97,5,20140915190000
638,Ezhou,,30.389244,114.899884,55,30,11,9,3,17,25,20,1021,97,5,20140915190000
1203,"City government, Ezhou",,30.391836,114.892822,50,15,7,9,3,14,25,,1019,85,5,20140915190000
1204,"Zhaojiaba, Ezhou",,30.368966,114.90365,55,30,5,9,3,17,25,,1019,85,5,20140915190000
1205,"Fankou BDA, Ezhou",,30.410759,114.818225,46,30,11,6,1,10,24,,1021,97,3,20140915190000
640,Xiaogan,,30.922089,113.922387,55,57,16,1,-,9,22,20,1012,88,1,20140915190000
640,Xiaogan,,30.922089,113.922387,55,57,16,1,-,9,22,20,1012,88,1,20140915190000
1206,"wenhua street, Shenyang , Xiaogan",,30.925856,113.92104,50,-,15,1,-,15,22,20,1012,88,1,20140915190000
1207,"Dongcheng District , Huludao , Xiaogan",,30.917963,113.943904,57,16,16,1,-,3,22,20,1012,88,1,20140915190000
641,Huanggang,,30.45124,114.877378,38,40,10,17,5,20,25,20,1021,97,5,20140915190000
641,Huanggang,,30.45124,114.877378,38,40,10,17,5,20,25,20,1021,97,5,20140915190000
1208,"Dazhou Island, Huanggang",,30.446205,114.900323,13,40,8,17,5,20,25,,1019,85,5,20140915190000
1209,"Workers Center , Huanggang",,30.469244,114.912504,38,18,10,5,2,6,25,,1019,85,5,20140915190000
642,Xianning,,29.838978,114.327898,95,50,5,13,9,17,24,20,983,85,2,20140915190000
642,Xianning,,29.838978,114.327898,95,50,5,13,9,17,24,20,983,85,2,20140915190000
1210,"Municipal Development and Reform Commission , Xianning",,29.818645,114.328461,89,43,5,9,9,17,24,,983,85,2,20140915190000
1211,"Xianan District Governement, Xianning",,29.51107,114.181864,82,55,4,13,5,20,25,,992,81,3,20140915190000
1212,"Yangtze River Industrial Park , Xianning",,29.883098,114.32909,95,47,3,13,1,16,24,,983,85,2,20140915190000
1213,"Qianshan Park, Xianning",,29.815351,114.328689,82,50,3,11,4,13,24,,983,85,2,20140915190000
643,Suizhou,,31.688342,113.388675,42,24,31,1,2,7,20,,1009,98,5,20140915190000
643,Suizhou,,31.688342,113.388675,42,24,31,1,2,7,20,,1009,98,5,20140915190000
1338,"City committee communist party school, Suizhou",,31.725316,113.3648,50,28,32,1,-,5,20,,1009,98,5,20140915190000
1339,"Forestry Bureau, Suizhou",,31.690065,113.383157,-,-,-,-,-,-,-,,0,-,-,20140915190000
1214,"Xiangcheng Yundong Street, Xiangfan",,32.017716,112.16102,57,13,12,7,7,8,17,,1016,98,5,20140915190000
655,"City Environmental Monitoring Station, Baotou",,40.657201,109.886738,151,87,10,19,15,9,,,0,,,20140915190000
656,"Donghe EPB, Baotou",,40.586213,110.002224,93,92,10,21,20,7,,,0,,,20140915190000
657,"Baotou shopping mall, Baotou",,40.508334,109.819085,137,81,13,14,12,8,,,0,,,20140915190000
658,"Huilong logistics, Baotou",,40.633436,109.879821,102,82,13,19,10,4,,,0,,,20140915190000
659,Baotou,,40.658597,109.846051,151,110,10,19,15,10,12,9,0,77,3,20140915190000
660,"Huatai Automobile Mall, Eerduosi",,39.837048,109.972209,57,30,42,7,4,6,12,9,1016,77,3,20140915190000
661,"Olympus Garden, Eerduosi",,39.789171,109.987742,82,55,43,10,5,9,12,9,1016,77,3,20140915190000
662,Eerduosi,,39.609284,109.78704,89,60,45,17,74,9,12,9,1016,77,3,20140915190000
663,"Tianyi Road, Chifeng",,42.275552,118.88507,68,54,28,14,24,3,7,-1,1021,48,1,20140915190000
664,"Songshan No.1 Middle School, Chifeng",,42.329307,118.793045,72,61,27,16,10,7,7,-1,1021,48,1,20140915190000
665,"Hada Street, Chifeng",,42.280714,118.988235,80,82,14,8,17,9,7,-1,1021,48,1,20140915190000
666,"Songshan Road, Chifeng",,42.171487,118.89501,109,100,33,8,20,7,7,-1,1021,48,1,20140915190000
667,Chifeng,,42.259752,118.893027,109,100,33,16,24,9,7,-1,1021,48,1,20140915190000
674,Fuzhou,,26.071406,119.301294,57,24,35,4,1,7,27,24,1008,84,9,20140915190000
675,"Xidong, Xiamen",,24.815345,118.161848,53,20,42,6,2,4,28,25,1007,84,2,20140915190000
676,"Hongwen, Xiamen",,24.473969,118.156281,46,30,34,7,1,3,28,25,1007,84,2,20140915190000
677,"Gulangyu, Xiamen",,24.443168,118.068571,61,39,35,10,3,7,28,25,1007,84,2,20140915190000
678,"Huli, Xiamen",,24.51235,118.099146,91,72,32,8,4,3,28,25,1007,84,2,20140915190000
679,Xiamen,,24.477187,118.094402,91,72,35,10,4,7,-,-,0,-,-,20140915190000
680,"Qingyuan Montain, Quanzhou",,24.939503,118.598337,50,14,21,4,3,4,28,25,1007,84,2,20140915190000
681,"Tushan Street, Quanzhou",,24.90867,118.586397,42,15,32,3,5,4,28,25,1007,84,2,20140915190000
682,"Wanan, Quanzhou",,24.304154,118.070903,42,17,28,2,1,1,28,25,1007,84,2,20140915190000
683,Quanzhou,,24.87179,118.68001,53,20,32,4,5,4,28,25,1007,84,2,20140915190000
687,"Jiancaoping, Taiyuan",,37.887889,112.528383,99,64,4,12,10,8,13,8,1020,72,2,20140915190000
688,"Jianhe, Taiyuan",,37.910779,112.579258,74,64,4,9,10,9,13,8,1020,72,2,20140915190000
689,"Shanglan, Taiyuan",,38.011589,112.440679,68,42,10,15,5,5,13,8,1020,72,2,20140915190000
690,"Jinyuan, Taiyuan",,37.713164,112.475552,91,48,3,11,13,6,13,9,1020,77,1,20140915190000
691,"Xiaodian, Taiyuan",,37.782137,112.483533,68,45,10,12,28,7,13,8,1020,72,2,20140915190000
692,"Taoyuan, Taiyuan",,37.869752,112.543332,89,62,6,3,10,10,13,9,1020,77,1,20140915190000
693,"Wucheng, Taiyuan",,37.819998,112.576252,93,71,6,12,10,10,13,8,1020,72,2,20140915190000
694,"Nanzhai, Taiyuan",,37.985902,112.555312,72,38,5,12,10,11,13,8,1020,72,2,20140915190000
695,"Jinsheng, Taiyuan",,37.781205,112.494494,85,51,8,12,41,8,13,8,1020,72,2,20140915190000
697,"Monitoring station, Changzhi",,36.194062,113.10389,63,20,17,11,6,5,14,14,0,100,4,20140915190000
698,"Auditing bureau, Changzhi",,36.212787,113.095221,59,21,15,25,7,12,14,14,0,100,4,20140915190000
699,"Qinghua station, Changzhi",,36.154328,113.116385,38,17,10,13,7,13,14,14,0,100,4,20140915190000
700,"No.8 middle school, Changzhi",,36.185451,113.099481,72,25,11,16,8,7,,,0,,,20140915190000
701,Changzhi,,36.195553,113.12292,72,25,11,16,8,7,13,13,0,97,1,20140915190000
702,"Yungang Hotel, Datong",,40.076997,113.278079,87,100,5,21,8,8,8,6,1021,85,1,20140915190000
703,"college of education, Datong",,40.085608,113.27808,159,73,10,16,34,31,8,6,1021,85,1,20140915190000
704,Datong,,40.078016,113.307143,93,100,5,22,16,36,8,6,1021,85,1,20140915190000
705,"Technical Schools, Linfen",,36.07131,111.509046,38,78,15,5,2,14,12,10,0,89,3,20140915190000
706,"Municipal party committee, Linfen",,36.087425,111.508771,25,13,13,1,3,13,12,10,0,90,3,20140915190000
1073,"City Monitoring Station, Linfen",,36.097676,111.518739,68,62,19,6,3,10,12,10,0,89,3,20140915190000
707,"South Airport, Linfen",,36.041614,111.497968,42,5,6,4,1,13,12,10,0,89,3,20140915190000
708,Linfen,,36.087944,111.525098,68,78,19,6,4,15,12,10,0,89,3,20140915190000
709,"City center, Yangquan",,37.848012,113.578636,76,72,5,14,44,6,13,9,1020,77,1,20140915190000
710,Yangquan,,37.857475,113.586921,132,110,15,108,44,15,13,9,1020,77,1,20140915190000
711,"Water Company, Jincheng",,35.504787,112.857245,107,38,11,25,6,24,13,13,1020,97,1,20140915190000
712,"Baiyun shopping mall, Jincheng",,35.492858,112.841566,42,32,7,17,7,14,13,13,1020,97,1,20140915190000
713,"City EPA, Jincheng",,35.488422,112.858528,53,46,7,18,5,24,13,13,1020,97,1,20140915190000
714,"Institute of Technology, Jincheng",,35.484844,112.878073,85,73,10,20,15,27,13,13,1020,97,1,20140915190000
715,"No.1 middle school, Jincheng",,35.478725,112.838636,50,20,6,12,6,10,13,13,1020,97,1,20140915190000
716,Jincheng,,35.490287,112.85794,55,73,6,25,15,9,12,12,1019,100,1,20140915190000
718,"District Government, Shuozhou",,39.320857,112.430641,21,68,14,22,34,22,16,8,1020,47,1,20140915190000
719,"City EPA, Shuozhou",,39.331495,112.407997,61,33,11,15,4,22,11,8,1019,73,1,20140915190000
720,"No.2 middle school, Shuozhou",,39.377963,112.432877,132,102,12,32,40,10,11,8,1019,73,1,20140915190000
721,Shuozhou,,39.332756,112.439672,159,102,14,32,52,22,11,8,1019,73,1,20140915190000
722,"Jinlun compound, Jinzhong",,37.697891,112.771017,63,28,5,6,11,6,13,8,1020,72,2,20140915190000
723,"Hydraulic Component Factory, Jinzhong",,37.688355,112.725844,57,43,4,20,10,6,13,8,1020,72,2,20140915190000
724,"Nandu compound, Jinzhong",,37.713148,112.732036,68,44,2,6,2,7,13,8,1020,72,2,20140915190000
725,"Yuci district government, Jinzhong",,37.698228,112.714167,46,40,5,7,4,6,13,9,1020,77,1,20140915190000
726,Jinzhong,,37.687705,112.759187,68,44,5,6,11,7,13,8,1020,72,2,20140915190000
727,"Yuncheng Middle School, Yuncheng",,35.012345,111.003215,50,34,18,4,7,24,15,14,1018,95,2,20140915190000
728,"Yudou BDA, Yuncheng",,35.05065,111.029571,38,48,13,5,2,12,15,14,1018,95,2,20140915190000
730,"Regional Technical School, Yuncheng",,35.028727,110.974076,91,38,12,9,-,14,15,14,1018,95,2,20140915190000
731,"Airport new district, Yuncheng",,35.084515,111.05339,70,44,16,3,14,30,15,14,1018,95,2,20140915190000
732,Yuncheng,,35.025675,111.013344,70,48,18,9,14,30,-,-,0,-,-,20140915190000
733,"Jiyin, Xinzhou",,38.413292,112.742432,104,56,7,21,34,14,13,9,1020,77,1,20140915190000
734,"BDA, Xinzhou",,38.450069,112.736723,114,42,6,5,7,14,13,9,1020,77,1,20140915190000
735,"Convention Center, Xinzhou",,38.492043,112.709772,76,44,7,9,33,15,13,9,1020,77,1,20140915190000
736,Xinzhou,,38.417244,112.740742,114,56,7,21,34,14,13,9,1020,77,1,20140915190000
737,"City EPA, Luliang",,37.522189,111.144365,107,58,3,17,24,19,20,17,0,76,1,20140915190000
738,"Soybean factory, Luliang",,37.51689,111.135101,-,-,-,-,-,-,-,-,0,-,-,20140915190000
739,"Water Company, Luliang",,37.53394,111.138834,72,67,5,20,37,24,20,17,0,76,1,20140915190000
740,Luliang,,25.027007,103.668566,107,67,5,20,37,24,20,17,0,76,1,20140915190000
741,"City government, Sanmenxia",,34.776251,111.198781,30,11,12,12,4,6,15,14,1018,95,2,20140915190000
743,"BDA, Sanmenxia",,34.800434,111.204332,74,32,9,19,19,5,15,14,1018,95,2,20140915190000
744,Sanmenxia,,34.771506,111.206129,87,57,11,19,19,17,15,14,1018,95,2,20140915190000
745,"Food Factory, Changchun",,43.919094,125.329521,61,62,7,13,4,5,9,1,1017,58,3,20140915190000
746,"Bus Factory, Changchun",,43.912337,125.293431,61,52,7,12,5,4,9,1,1017,58,3,20140915190000
747,"Institute of Posts and Telecommunications, Changchun",,43.842368,125.285005,65,60,2,25,3,5,9,1,1017,58,3,20140915190000
748,"Laodong Park, Changchun",,43.877293,125.371519,55,49,4,17,8,9,9,1,1017,58,3,20140915190000
749,"Forest area, Changchun",,43.871825,125.331519,68,51,5,13,4,5,9,1,1017,58,3,20140915190000
750,"Jinyuetan, Changchun",,43.79031,125.460561,154,42,10,14,1,4,9,1,1017,58,3,20140915190000
751,"Shuaiwanzi, Changchun",,43.552321,125.639086,-,-,-,-,-,-,-,-,0,-,-,20140915190000
752,"Economic Development Zone Sanitation Department, Changchun",,43.869221,125.42365,68,62,3,19,4,5,9,1,1017,58,3,20140915190000
753,"High-tech Zone Administrative Committee, Changchun",,43.819064,125.256375,74,74,3,16,3,4,9,1,1017,58,3,20140915190000
754,"Daishan Park, Changchun",,43.852365,125.223399,57,49,11,13,2,4,9,1,1017,58,3,20140915190000
755,Changchun,,43.819415,125.329977,65,60,4,25,8,9,-,-,0,-,-,20140915190000
756,"Hadawan, Jilin",,43.888081,126.545727,91,85,21,28,7,6,4,-2,0,63,2,20140915190000
757,"Fengman, Jilin",,43.768169,126.678802,30,33,24,2,3,3,4,-2,0,63,2,20140915190000
758,"Electric Power College, Jilin",,43.827403,126.502281,57,43,15,17,1,3,4,-2,0,63,2,20140915190000
759,"Jiangnan Park, Jilin",,43.83531,126.556519,38,33,13,15,3,3,4,-2,0,63,2,20140915190000
760,"Dongjuzi, Jilin",,43.838597,126.590068,38,51,10,11,3,5,4,-2,0,63,2,20140915190000
763,Jilin,,43.840137,126.555262,91,85,29,28,7,6,4,-2,0,63,2,20140915190000
764,"Lingbei, Haerbin",,45.756979,126.548008,55,42,23,23,5,5,7,4,1014,81,4,20140915190000
765,"Songbei Commercial University, Haerbin",,45.818624,126.566963,46,34,3,15,6,2,7,4,1014,81,4,20140915190000
766,"Acheng huining, Haerbin",,45.544286,126.985183,55,19,23,2,4,5,7,4,1014,81,4,20140915190000
767,"Nangang College Street, Haerbin",,45.724121,126.604906,74,41,24,18,6,2,7,4,1014,81,4,20140915190000
768,"Taiping Hongwei Park, Haerbin",,45.775332,126.695101,161,19,22,18,4,4,7,4,1014,81,4,20140915190000
769,"Daowai Chengde Square, Haerbin",,45.768637,126.640955,74,37,22,18,3,1,7,4,1014,81,4,20140915190000
770,"Xiangfang Hongqi Street, Haerbin",,45.733936,126.691083,46,31,-,6,5,6,7,4,1014,81,4,20140915190000
771,"Dongli Heping Road, Haerbin",,45.727765,126.651974,63,40,23,24,8,4,7,4,1014,81,4,20140915190000
772,"Daoli Jianguo Road, Haerbin",,45.749715,126.59891,53,31,24,20,12,2,7,4,1014,81,4,20140915190000
773,"Pingfang Light Factory, Haerbin",,45.611951,126.620898,59,19,23,11,4,5,7,4,1014,81,4,20140915190000
774,"Hulan Normal College, Haerbin",,45.983745,126.616553,59,15,25,9,6,4,7,4,1014,81,4,20140915190000
775,"Provincial Academy of Agricultural Sciences, Haerbin",,45.686141,126.626517,61,40,25,18,9,4,7,4,1014,81,4,20140915190000
776,Haerbin,,45.805757,126.541007,55,42,23,15,6,5,-,-,0,-,-,20140915190000
777,"Anju Compound, Qiqihaer",,47.365672,123.937016,9,273,25,9,4,3,7,3,1014,72,1,20140915190000
778,"Farming Vehicule Factory, Qiqihaer",,47.326793,123.961427,34,13,23,1,5,5,7,3,1014,72,1,20140915190000
779,"Fuqu EPA, Qiqihaer",,47.1853,123.62322,158,26,27,3,9,6,7,3,1014,72,1,20140915190000
780,"City Center Square, Qiqihaer",,47.343096,123.96192,34,10,15,2,3,4,7,3,1014,72,1,20140915190000
1217,"City Environmental Monitoring Station, Qiqihaer",,47.303639,123.957551,42,35,19,6,4,2,7,3,1014,72,1,20140915190000
781,Qiqihaer,,47.356387,123.924736,158,273,27,9,9,6,7,3,1014,72,1,20140915190000
782,"Saertu District, Daqing",,46.582368,125.152904,50,19,23,6,6,2,9,5,1014,64,1,20140915190000
783,"Datong District, Daqing",,46.036786,124.842115,42,16,26,2,5,3,9,3,1012,56,1,20140915190000
784,"Honggang District, Daqing",,46.418381,124.88973,42,10,21,4,4,2,9,5,1014,64,1,20140915190000
785,"Longfeng District, Daqing",,46.535426,125.107043,42,29,24,18,10,4,9,5,1014,64,1,20140915190000
786,"Ranghulu District, Daqing",,46.635123,124.85648,68,20,26,6,5,2,9,5,1014,64,1,20140915190000
787,Daqing,,46.591414,125.110838,65,34,26,14,10,4,9,3,1012,56,1,20140915190000
788,"Locomotive Factory, Mudanjiang",,44.610589,129.652672,82,53,29,10,2,5,7,1,1014,55,2,20140915190000
789,"No. 1 hospital, Mudanjiang",,44.567775,129.617043,61,37,25,10,1,3,7,1,1014,55,2,20140915190000
1220,"EPA building, Mudanjiang",,44.567777,129.620658,65,43,9,9,1,4,7,1,1014,55,2,20140915190000
1221,"Cultural Square, Mudanjiang",,44.586388,129.623164,80,44,5,12,5,4,7,1,1014,55,2,20140915190000
790,Mudanjiang,,44.553619,129.640246,102,72,29,17,11,6,8,1,1013,50,1,20140915190000
791,"Mingzhu Plaza, Hefei",,31.782847,117.201512,95,51,32,8,10,7,21,20,1014,94,3,20140915190000
792,"Sanli Street, Hefei",,31.874637,117.312573,78,24,28,13,6,5,21,20,1013,94,2,20140915190000
793,"Hupo Compound, Hefei",,31.868583,117.264491,74,24,23,4,8,4,21,20,1014,94,3,20140915190000
794,"Dongpu Reservoir, Hefei",,31.90319,117.165584,91,40,34,6,3,2,21,20,1014,94,3,20140915190000
795,"Changjiang middle road, Hefei",,31.855185,117.255484,80,28,6,6,3,6,21,20,1014,94,3,20140915190000
796,"Luyang District, Hefei",,31.941771,117.271504,97,44,6,1,15,4,21,20,1014,94,3,20140915190000
797,"Yaohai District, Hefei",,31.856595,117.341644,95,30,17,1,8,5,21,20,1014,94,3,20140915190000
798,"Baohe District, Hefei",,31.793644,117.307554,152,54,3,2,1,12,21,20,1014,94,3,20140915190000
799,"Lake district, Hefei",,31.736619,117.283501,104,50,20,7,2,2,21,20,1014,94,3,20140915190000
800,"High-tech zone, Hefei",,31.849755,117.129624,87,48,9,7,9,3,21,20,1014,94,3,20140915190000
801,Hefei,,31.819449,117.232753,95,28,32,8,10,7,-,-,0,-,-,20140915190000
802,"Hudong Road No.4 Elementary School, Maanshan",,31.684121,118.511017,85,29,61,11,8,7,22,20,1014,88,4,20140915190000
803,"Tianping Garment Factory, Maanshan",,31.64197,118.488043,89,40,97,11,12,6,22,20,1014,88,4,20140915190000
804,"City education base, Maanshan",,31.711216,118.648913,78,25,39,2,9,2,22,20,1014,88,4,20140915190000
805,"Cihu No.2 elementary school, Maanshan",,31.748546,118.515729,87,50,84,11,13,6,22,20,1014,88,4,20140915190000
806,"Maanshan steel factory power plant, Maanshan",,31.690864,118.48528,85,27,42,6,9,6,22,20,1014,88,4,20140915190000
807,Maanshan,,31.668461,118.511939,89,50,97,11,13,7,22,20,1014,88,4,20140915190000
808,"Science Innovation Center, Wuhu",,31.417056,118.375406,72,28,14,9,2,9,20,19,1014,94,2,20140915190000
809,"No.4 Water Plant, Wuhu",,31.315914,118.376231,68,24,14,14,3,12,20,19,1014,94,2,20140915190000
810,"Monitoring station, Wuhu",,31.348955,118.358154,74,58,12,11,3,5,20,19,1014,94,2,20140915190000
811,"Wuqierling Factory, Wuhu",,31.382068,118.407639,72,31,19,9,3,5,20,19,1014,94,2,20140915190000
812,Wuhu,,31.351007,118.438322,74,58,19,14,3,12,20,19,1014,94,2,20140915190000
1331,Chuzhou,,32.299549,118.322508,-,-,-,-,-,-,-,21,0,-,-,20140915190000
813,"Jiangxi Foreign Affairs Office, Nanchang",,28.678027,115.903436,157,74,27,2,4,3,26,23,1010,84,2,20140915190000
814,"Provincial forestry company, Nanchang",,28.69065,115.898546,132,59,27,1,3,7,26,23,1010,84,2,20140915190000
815,"Institute of Forestry, Nanchang",,28.731518,115.82478,95,50,32,1,4,9,26,23,1010,84,2,20140915190000
816,"Jingdong town government, Nanchang",,28.680659,115.972736,95,59,36,1,2,11,26,23,1010,84,2,20140915190000
817,"Contruction Industry College, Nanchang",,28.684018,115.865891,91,49,29,9,14,9,26,23,1010,84,2,20140915190000
818,"Xianghu, Nanchang",,28.637831,115.9033,153,50,34,11,5,10,26,23,1010,84,2,20140915190000
819,"Martial Arts School, Nanchang",,28.794538,115.752876,-,-,-,-,-,-,-,-,0,-,-,20140915190000
820,"Petrifaction Company, Nanchang",,28.608634,115.912999,124,68,30,2,2,10,26,23,1010,84,2,20140915190000
821,"Provincial Station, Nanchang",,28.677155,115.941896,107,61,35,2,2,8,26,23,1010,84,2,20140915190000
822,Nanchang,,28.679883,115.863022,157,74,36,11,14,11,26,23,1010,84,2,20140915190000
823,"Lushan Mountain Observatory, Jiujiang",,29.5751,115.998926,57,18,29,21,2,7,18,18,1011,100,6,20140915190000
824,"Shili, Jiujiang",,29.668119,115.992381,93,42,26,8,10,5,18,18,1011,100,6,20140915190000
825,"Maoshantou, Jiujiang",,29.700819,115.967192,-,-,-,-,-,-,-,-,0,-,-,20140915190000
826,"Xiyuan, Jiujiang",,29.723929,115.998206,70,34,23,7,6,3,18,18,1011,100,6,20140915190000
827,"Wuqierling Factory, Jiujiang",,29.640802,116.022713,82,41,29,6,18,2,18,18,1011,100,6,20140915190000
828,"Water Scientific Research Institute, Jiujiang",,29.679179,116.068081,74,28,24,6,5,5,18,18,1011,100,6,20140915190000
829,"Zonghe Industrial Park, Jiujiang",,29.592047,115.916335,80,30,27,8,9,4,18,18,1011,100,6,20140915190000
830,"Petrochemical General Plant, Jiujiang",,29.738832,116.09463,97,45,22,6,4,5,18,18,1011,100,6,20140915190000
831,Jiujiang,,29.70254,116.007025,97,45,26,8,10,5,18,18,1011,100,6,20140915190000
1332,"Feiyu, Xinyu",,27.844697,115.000136,-,-,-,-,-,,-,,0,-,-,20140915190000
1333,"Beigang, Xinyu",,27.932491,115.103767,-,-,-,-,-,,-,,0,-,-,20140915190000
1334,"No.2 water factory, Xinyu",,27.839577,114.933915,-,-,-,-,-,,-,,0,-,-,20140915190000
1335,"Bureau of Meteorology, Xinyu",,27.81048,114.936507,-,-,-,-,-,,-,,0,-,-,20140915190000
1336,Xinyu,,27.814351,114.922194,-,-,-,-,-,12,-,24,0,-,-,20140915190000
832,"Tobacco Factory, Zhengzhou",,34.753419,113.687131,50,15,18,9,4,13,14,14,1018,100,4,20140915190000
833,"Textile Machinery Factory, Zhengzhou",,34.773366,113.647067,55,18,8,10,6,9,14,14,1018,100,4,20140915190000
834,"Banking College, Zhengzhou",,34.800856,113.681126,53,13,14,11,9,9,14,14,1018,100,4,20140915190000
835,"Water Supply Company, Zhengzhou",,34.807188,113.571089,70,24,18,12,8,14,14,14,1018,100,4,20140915190000
836,"Economic Development Zone Management Committee, Zhengzhou",,34.717652,113.733182,42,15,13,8,5,8,14,14,1018,100,4,20140915190000
837,"No. 47 middle school, Zhengzhou",,34.772211,113.74009,46,9,20,12,5,3,14,14,1018,100,4,20140915190000
838,"City Monitoring Station, Zhengzhou",,34.748404,113.60514,55,-,15,14,7,12,14,14,1018,100,4,20140915190000
839,"Henan Medical University, Zhengzhou",,34.752637,113.641658,42,15,15,9,7,6,14,14,1018,100,4,20140915190000
840,"Gangli Reservoir, Zhengzhou",,34.952652,113.64248,59,18,12,13,10,8,14,14,1018,100,4,20140915190000
841,Zhengzhou,,34.745417,113.631415,55,15,15,14,7,12,-,-,0,-,-,20140915190000
842,"Henan University No.1 Hospital, Kaifeng",,34.799302,114.352706,59,32,19,9,6,11,14,14,1018,100,4,20140915190000
843,"Maternity And Child Hospital, Kaifeng",,34.795803,114.386103,63,20,13,6,5,16,14,14,1018,100,4,20140915190000
844,"Cancer Hospital, Kaifeng",,34.775428,114.350292,68,23,14,9,8,13,14,14,1018,100,4,20140915190000
845,"Yellow River Conservancy Institute, Kaifeng",,34.826066,114.324772,65,24,32,9,32,19,13,13,1018,100,4,20140915190000
846,"Shijixing Kindergarden, Kaifeng",,34.793606,114.302744,65,20,9,6,6,13,14,14,1018,100,4,20140915190000
847,Kaifeng,,34.796346,114.313426,68,32,19,9,8,13,14,14,1018,100,4,20140915190000
852,Jiaozuo,,35.215381,113.248188,89,43,15,18,51,7,13,13,1018,100,4,20140915190000
853,"Cotton Research Institute, Anyang",,36.081435,114.486451,87,51,2,1,9,26,14,12,1019,85,2,20140915190000
854,"Hongmiao Street, Anyang",,36.086733,114.326,87,34,4,12,15,32,14,12,1019,85,2,20140915190000
855,"Yinxing Compound, Anyang",,36.056519,114.36495,65,56,7,17,8,18,14,12,1019,85,2,20140915190000
856,"Tiefo Temple, Anyang",,36.110041,114.309309,13,35,9,12,7,28,14,12,1019,85,2,20140915190000
857,Anyang,,36.097767,114.398846,124,58,9,22,15,32,14,12,1019,85,2,20140915190000
858,"City Monitoring Station, Luoyang",,34.669055,112.439633,76,38,17,8,8,3,12,,1019,100,3,20140915190000
859,"BDA Management Committee, Luoyang",,34.622084,112.390759,34,16,20,6,1,9,16,,1019,100,5,20140915190000
860,"New municipal office, Luoyang",,34.623745,112.432973,13,6,26,16,6,19,12,,1019,100,3,20140915190000
861,"City committee communist party school, Luoyang",,34.650169,112.400212,70,25,21,12,5,7,12,,1019,100,3,20140915190000
862,"Henan Forestry College, Luoyang",,34.685566,112.509429,63,20,30,12,2,5,16,,1019,100,5,20140915190000
863,"CITIC No.2 Elementary School, Luoyang",,34.668212,112.36907,50,14,24,6,5,11,16,,1019,100,5,20140915190000
864,"Yuxi Hotel, Luoyang",,34.685949,112.472611,82,14,13,9,11,17,12,,1019,100,3,20140915190000
865,Luoyang,,34.617424,112.46054,82,20,30,12,11,17,12,12,1019,100,3,20140915190000
866,"City Planning Design Institute, Pingdingshan",,33.7352,113.297916,46,12,16,17,6,8,13,13,1018,100,4,20140915190000
867,"Xinhua Hotel, Pingdingshan",,33.737754,113.328814,42,14,19,12,8,8,13,13,1018,100,4,20140915190000
868,"Engineering College, Pingdingshan",,33.772474,113.188235,70,19,17,14,8,6,13,13,1018,100,4,20140915190000
869,"High Voltage Switchgear Factory, Pingdingshan",,33.719941,113.312665,68,19,15,11,11,9,13,13,1018,100,4,20140915190000
870,Pingdingshan,,33.764754,113.199082,70,19,19,17,11,9,13,13,1018,100,4,20140915190000
1303,"City Monitoring Station, Hebi",,35.748411,114.313927,21,11,13,3,25,2,16,,1024,96,4,20140915190000
1304,"BDA, Xinxiang",,35.281373,113.908605,42,22,8,19,10,4,13,,1004,99,1,20140915190000
1305,"Environment protection office, Puyang",,35.851321,115.512901,13,62,6,26,24,12,17,,1028,100,2,20140915190000
1306,"BDA, Xuchang",,33.998574,113.802968,25,11,14,14,3,13,14,,1018,100,4,20140915190000
1307,"Monitoring station, Xuchang",,34.011362,113.838373,46,12,11,12,3,11,14,,1018,100,4,20140915190000
1308,"Environment protection office, Xuchang",,34.032831,113.827116,65,24,3,9,2,12,14,,1018,100,4,20140915190000
1309,"Environment protection office, Nanyang",,32.532094,112.371764,13,24,15,7,3,5,17,,1016,98,5,20140915190000
1310,"Weather Monitoring Station, Nanyang",,32.988834,112.534165,21,6,22,5,4,7,18,,1010,98,6,20140915190000
1311,"Environmental Monitoring Station, Shangqiu",,34.412805,115.661879,13,6,-,9,3,-,18,,1026,99,4,20140915190000
1312,"City Environmental Monitoring Station, Zhoukou",,33.609533,114.672682,65,25,28,2,4,16,18,,1024,98,5,20140915190000
