locationid,stationname,chinesename,latitude,longitude,pm25,pm10,o3,no2,so2,co,temperature,dewpoint,pressure,humidity,wind,est_time
134,Yantian,,22.587949,114.266899,99,40,38,9,6,10,26,21,1015,74,2,20141020170000
1,Dongcheng Dongsi,,39.9304,116.423239,94,118,13,19,5,15,14,9,1024,72,2,20141020170000
2,"Temple of Heaven, Dongcheng",,39.887403,116.41324,145,122,10,19,6,13,14,9,1024,72,2,20141020170000
3,West Park officials,,39.930333,116.345162,153,139,16,23,6,16,14,9,1024,72,2,20141020170000
4,West Wanshou Nishinomiya,,39.879354,116.358183,141,126,11,24,3,15,14,9,1024,72,2,20141020170000
5,Chaoyang Olympic Sports Center,,39.983406,116.403253,152,162,11,25,6,14,14,9,1024,72,2,20141020170000
6,Chaoyang Agricultural Exhibition Hall,,39.938331,116.46715,154,150,12,24,4,13,14,9,1024,72,2,20141020170000
7,Haidian Wanliu,,39.988245,116.293062,198,145,-,44,5,-,14,9,1024,72,2,20141020170000
8,The Haidian northern New Area,,40.091313,116.180194,205,-,11,34,12,15,14,9,1024,72,2,20141020170000
9,Haidian Beijing Botanical Garden,,40.003252,116.213097,193,-,26,33,7,15,14,9,1024,72,2,20141020170000
10,Fengtai garden,,39.86423,116.285037,162,-,13,20,7,15,14,9,1024,72,2,20141020170000
11,Fengtai Yungang,,39.82535,116.152237,198,-,13,20,5,15,14,9,1024,72,2,20141020170000
12,Shijingshan city,,39.915286,116.190144,185,140,18,34,6,16,14,9,1024,72,2,20141020170000
13,"Fangshan, Liangxiang",,39.743357,116.14225,158,-,10,17,4,13,14,9,1024,72,2,20141020170000
14,"Huangcunzhen, Daxing",,39.719389,116.410219,171,-,4,26,6,14,14,9,1024,72,2,20141020170000
15,BDA,,39.796197,116.51197,131,-,13,17,6,13,14,9,1024,72,2,20141020170000
16,Tongzhou New Town,,39.887113,116.6689,136,-,4,27,6,12,14,9,1024,72,2,20141020170000
17,Shunyi New Town ,,40.128111,116.660908,160,142,10,25,4,15,14,9,1024,72,2,20141020170000
18,Changping Town,,40.218245,116.236084,212,149,2,54,8,22,14,9,1024,72,2,20141020170000
19,"Mentougou, Longquan Town",,39.938397,116.112323,179,-,17,23,6,15,14,9,1024,72,2,20141020170000
20,Pinggu town,,40.144433,117.106563,155,-,14,37,24,20,14,9,1024,72,2,20141020170000
21,Huairou town,,40.329104,116.63387,178,114,22,24,3,15,14,9,1024,72,2,20141020170000
22,The town of Miyun,,40.371186,116.838053,188,139,23,20,7,17,14,9,1024,72,2,20141020170000
23,Yanqing town,,40.454217,115.978106,272,-,27,30,2,16,14,9,1024,72,2,20141020170000
24,Changping Dingling,,40.293269,116.226108,244,181,22,30,3,14,14,9,1024,72,2,20141020170000
25,Badaling Northwest,,40.36623,115.994146,264,-,26,45,8,15,14,9,1024,72,2,20141020170000
26,Miyun Reservoir,,40.500157,116.91701,209,-,37,8,7,17,14,9,1024,72,2,20141020170000
27,"Donggaocun Zhen, Pinggu",,40.10142,117.126556,154,-,21,42,23,19,14,9,1024,72,2,20141020170000
28,"Yongledianzhen, Tongzhou",,39.713192,116.78905,94,-,8,23,5,9,14,9,1024,72,2,20141020170000
29,"Yufazhen, Daxing",,39.521203,116.306026,115,-,7,10,5,11,14,9,1024,72,2,20141020170000
30,"Liulihezhen, Fangshan",,39.581169,116.006089,159,178,12,13,4,8,14,9,1024,72,2,20141020170000
31,"Qianmen E St, Dongcheng",,39.900402,116.401242,160,-,4,23,2,15,14,9,1024,72,2,20141020170000
32,Yongdingmen Inner St,,39.877401,116.400238,13,-,5,27,7,15,14,9,1024,72,2,20141020170000
33,Xizhimen N St,,39.955352,116.355187,161,-,-,-,-,-,14,9,1024,72,2,20141020170000
34,South Ring Road,,39.857377,116.37421,199,-,1,37,4,19,14,9,1023,72,2,20141020170000
35,East Fourth Ring Road,,39.940273,116.489075,-,124,-,-,-,-,-,-,0,-,-,20141020170000
36,Beijing,,39.955906,116.474246,154,166,12,24,4,13,14,9,1023,72,2,20141020170000
37,Putuo,,31.232979,121.415378,138,58,31,34,8,6,22,19,1013,83,2,20141020170000
38,Yangpu Sipiao,,31.263795,121.540311,155,65,30,26,9,11,22,19,1013,83,2,20141020170000
39,Shanghai Normal College Primary Division,,31.199031,121.487719,154,73,29,40,5,11,22,19,1013,83,2,20141020170000
40,Dianshan Lake,,31.091338,120.982293,163,66,29,41,8,6,22,19,1013,83,2,20141020170000
41,Hongkou Liangcheng,,31.298906,121.47155,132,53,38,30,8,13,22,19,1013,83,2,20141020170000
42,Jingan,,31.224251,121.429637,135,59,34,29,9,8,22,19,1013,83,2,20141020170000
43,Shanghai Normal University,,31.163531,121.416643,147,67,28,36,7,7,22,19,1013,83,2,20141020170000
44,Chuansha,,31.188626,121.707342,22,43,33,12,6,6,22,19,1013,83,2,20141020170000
45,Zhangjiang,,31.204896,121.581215,102,43,41,14,4,6,22,19,1013,83,2,20141020170000
46,Lingshan Road,,31.226286,121.537317,124,55,38,27,9,6,22,19,1013,83,2,20141020170000
1080,City average,,31.228451,121.478227,126,58,33,27,7,8,22,19,1013,83,2,20141020170000
47,Shanghai,,31.202842,121.453493,154,73,34,40,9,11,22,19,1013,83,2,20141020170000
48,Guangzhou,,23.138517,113.263701,129,62,31,38,15,10,27,21,1015,70,1,20141020170000
49,"Huadu town, Guangzhou",,23.389121,113.220062,151,71,34,24,13,4,26,21,1015,74,0,20141020170000
50,"Luogang Zhenlong, Guangzhou",,23.308027,113.567032,160,81,47,23,7,6,26,21,1015,74,0,20141020170000
51,"LuHu, Guangzhou",,23.151743,113.281842,127,47,30,30,16,8,26,21,1015,74,0,20141020170000
52,"Tianhu, Guangzhou",,23.647433,113.629715,104,56,156,14,11,8,26,21,1015,74,0,20141020170000
53,"Zhudong, Guangzhou",,23.418406,113.078552,156,83,62,38,14,9,26,21,1015,74,0,20141020170000
54,"Modiesha station, Guangzhou",,23.103814,113.338238,99,79,25,35,9,3,26,21,1015,74,0,20141020170000
55,Zhuhai,,22.2677,113.581765,137,55,41,12,9,14,26,23,1015,83,3,20141020170000
1075,"Huicai technical school, Foshan",,23.039667,113.105492,132,57,46,18,16,5,27,21,1015,70,0,20141020170000
56,"Sanshuiyun donghai, Foshan",,23.185788,112.865368,151,62,46,27,23,8,27,21,1015,70,0,20141020170000
57,"Nanhai Bureau of Meteorology, Foshan",,23.046836,113.145764,119,56,36,16,10,9,27,21,1015,70,0,20141020170000
58,"Sanshui Monitoring Station, Foshan",,23.163551,112.890843,147,54,43,22,13,6,27,21,1015,70,0,20141020170000
1087,Foshan,,23.018995,113.126899,132,58,46,18,16,9,27,21,1015,70,0,20141020170000
59,"Ronggui street committee, Shunde",,22.762729,113.258356,119,58,31,10,7,9,27,21,1015,70,0,20141020170000
60,Shunde,,22.80246,113.298701,119,58,32,19,15,9,-,-,0,-,-,20141020170000
61,"Donghu, Jiangmen",,22.590411,113.087351,109,49,36,12,5,2,26,23,1015,83,3,20141020170000
62,"Taoyuan Atmosphere Premier Station, Jiangmen",,22.72489,112.93404,95,57,36,11,7,6,26,23,1015,83,3,20141020170000
63,Jiangmen,,22.576047,113.087351,119,54,36,12,14,9,26,22,1015,78,2,20141020170000
64,"Kengkouzi station, Zhaoqing",,23.158865,112.570287,124,57,51,14,11,9,27,21,1015,70,0,20141020170000
65,"Mugangzi station, Zhaoqing",,23.067961,112.431934,107,52,40,28,13,7,27,21,1015,70,0,20141020170000
67,Zhaoqing,,23.044571,112.470346,132,54,44,28,13,7,27,21,1015,70,0,20141020170000
68,"Jinguo Bay, Huizhou",,22.937223,114.385567,87,51,44,6,4,5,26,21,1015,74,2,20141020170000
1091,"Xiabu, Huizhou",,23.077493,114.410275,132,65,34,12,5,6,26,21,1015,74,2,20141020170000
69,"Xijiao, Huizhou",,23.338178,114.112867,132,54,37,11,52,8,26,21,1015,74,2,20141020170000
70,"Jiangbei, Huizhou",,23.111706,114.415274,134,82,45,30,5,9,26,21,1015,74,2,20141020170000
71,"Huiyang chuanhu, Huizhou",,22.814485,114.329292,99,52,41,11,5,7,26,21,1015,74,2,20141020170000
72,"Daya bay management committee, Huizhou",,22.739283,114.53631,112,63,42,13,5,4,26,21,1015,74,2,20141020170000
73,Huizhou,,23.109349,114.421164,134,82,45,30,7,9,26,21,1015,74,2,20141020170000
74,"Guancheng No.2 water plant, Dongguan",,23.057294,113.753254,142,68,65,27,10,7,26,21,1015,74,2,20141020170000
75,"Dongcheng Shijing, Dongguan",,23.010039,113.799529,132,58,42,33,7,5,26,21,1015,74,2,20141020170000
76,"Nancheng Xiping, Dongguan",,22.963051,113.743494,147,57,39,27,10,5,26,21,1015,74,2,20141020170000
77,"Nancheng Yuanling, Dongguan",,23.025058,113.751308,142,53,66,27,12,7,26,21,1015,74,2,20141020170000
78,Dongguan,,23.017813,113.756958,147,68,66,33,12,9,26,21,1015,74,2,20141020170000
79,"Zimaling, Zhongshan",,22.505112,113.407183,132,54,27,21,8,10,26,23,1015,83,3,20141020170000
80,"Yangtze River tourist area, Zhongshan",,22.48589,113.439054,85,38,28,4,2,12,26,22,1015,78,3,20141020170000
81,"Huabai Park, Zhongshan",,22.51839,113.374362,151,53,13,17,6,15,26,23,1015,83,3,20141020170000
82,Zhongshan,,22.513997,113.398277,151,55,33,27,8,15,26,23,1015,83,3,20141020170000
83,"No.8 middle school, Shaoguan",,24.767777,113.583537,180,85,49,30,19,7,25,18,1015,58,2,20141020170000
83,"No.8 middle school, Shaoguan",,24.767777,113.583537,180,85,49,30,19,7,25,18,1015,58,2,20141020170000
84,"Forest area, Shaoguan",,24.796106,113.612131,169,93,48,16,29,14,25,18,1015,58,2,20141020170000
84,"Forest area, Shaoguan",,24.796107,113.612131,169,93,48,16,29,14,25,18,1015,58,2,20141020170000
86,"Shaoguan University, Shaoguan",,24.790864,113.646599,158,82,95,14,14,18,25,18,1015,58,2,20141020170000
86,"Shaoguan University, Shaoguan",,24.790864,113.646598,158,82,95,14,14,18,25,18,1015,58,2,20141020170000
88,"Qujiang Monitoring Station, Shaoguan",,24.683042,113.60157,187,99,82,36,16,11,25,18,1015,58,2,20141020170000
88,"Qujiang Monitoring Station, Shaoguan",,24.683042,113.60157,187,99,82,36,16,11,25,18,1015,58,2,20141020170000
89,Shaoguan,,24.807342,113.602712,187,99,95,36,29,18,25,18,1015,58,2,20141020170000
90,"Chaonanzi Station, Shantou",,23.251213,116.406762,157,75,43,11,13,9,23,22,1016,94,0,20141020170000
91,Shantou,,23.350642,116.686306,152,64,63,18,12,9,23,22,1016,94,0,20141020170000
92,"City Environmental Monitoring Station, Zhanjiang",,21.220431,110.397317,50,32,34,4,3,10,25,24,1015,85,3,20141020170000
93,"EPB Dormitory, Zhanjiang",,21.197376,110.406487,70,37,30,4,3,3,25,24,1015,85,3,20141020170000
94,"Xiashan Swimming Park, Zhanjiang",,21.200431,110.415655,63,25,33,1,6,6,25,24,1015,85,3,20141020170000
95,"Zhanjiang Theatre, Zhanjiang",,21.268177,110.366445,70,33,31,6,4,18,25,24,1015,85,3,20141020170000
96,"Mazhang EPA, Zhanjiang",,21.265486,110.335993,61,31,18,-,4,9,25,24,1015,85,3,20141020170000
97,"Potou District EPB, Zhanjiang",,21.247604,110.454508,55,36,34,5,2,10,25,24,1015,85,3,20141020170000
98,Zhanjiang,,21.26832,110.363883,70,37,34,6,6,18,25,24,1015,85,3,20141020170000
99,"Maogang sub-office EPB, Maoming",,21.466435,111.033462,78,46,39,1,1,4,25,23,0,86,3,20141020170000
100,"Petrochemical No. 7 elementaty school, Maoming",,21.648905,110.937861,97,52,36,4,2,8,25,23,0,86,3,20141020170000
101,"Jiankang road, Maoming",,21.662211,110.909482,97,50,28,6,3,7,25,23,0,86,3,20141020170000
102,"Gaoling, Maoming",,21.690558,110.871146,80,36,28,8,30,5,25,23,0,86,3,20141020170000
1094,Maoming,,21.660223,110.929968,97,52,36,8,30,8,25,23,0,86,3,20141020170000
103,"Jiaying University, Meizhou",,24.325415,116.12816,156,79,35,10,7,12,23,22,1016,94,0,20141020170000
104,"Mexian new town, Meizhou",,24.269283,116.084546,159,74,31,20,10,9,23,22,1016,94,0,20141020170000
105,"Environmental Monitoring Center, Meizhou",,24.262778,116.129621,154,72,32,19,5,10,23,22,1016,94,0,20141020170000
1095,Meizhou,,24.285988,116.127065,159,79,35,20,10,12,23,22,1016,94,0,20141020170000
106,"City EPA, Shanwei",,22.772349,115.370227,114,40,61,6,5,8,24,22,1016,86,1,20141020170000
107,"City government, Shanwei",,22.787161,115.375536,129,55,49,12,6,10,24,22,1016,86,1,20141020170000
108,"Xincheng Middle School, Shanwei",,22.789851,115.367124,159,66,32,8,4,7,24,22,1016,86,1,20141020170000
1099,Shanwei,,22.783576,115.38022,159,66,61,12,6,10,24,22,1016,86,1,20141020170000
109,"No.3 elementary school, Heyuan",,23.755946,114.699091,154,61,34,18,7,9,26,20,1016,62,1,20141020170000
109,"No.3 elementary school, Heyuan",,23.75435,114.703514,154,61,34,18,7,9,26,20,1016,62,1,20141020170000
111,"City water company, Heyuan",,23.688709,114.954652,137,56,32,28,6,8,26,20,1016,62,1,20141020170000
111,"City water company, Heyuan",,23.754246,114.682459,137,56,32,28,6,8,26,20,1016,62,1,20141020170000
113,"Heyuan high school, Heyuan",,23.720037,114.699563,153,61,36,14,10,7,26,20,1016,62,1,20141020170000
113,"Heyuan high school, Heyuan",,23.720666,114.693879,153,61,36,14,10,7,26,20,1016,62,1,20141020170000
115,Heyuan,,23.740888,114.705147,154,61,36,28,10,9,26,20,1016,62,1,20141020170000
116,"Yuanyang Lake, Yangjiang",,21.855869,111.983676,124,45,35,8,2,10,25,22,1016,85,2,20141020170000
1100,Yangjiang,,21.855227,111.987308,124,45,38,28,3,10,25,22,1016,85,2,20141020170000
118,"Town governement, Qingyuan",,23.708005,113.026215,183,98,134,41,27,12,27,21,1015,70,0,20141020170000
119,"Fupin district, Qingyuan",,23.624781,113.067713,172,82,69,45,15,14,27,21,1015,70,0,20141020170000
121,"Environment protection office, Qingyuan",,23.691109,113.047948,170,114,153,58,15,15,29,20,1013,58,2,20141020170000
121,"Environment protection office, Qingyuan",,23.685931,113.053239,170,114,153,58,15,15,29,20,1013,58,2,20141020170000
123,"Fengcheng Subdistrict, Qingyuan",,23.695447,113.068189,183,108,102,41,27,13,27,21,1015,70,0,20141020170000
124,Qingyuan,,23.679304,113.061513,183,98,134,45,27,14,27,21,1015,70,0,20141020170000
125,"Xiyuan Road, Chaozhou",,23.668654,116.638272,182,114,50,10,7,13,23,22,1016,94,0,20141020170000
126,"Archives Bureau, Chaozhou",,23.667881,116.649104,165,91,67,10,8,14,23,22,1016,94,0,20141020170000
127,"Municipal Corporation, Chaozhou",,23.65035,116.621859,185,136,78,11,9,15,23,22,1016,94,0,20141020170000
1101,Chaozhou,,23.654204,116.626969,185,136,78,11,9,15,23,22,1016,94,0,20141020170000
128,"Donghu Park, Jieyang",,23.532877,116.374427,127,69,86,4,15,9,23,22,1016,94,0,20141020170000
129,"Yuhu Middle School, Jieyang",,23.52682,116.414123,162,73,62,2,10,9,23,22,1016,94,0,20141020170000
130,"Experimental Primary School, Jieyang",,23.571473,116.364137,168,73,53,24,14,11,23,22,1016,94,0,20141020170000
1102,Jieyang,,23.547596,116.37754,168,73,86,24,15,11,23,22,1016,94,0,20141020170000
131,"City Environmental Monitoring Station, Yunfu",,22.936779,112.042248,112,80,26,8,4,10,26,21,1015,74,0,20141020170000
132,"The new city government headquarters, Yunfu",,22.914275,112.044475,102,53,28,6,5,17,26,21,1015,74,0,20141020170000
133,"Muyang police sub-station, Yunfu",,22.951267,112.05923,107,42,29,22,9,11,26,21,1015,74,0,20141020170000
1103,Yunfu,,22.912436,112.049811,112,80,29,22,9,17,26,21,1015,74,0,20141020170000
135,Kwai Chung,,22.572837,113.867166,137,78,22,33,5,11,26,21,1015,74,2,20141020170000
135,Kwai Chung,,22.354168,114.134558,137,78,22,33,5,11,26,21,1015,74,2,20141020170000
137,Nanyou,,22.513802,113.928051,122,64,25,20,5,9,26,21,1015,74,2,20141020170000
138,Meisha,,22.59611,114.318345,97,43,39,4,4,11,26,21,1015,74,2,20141020170000
139,Xi xiang,,22.717524,114.252304,117,64,24,22,5,15,26,21,1015,74,2,20141020170000
140,Liyuan,,22.54732,114.101205,102,52,25,10,3,10,26,21,1015,74,2,20141020170000
1072,Kwai Chung,,22.627947,114.428875,112,40,26,17,2,16,26,21,1015,74,2,20141020170000
1072,Kwai Chung,,22.354168,114.134558,112,40,26,17,2,16,26,21,1015,74,2,20141020170000
141,OCT,,22.539549,113.992458,109,63,18,22,2,18,26,21,1015,74,2,20141020170000
142,Honghu,,22.559647,114.121976,114,52,35,18,4,11,26,21,1015,74,2,20141020170000
143,Mission Hills,,22.694131,114.050496,152,71,11,27,3,10,26,20,1015,69,2,20141020170000
144,Shenzhen,,22.540382,114.062982,152,78,39,33,6,18,-,-,0,-,-,20141020170000
145,Chengdu,,30.622581,104.069564,199,125,20,58,10,14,20,15,1021,73,0,20141020170000
146,"Jinquan lianghe, Chengdu",,30.710359,103.974209,183,124,18,32,4,13,19,16,1020,83,0,20141020170000
147,"Shilidian, Chengdu",,30.684718,104.17845,169,122,25,47,7,12,20,16,1019,78,1,20141020170000
148,"Sanwayao, Chengdu",,30.568159,104.081524,173,139,,,,14,19,16,1020,83,0,20141020170000
149,"Shahepu, Chengdu",,30.633685,104.120536,175,106,9,38,3,16,19,16,1020,83,0,20141020170000
150,"Liang Lane, Chengdu",,30.682601,104.076522,171,113,20,58,10,13,19,16,1020,83,0,20141020170000
151,"Caotang Temple, Chengdu",,30.651891,104.0284,179,125,20,49,8,14,19,16,1020,83,0,20141020170000
152,"Lingyansi, Chengdu",,31.025729,103.615022,154,65,49,9,5,5,19,16,1020,83,0,20141020170000
153,"Fuleshan, Mianyang",,31.472493,104.7806,127,67,15,25,5,9,22,15,1017,59,2,20141020170000
154,"High-tech Zone Water Company, Mianyang",,31.463309,104.674293,164,83,15,31,11,10,22,15,1017,59,2,20141020170000
155,"No.3 water company, Mianyang",,31.505002,104.731054,152,74,11,22,7,10,22,15,1017,59,2,20141020170000
156,Mianyang,,31.465174,104.681731,164,84,15,31,11,18,22,15,1017,59,2,20141020170000
157,"Dongshan Park, Deyang",,31.118648,104.424587,162,91,26,44,8,9,19,16,1020,83,0,20141020170000
158,"Xixiaoqu, Deyang",,31.131159,104.390972,346,198,17,22,7,17,19,16,1020,83,0,20141020170000
159,"City Procuratorate, Deyang",,31.114554,104.407986,160,82,6,22,7,19,19,16,1020,83,0,20141020170000
160,"Refractory Factory, Deyang",,31.108606,104.356506,318,192,26,23,5,8,19,16,1020,83,0,20141020170000
161,Deyang,,31.124715,104.400703,346,198,26,44,8,19,20,15,1021,73,0,20141020170000
162,"Nongnongping, Panzhihua",,26.566698,101.695438,50,29,20,16,16,9,17,10,0,53,3,20141020170000
163,"Hemenkou, Panzhihua",,26.589072,101.578312,68,41,27,10,10,14,17,10,0,53,3,20141020170000
164,"Bingcaogang, Panzhihua",,26.58143,101.718473,124,59,11,22,6,16,17,10,0,53,3,20141020170000
165,"Renhe, Panzhihua",,26.498166,101.746887,25,10,16,10,2,14,17,10,0,53,3,20141020170000
166,"Jinjina, Panzhihua",,26.553226,101.84862,80,52,18,12,27,12,17,10,0,53,3,20141020170000
167,Panzhihua,,26.578779,101.720211,124,59,27,22,27,16,17,10,0,53,3,20141020170000
168,"Shima Middle School, Yibin",,28.815979,104.599199,168,94,18,21,8,12,19,18,1019,86,1,20141020170000
169,"Municipal party committee, Yibin",,28.762654,104.624834,167,78,19,26,12,14,19,18,1019,86,1,20141020170000
170,"No. 4 middle school, Yibin",,28.783257,104.608407,183,111,18,24,10,10,19,18,1019,86,1,20141020170000
171,"City government, Yibin",,28.760477,104.644079,164,89,16,18,6,12,19,18,1019,86,1,20141020170000
172,"Huangjinzui, Yibin",,28.712319,104.578389,156,89,12,14,10,10,19,18,1019,86,1,20141020170000
173,"Shaping Middle School, Yibin",,28.795569,104.681393,159,69,21,28,24,10,19,18,1019,86,1,20141020170000
174,Yibin,,28.748384,104.645766,183,111,21,28,24,14,19,18,1019,86,1,20141020170000
175,"Datang Hill, Zigong",,29.359969,104.757388,211,134,21,6,16,8,20,16,0,80,1,20141020170000
176,"Yanma Road, Zigong",,29.355752,104.724036,244,156,17,17,12,18,20,16,0,80,1,20141020170000
177,"Tanmulin Street, Zigong",,29.353555,104.777397,170,87,26,14,13,11,20,16,0,80,1,20141020170000
178,"Chunhua Road, Zigong",,29.33825,104.771895,191,126,16,22,19,23,20,16,0,80,1,20141020170000
179,Zigong,,29.33617,104.781138,244,156,26,22,19,23,20,16,0,80,1,20141020170000
180,"Jiushi Hill, Luzhou",,28.955347,105.434207,152,55,45,6,1,6,19,16,0,84,1,20141020170000
181,"Xiaoshishang Port, Luzhou",,28.899583,105.447192,163,72,32,22,12,11,19,16,0,84,1,20141020170000
182,"Lantianxian Bridge, Luzhou",,28.852766,105.4358,153,78,45,24,6,8,19,16,0,84,1,20141020170000
183,"City Environment Monitoring Station, Luzhou",,28.895898,105.435802,162,75,28,33,8,9,19,16,0,84,1,20141020170000
184,Luzhou,,28.868782,105.445938,163,78,45,33,12,11,19,16,0,84,1,20141020170000
185,"City Committee, Nanchong",,30.799993,106.082906,152,87,7,8,2,14,18,18,1019,98,1,20141020170000
186,"Refinery Factory, Nanchong",,30.819412,106.10712,170,95,8,4,4,11,18,18,1019,98,1,20141020170000
187,"Gaoping District Monitoring Station, Nanchong",,30.783291,106.110417,152,78,11,25,43,14,18,18,1019,98,1,20141020170000
188,"Jialing District EPB, Nanchong",,30.761255,106.06818,102,74,15,25,15,16,18,18,1019,98,1,20141020170000
189,"City Environmental Monitoring Station, Nanchong",,30.836519,106.11272,157,67,25,24,14,12,18,18,1019,98,1,20141020170000
190,Nanchong,,30.835511,106.114717,170,95,25,25,43,16,18,18,1019,98,1,20141020170000
1249,"City Monitoring Station, Neijiang",,29.592673,105.036234,177,107,13,16,9,15,20,16,0,80,1,20141020170000
1250,"Dongxing District Government , Neijiang",,29.592148,105.074966,177,91,20,25,7,11,20,16,0,80,1,20141020170000
1251,"No 2 middle school, Neijiang",,29.579135,105.068548,176,92,18,20,6,10,20,16,0,80,1,20141020170000
1252,Neijiang,,29.577653,105.06166,188,110,20,32,9,15,20,16,0,80,1,20141020170000
1253,"City Monitoring Station, Suining",,30.610641,105.683583,-,-,-,-,-,-,-,-,0,-,-,20141020170000
1254,"Administrative center , Suining",,30.63206,105.819747,124,74,29,22,11,9,19,16,0,81,1,20141020170000
1255,Suining,,30.530053,105.596307,158,110,29,46,22,9,19,16,0,81,1,20141020170000
1256,"City Monitoring Station, Leshan",,29.560651,103.759211,154,65,22,28,5,13,20,16,0,77,1,20141020170000
1257,"Leshan Giant Buddha Scenic Area , Leshan",,29.543938,103.772706,158,59,35,7,10,8,20,16,0,77,1,20141020170000
1258,Leshan,,29.54935,103.767777,161,72,35,30,10,14,20,16,0,77,1,20141020170000
1259,"Heilongtan , Meishan",,30.047726,103.900649,167,73,27,1,4,6,19,16,1020,83,0,20141020170000
1260,"Bureau of Meteorology, Meishan",,30.084591,103.843715,196,176,11,24,12,15,19,16,1020,83,0,20141020170000
1261,"Xuguang Community , Meishan",,30.066277,103.8516,271,161,12,27,7,10,19,16,1020,83,0,20141020170000
1262,"City Monitoring Station, Meishan",,30.059205,103.836229,233,155,22,27,5,14,19,16,1020,83,0,20141020170000
1263,Meishan,,30.072618,103.85064,271,176,27,27,12,15,19,16,1020,83,0,20141020170000
1264,"Ziyang middle school, Ziyang",,30.147763,104.638024,129,76,26,8,28,14,21,17,0,79,1,20141020170000
1265,Ziyang,,30.126054,104.63004,172,106,40,15,28,16,21,17,0,79,1,20141020170000
191,Shenyang US Consulate,,41.785668,123.432865,254,126,,24,10,,5,-12,1026,29,5,20141020170000
192,"Huishan, Shenyang",,41.835421,123.647773,254,155,31,15,3,8,5,-12,1026,29,5,20141020170000
193,"Hunnan, Shenyang",,41.758263,123.540809,265,163,31,17,7,8,5,-12,1026,29,5,20141020170000
194,"Zhangshi, Shenyang",,41.771679,123.289859,239,174,23,28,25,7,5,-12,1026,29,5,20141020170000
195,"Artillery College, Shenyang",,41.835749,123.547799,167,128,38,13,4,6,5,-12,1026,29,5,20141020170000
196,"Beiling, Shenyang",,41.849633,123.434146,277,91,20,34,16,7,5,-12,1026,29,5,20141020170000
197,"Wenyi Road, Shenyang",,41.767444,123.416144,254,126,34,24,10,8,5,-12,1026,29,5,20141020170000
198,"Xiaoheyan, Shenyang",,41.779828,123.484015,225,143,36,19,29,7,5,-12,1026,29,5,20141020170000
199,"Taiyuan Street, Shenyang",,41.799646,123.406146,258,165,15,30,9,7,5,-12,1026,29,5,20141020170000
200,"Ermao, Shenyang",,41.783011,123.366679,253,164,41,27,17,7,5,-12,1026,29,5,20141020170000
201,"Liaoning University, Shenyang",,41.830704,123.361071,257,116,28,17,8,7,5,-12,1026,29,5,20141020170000
202,Shenyang,,41.808126,123.437611,254,165,20,34,16,7,5,-12,1026,29,5,20141020170000
1104,"wenhua street, Shenyang , Shenyang",,41.774139,123.441839,254,126,34,24,10,7,5,-12,1026,29,5,20141020170000
1105,"Tanglin Road , Shenyang , Shenyang",,41.823665,123.562317,168,135,35,12,3,6,5,-12,1026,29,5,20141020170000
203,"Ganjingzi, Dalian",,38.9747,121.616893,160,77,17,31,15,7,10,-2,1021,43,4,20141020170000
204,"Zhoushuizi, Dalian",,38.951928,121.569981,162,71,10,20,6,11,10,-2,1021,43,4,20141020170000
205,"Xinghai No 3 station, Dalian",,38.885779,121.568864,163,76,15,14,14,6,10,-2,1021,43,4,20141020170000
206,"Qingniwa Bridge, Dalian",,38.91274,121.638018,160,72,8,28,16,8,10,-2,1021,43,4,20141020170000
207,"Fujiazhuang, Dalian",,38.864647,121.629947,161,84,4,26,28,7,10,-2,1021,43,4,20141020170000
208,"Qixianling, Dalian",,38.856978,121.523169,157,71,10,15,3,7,10,-2,1021,43,4,20141020170000
209,"Lushun, Dalian",,38.808946,121.264063,155,58,10,14,10,6,10,-2,1021,43,4,20141020170000
210,"Jinzhou, Dalian",,39.132192,121.753259,160,82,5,14,7,5,10,-2,1021,43,4,20141020170000
211,"BDA, Dalian",,39.05213,121.782022,158,56,6,14,7,6,11,-2,1021,41,3,20141020170000
212,"D&D Port, Dalian",,39.064087,121.981874,163,91,9,8,2,9,11,-2,1021,41,3,20141020170000
213,Dalian,,38.91478,121.619625,161,84,4,26,28,7,-,-,0,-,-,20141020170000
214,"Bearing Factory, Dandong",,40.068929,124.345703,104,53,15,9,12,8,11,5,1020,58,8,20141020170000
215,"Financial school, Dandong",,40.158723,124.432593,112,44,15,8,7,16,11,5,1020,58,8,20141020170000
216,"Yuanbaoshan water, Dandong",,40.149431,124.391698,104,42,14,7,13,19,11,5,1020,58,8,20141020170000
217,"Experimental Primary School, Dandong",,39.887343,124.158056,117,57,11,10,5,8,11,5,1020,58,8,20141020170000
218,Dandong,,40.002046,124.360479,117,57,15,10,13,19,11,5,1020,58,8,20141020170000
1106,"minzhu bridge, Dandong , Dandong",,40.112974,124.373604,117,57,11,10,5,8,11,5,1020,58,8,20141020170000
1107,"yuanbaoshan, Dandong , Dandong",,40.146298,124.399081,104,42,14,7,13,19,11,5,1020,58,8,20141020170000
1108,"linjiang houjie, Dandong , Dandong",,40.152757,124.431745,93,38,14,7,8,15,11,5,1020,58,8,20141020170000
219,"BDA, Panjin",,41.157144,122.06645,156,71,24,11,7,10,5,-12,0,25,5,20141020170000
220,"Xinglongtai, Panjin",,41.140948,122.111343,156,89,18,13,22,7,5,-12,0,25,5,20141020170000
221,"Dingxiang, Panjin",,41.16139,121.928781,93,59,33,10,3,3,6,-11,0,25,5,20141020170000
222,Panjin,,41.122089,122.076206,156,89,18,13,22,7,5,-12,0,25,5,20141020170000
223,"No.3 water company, Yingkou",,40.682052,122.385352,151,62,40,10,6,6,7,-8,1025,21,6,20141020170000
224,"Yingkou University, Yingkou",,40.683689,122.388285,109,63,34,14,6,5,7,-8,1025,21,6,20141020170000
225,"Botanical garden, Yingkou",,40.711674,122.281568,152,55,38,14,6,4,7,-8,1025,21,6,20141020170000
226,Yingkou,,40.668578,122.24059,160,69,39,14,7,10,7,-8,1025,21,6,20141020170000
1109,"jinghu west street, Yingkou , Yingkou",,40.653831,122.221943,151,62,40,10,6,6,7,-8,1025,21,6,20141020170000
1110,"Daqing Road , Yingkou , Yingkou",,40.709181,122.28243,153,55,37,14,6,5,7,-8,1025,21,6,20141020170000
227,"Xishanpo, Huludao",,40.724078,120.921974,68,80,18,19,77,16,,,0,,,20141020170000
228,"Huagong hospital, Huludao",,40.755662,120.848435,50,52,15,7,15,2,,,0,,,20141020170000
229,"New district park, Huludao",,40.723415,120.853801,55,57,20,12,12,9,,,0,,,20141020170000
230,"Lianshan district governement, Huludao",,40.775488,120.872292,55,53,20,15,14,5,,,0,,,20141020170000
231,Huludao,,40.712501,120.842107,93,87,20,25,62,15,,,0,,,20141020170000
1111,"Dongcheng District , Huludao , Huludao",,40.775362,120.871706,55,53,19,15,14,5,,,0,,,20141020170000
1112,"huagong street, Huludao , Huludao",,40.758901,120.842935,50,52,15,7,15,3,,,0,,,20141020170000
232,Anshan,,41.110466,123.000147,256,152,25,15,52,13,6,-12,1026,27,5,20141020170000
233,"Qianshan Park, Anshan",,41.033486,123.143897,134,63,23,14,22,4,5,-12,1026,29,5,20141020170000
234,"Tiexi, Anshan",,41.121636,122.97506,181,118,18,29,27,20,5,-12,1026,29,5,20141020170000
235,"Taiping Station, Anshan",,41.153322,123.052433,204,125,18,15,27,8,5,-12,1026,29,5,20141020170000
236,"Central Station, Anshan",,41.106731,123.002736,194,102,26,12,20,11,5,-12,1026,29,5,20141020170000
237,"Shengou Temple, Anshan",,41.137157,123.031901,274,142,20,21,31,21,5,-12,1026,29,5,20141020170000
1113,"Qianshan , Anshan , Anshan",,41.014521,123.122538,188,113,24,28,28,5,5,-12,1026,29,5,20141020170000
1114,"Tiexi Sandao jie, Anshan",,41.103264,122.978613,266,179,16,36,50,20,5,-12,1026,29,5,20141020170000
1115,"Taiyang, Anshan",,41.094946,123.019037,232,121,25,11,40,13,5,-12,1026,29,5,20141020170000
238,Fushun,,41.883028,123.962984,224,137,18,13,8,18,5,-12,1026,29,5,20141020170000
239,"Shenfu new town, Fushun",,41.804638,123.631684,254,149,23,18,7,11,5,-12,1026,29,5,20141020170000
240,"Reservoir, Fushun",,41.8464,123.802857,194,113,19,11,6,17,5,-12,1026,29,5,20141020170000
241,"Train Station, Fushun",,41.89726,124.017604,185,111,19,11,9,10,5,-12,1026,29,5,20141020170000
242,"Dongzhou, Fushun",,41.855578,124.044738,154,119,23,17,11,8,5,-12,1026,29,5,20141020170000
243,"Xinhua, Fushun",,41.888598,123.932932,161,118,16,15,8,10,5,-12,1026,29,5,20141020170000
244,"Wanghua, Fushun",,41.888825,123.093723,221,113,25,15,9,14,5,-12,1026,29,5,20141020170000
245,Benxi,,41.296267,123.772371,162,73,23,19,4,22,6,-12,1026,27,5,20141020170000
246,"Weining, Benxi",,41.349663,123.826071,162,73,23,19,4,22,5,-12,1026,29,5,20141020170000
247,"Occupational disease hospital, Benxi",,41.305432,123.74645,95,57,13,31,12,7,5,-12,1026,29,5,20141020170000
248,"Dongming, Benxi",,41.292369,123.765058,129,52,17,26,17,15,5,-12,1026,29,5,20141020170000
249,"Caitun, Benxi",,41.301591,123.746039,152,67,15,21,8,11,5,-12,1026,29,5,20141020170000
250,"Xihu, Benxi",,41.331332,123.773537,151,58,31,13,6,6,5,-12,1026,29,5,20141020170000
251,"Dayu, Benxi",,41.308091,123.818442,122,50,16,42,23,8,5,-12,1026,29,5,20141020170000
1116,"Xinlitun , Benxi , Benxi",,41.264104,123.811523,107,61,12,37,16,7,5,-12,1026,29,5,20141020170000
252,Jinzhou,,41.097169,121.132647,72,56,22,16,19,7,7,-12,1027,14,3,20141020170000
253,"Beihu Park, Jinzhou",,41.141447,121.137339,55,40,22,6,12,4,7,-12,1027,14,3,20141020170000
254,"Monitoring station, Jinzhou",,41.113441,121.140911,61,50,21,12,10,3,7,-12,1027,14,3,20141020170000
255,"Nanshan, Jinzhou",,41.570689,122.046753,72,38,22,8,11,7,7,-12,1027,14,3,20141020170000
1118,"BDA, Jinzhou",,40.853915,121.061756,61,56,14,16,19,3,7,-12,1027,14,3,20141020170000
1119,"tianan street, Jinzhou , Jinzhou",,41.124468,121.126119,59,47,20,11,9,3,7,-12,1027,14,3,20141020170000
1120,"baigu street, Jinzhou, Jinzhou",,41.12214,121.21027,68,55,19,13,14,6,7,-12,1027,14,3,20141020170000
1121,Chaoyang,,41.576022,120.456053,57,45,25,5,8,21,-,-,0,-,-,20141020170000
472,"Fukang road, Tianjin",,39.098136,117.157621,50,40,12,9,1,7,13,-1,1024,38,6,20141020170000
1122,"Agricultural Area, Chaoyang",,43.93968,125.247371,53,28,9,4,8,6,8,-11,1027,14,4,20141020170000
1123,Tieling,,42.225197,123.732174,314,146,31,26,14,8,-,-,0,-,-,20141020170000
260,"Waterpark, Tieling",,42.297031,123.880748,307,158,14,26,14,8,5,-12,1026,29,5,20141020170000
1124,"Huigong Street West , Tieling , Tieling",,42.311115,123.845614,288,146,25,25,10,8,5,-12,1026,29,5,20141020170000
1125,Liaoyang,,41.269312,123.24268,270,125,19,15,41,8,-,-,0,-,-,20141020170000
1126,"Riverside Road , Liaoyang , Liaoyang",,41.176884,123.419859,210,94,21,13,24,10,5,-12,1026,29,5,20141020170000
1127,Fuxin,,42.02373,121.675733,59,71,19,10,23,9,-,-,0,-,-,20141020170000
266,"Agricultural Area, Fuxin",,42.071291,121.696445,53,12,15,6,10,5,3,-15,0,23,5,20141020170000
267,"Industrial Area, Fuxin",,42.041052,121.715554,50,36,16,6,3,9,3,-15,0,23,5,20141020170000
1128,"Yulong Metro , Fuxin , Fuxin",,42.035091,121.666531,59,71,14,10,2,8,3,-15,0,23,5,20141020170000
1129,"Dongyuan , Fuxin , Fuxin",,42.029119,121.681553,34,26,17,10,23,5,3,-15,0,23,5,20141020170000
268,"City Monitoring Station, Jinan",,36.662614,117.054645,162,87,4,36,52,5,16,13,1020,78,4,20141020170000
269,"Shandong Institute of Economics, Jinan",,36.63819,117.074975,221,194,-,31,42,-,16,14,1016,80,4,20141020170000
270,"Quancheng Plaza, Jinan",,36.661711,117.027043,240,160,8,31,37,16,16,14,1016,80,4,20141020170000
271,"Kegansuo, Jinan",,36.611582,116.99384,153,82,9,21,33,5,16,13,1020,78,4,20141020170000
272,"Agriculture Science Institute, Jinan",,36.663115,116.95063,220,159,7,34,34,14,16,14,1016,80,4,20141020170000
273,"Lanxiang technical school, Jinan",,36.700421,116.95342,-,-,-,-,-,-,-,-,0,-,-,20141020170000
274,"Chemical factory, Jinan",,36.687463,116.994406,-,-,-,-,-,-,-,-,0,-,-,20141020170000
275,"Provincial Seed Warehouse, Jinan",,36.685706,117.066348,166,104,12,36,51,6,16,13,1020,78,4,20141020170000
276,"Shandong Architecture University, Jinan",,36.681732,117.191868,206,139,7,22,50,17,16,14,1016,80,4,20141020170000
277,"Baosheng cable company, Jinan",,36.724638,117.130855,214,125,12,26,28,12,16,14,1016,80,4,20141020170000
278,"Paomaling, Jinan",,36.47869,117.219027,422,81,24,21,20,18,16,14,1016,80,4,20141020170000
279,"Changqing District Communist Party School, Jinan",,36.548797,116.770859,209,148,10,28,58,16,16,14,1016,80,4,20141020170000
280,"BDA, Jinan",,36.685835,117.130851,155,88,22,29,35,5,16,13,1020,78,4,20141020170000
281,Jinan,,36.651426,117.126625,166,128,17,36,52,5,16,13,1020,78,4,20141020170000
282,"Shinan district No. 1, Qingdao",,36.065534,120.40839,137,72,22,35,11,7,18,15,1016,83,4,20141020170000
283,"Shibei district No. 1, Qingdao",,36.069919,120.341264,152,82,15,29,12,10,18,15,1016,83,4,20141020170000
284,"Shibei district No. 2, Qingdao",,36.104146,120.36637,152,68,47,19,11,9,18,15,1016,83,4,20141020170000
285,"Huangdao District No. 1, Qingdao",,35.958935,120.191041,174,122,21,25,25,11,18,15,1016,83,4,20141020170000
286,"Huangdao District No. 2, Qingdao",,35.970487,120.160339,173,109,19,32,20,15,18,15,1016,83,4,20141020170000
287,"Laoshan District No. 1, Qingdao",,36.085881,120.451839,159,51,28,15,21,11,18,15,1016,83,4,20141020170000
288,"Laoshan District No. 2, Qingdao",,36.091075,120.490388,119,45,31,10,18,7,18,15,1016,83,4,20141020170000
289,"Licang District No. 1, Qingdao",,36.184872,120.38533,137,70,20,13,14,10,18,15,1016,83,4,20141020170000
290,"Licang District No. 2, Qingdao",,36.154369,120.432287,134,54,25,17,8,8,18,15,1016,83,4,20141020170000
291,"Chengyang District No. 1, Qingdao",,36.308502,120.40008,-,-,-,-,-,-,-,-,0,-,-,20141020170000
292,"Chengyang District No. 2, Qingdao",,36.308429,120.465806,154,74,29,14,10,6,18,15,1016,83,4,20141020170000
293,Qingdao,,36.067358,120.387773,,,,,,,,,,,,20141020170000
294,"Zichuan Meteo. Stations, Zibo",,36.637916,117.960222,-,-,-,-,-,-,-,-,0,-,-,20141020170000
295,"Dongfeng Chemical factory, Zibo",,36.838576,118.050785,144,60,11,17,41,6,15,12,0,83,5,20141020170000
296,"Boshan shuangshan, Zibo",,36.497278,117.853581,191,131,10,47,57,23,16,12,0,79,5,20141020170000
297,"Linzi Putian Park, Zibo",,36.820171,118.315022,161,81,27,22,22,12,16,12,0,79,5,20141020170000
298,"Qilu Petrochemical, Zibo",,36.765907,118.254967,159,73,21,18,18,10,16,12,0,79,5,20141020170000
299,"Zhoucun sanjin Group, Zibo",,36.8044,117.85694,195,107,27,23,41,22,16,12,0,79,5,20141020170000
300,"Vocational College, Zibo",,36.825208,117.926305,192,89,20,23,46,20,16,12,0,79,5,20141020170000
301,"BDA, Zibo",,36.905214,118.021824,165,83,19,21,50,19,16,12,0,79,5,20141020170000
302,Zibo,,36.813618,118.060948,144,60,15,17,41,6,15,12,0,83,5,20141020170000
303,"Shizhong District Government, Zaozhuang",,34.850397,117.569545,99,58,32,4,18,3,16,15,1017,95,3,20141020170000
304,"Sewage treatment plant, Zaozhuang",,34.818951,117.595345,177,86,12,22,27,12,17,16,1014,93,3,20141020170000
305,"Xuecheng EPA, Zaozhuang",,34.790214,117.272455,167,55,20,7,26,9,16,15,1017,95,3,20141020170000
306,"Yicheng District government, Zaozhuang",,34.772806,117.57647,134,59,29,4,7,3,16,15,1017,95,3,20141020170000
307,"Taierzhuang EPA, Zaozhuang",,34.579462,117.741067,85,51,8,23,6,15,17,16,1014,93,3,20141020170000
308,"Shanting EPA, Zaozhuang",,35.070373,117.457691,95,51,34,3,4,4,16,15,1017,95,3,20141020170000
309,"City EPA, Zaozhuang",,34.809466,117.320608,-,-,-,-,-,-,-,-,0,-,-,20141020170000
310,"High-tech zone, Zaozhuang",,34.821779,117.363495,-,-,-,-,-,-,-,-,0,-,-,20141020170000
311,Zaozhuang,,34.809693,117.329634,134,59,34,7,26,9,16,15,1017,95,3,20141020170000
312,"City EPA, Dongying",,37.432052,118.672871,82,54,28,4,9,3,15,9,0,67,9,20141020170000
313,"Vocational College, Dongying",,37.438653,118.630567,152,70,33,9,18,13,16,11,0,74,9,20141020170000
314,"Xianhe Oil Production Plant, Dongying",,37.442419,118.510222,152,97,33,11,15,11,16,11,0,74,9,20141020170000
315,"Gengjin village, Dongying",,37.445072,118.55839,93,62,30,5,9,2,15,9,0,67,9,20141020170000
316,"City environmental company, Dongying",,37.466599,118.508012,78,58,29,6,4,3,15,9,0,67,9,20141020170000
317,"Hekou  district, Dongying",,37.883786,118.522171,188,118,42,10,14,11,16,11,0,74,9,20141020170000
318,"BDA, Dongying",,37.435162,118.701827,158,67,38,6,15,13,16,11,0,74,9,20141020170000
319,Dongying,,37.435429,118.680434,93,62,34,6,9,3,15,9,0,67,9,20141020170000
320,"Bearing Factory, Yantai",,37.544126,121.376956,87,29,26,21,4,1,,,0,,,20141020170000
321,"Xijiao Chemical Station, Yantai",,37.547148,121.323695,124,27,36,14,4,2,,,0,,,20141020170000
322,"Fushan Monitoring Stations, Yantai",,37.472245,121.260116,46,27,31,5,4,6,,,0,,,20141020170000
323,"Mouping EPA, Yantai",,37.376681,121.586509,63,3,27,2,5,13,,,0,,,20141020170000
324,"Laishan EPA, Yantai",,37.478422,121.44829,61,26,35,12,3,2,,,0,,,20141020170000
325,"Laishan Shengquan Industrial Park, Yantai",,37.4271,121.408386,42,31,34,13,8,4,,,0,,,20141020170000
326,"China Agricultural University, Yantai",,37.423568,121.511838,50,20,38,7,7,4,,,0,,,20141020170000
327,"BDA EPA, Yantai",,37.560827,121.257954,53,20,26,9,3,4,,,0,,,20141020170000
329,"Dajijia, Yantai",,37.673849,121.071465,-,-,-,-,-,-,,,0,,,20141020170000
330,Yantai,,37.464793,121.453142,124,29,36,21,4,2,,,0,,,20141020170000
331,"BDA, Weifang",,36.720022,119.054064,155,66,31,10,16,6,,,0,,,20141020170000
332,"Business School, Weifang",,36.682442,119.105909,152,67,30,12,12,5,,,0,,,20141020170000
333,"Hanting District, Weifang",,36.773484,119.199705,102,43,35,7,11,4,,,0,,,20141020170000
334,"Gongda Company, Weifang",,36.657635,119.167266,78,50,29,10,14,1,,,0,,,20141020180000
335,"City EPA, Weifang",,36.701272,119.16838,139,57,34,5,9,3,,,0,,,20141020180000
336,"City Arbitration Committee, Weifang",,36.702422,119.145927,114,59,47,17,14,8,,,0,,,20141020180000
337,"Xinhui Group, Weifang",,36.641581,119.11679,112,56,33,15,15,6,,,0,,,20141020180000
338,"Jincheng Middle School, Weifang",,36.773611,119.115539,95,42,43,1,7,4,,,0,,,20141020180000
339,Weifang,,36.707217,119.167638,97,50,32,10,14,1,,,0,,,20141020180000
340,"City Monitoring Station, Jining",,35.408443,116.623917,-,-,-,-,-,-,-,-,0,-,-,20141020180000
1090,"Shengdi Hollidays Resort, Jining",,35.424746,116.699093,178,119,9,37,25,11,18,16,1015,87,1,20141020180000
341,"Sewage treatment plant, Jining",,35.364286,116.609177,190,119,6,33,22,14,18,16,1015,87,1,20141020180000
342,"Electrochemical Factory, Jining",,35.390473,116.552956,162,78,7,15,13,6,16,16,1018,97,1,20141020180000
343,"Rencheng BDA, Jining",,35.390484,116.662995,182,137,13,29,34,15,18,16,1015,87,1,20141020180000
344,"Agricultural School, Jining",,35.44235,116.601682,180,133,4,27,8,9,18,16,1015,87,1,20141020180000
345,"BDA Huojucheng, Jining",,35.436377,116.642953,184,132,6,28,35,14,18,16,1015,84,0,20141020180000
346,Jining,,35.414473,116.59239,162,78,7,15,13,6,16,16,1018,97,1,20141020180000
347,"Taishan monitoring station, Taian",,36.194362,117.159648,99,56,20,3,8,2,7,7,0,99,9,20141020180000
348,"Shandong Electric Power School, Taian",,36.176071,117.12413,142,55,23,26,13,3,7,7,0,99,9,20141020180000
349,"Population Education school, Taian",,36.194417,117.104131,177,99,25,15,8,18,7,7,0,99,9,20141020180000
350,"Houfeng company, Taian",,36.204863,117.19015,166,110,13,28,26,16,8,8,0,98,8,20141020180000
351,"Nongda new campus, Taian",,36.170179,117.165191,174,96,7,26,58,25,8,8,0,98,8,20141020180000
352,"Transportation technical school, Taian",,36.202126,117.047068,163,93,10,22,8,20,8,8,0,98,8,20141020180000
353,"ICT Technology, Taian",,36.116621,117.107458,181,104,16,33,45,20,8,8,0,98,8,20141020180000
354,Taian,,36.200502,117.093682,177,99,25,26,13,18,7,7,0,99,9,20141020180000
355,"City Environmental Monitoring Station, Weihai",,37.513939,122.067058,25,27,36,13,4,4,18,15,0,86,7,20141020180000
356,"Woodworking Factory, Weihai",,37.325455,122.160777,59,20,36,7,4,3,18,15,0,86,7,20141020180000
357,"Lantian Hotel, Weihai",,37.514641,122.146276,34,21,41,8,5,9,18,15,0,86,7,20141020180000
358,"Zhang village government, Weihai",,37.485561,122.049436,30,8,27,14,36,6,18,15,0,86,7,20141020180000
359,"Gao District Bank, Weihai",,37.534919,122.056294,55,15,37,5,1,2,18,15,0,86,7,20141020180000
360,"Huxia technical school, Weihai",,37.427951,122.130811,46,27,35,9,2,1,17,14,0,85,7,20141020180000
361,Weihai,,37.5141,122.125477,46,27,35,9,2,1,17,14,0,85,7,20141020180000
362,"City governement square, Rizhao",,35.4075,119.526008,104,46,21,1,13,2,16,16,1018,97,2,20141020180000
363,"Port Authority, Rizhao",,35.381297,119.55396,99,39,19,7,4,2,16,16,1018,97,2,20141020180000
364,"City Monitoring Station, Rizhao",,35.388683,119.496405,187,92,13,19,18,10,16,16,1016,95,2,20141020180000
365,"Professor Garden, Rizhao",,35.462161,119.574193,170,112,21,13,16,7,16,16,1016,95,2,20141020180000
366,"Vocational and Technical College, Rizhao",,35.441939,119.538187,178,94,24,8,16,8,16,16,1016,95,2,20141020180000
367,"Lanshan EPA branch, Rizhao",,35.293405,119.345716,173,92,8,25,17,11,16,16,1016,95,2,20141020180000
368,"Jinma Industrial Park, Rizhao",,35.373339,119.514108,169,102,16,20,19,8,16,16,1016,95,2,20141020180000
369,Rizhao,,35.416089,119.532316,104,46,21,7,13,2,16,16,1018,97,2,20141020180000
370,"Vegetable oil factory, Laiwu",,36.205028,117.700917,176,89,12,29,6,3,14,14,1020,97,0,20141020180000
371,"Nursing home, Laiwu",,36.266067,117.652769,173,105,13,24,40,23,16,13,1017,77,2,20141020180000
372,"Xinyi middle school, Laiwu",,36.245086,117.739025,159,68,10,15,23,26,16,13,1017,77,2,20141020180000
373,"Risheng International School, Laiwu",,36.208125,117.730959,180,83,14,11,42,15,16,13,1017,77,2,20141020180000
374,"Gangcheng EPA, Laiwu",,36.066836,117.871823,-,-,-,-,-,-,-,-,0,-,-,20141020180000
375,"City EPA, Laiwu",,36.228913,117.694797,-,-,-,-,-,-,-,-,0,-,-,20141020180000
376,Laiwu,,36.213688,117.682612,176,89,12,29,6,3,-,-,0,-,-,20141020180000
377,"Lunan Pharmaceutical Factory, Linyi",,35.061671,118.299527,91,36,10,3,5,3,15,15,0,94,4,20141020180000
378,"Yihe compound, Linyi",,35.056752,118.34739,102,49,12,9,13,4,15,15,0,94,4,20141020180000
379,"Linyi University, Linyi",,35.114777,118.293414,-,-,-,-,-,-,-,-,0,-,-,20141020180000
380,City EPA,Nanfang,35.104871,118.353518,-,-,-,-,-,-,-,-,0,-,-,20141020180000
381,"Xinguang woolen factory, Linyi",,34.981004,118.282,132,48,12,10,9,4,15,15,0,94,4,20141020180000
382,"Hongfu Baijiu Factory, Linyi",,34.998788,118.257275,-,-,-,-,-,-,-,-,0,-,-,20141020180000
384,"Hedong insurance company, Linyi",,35.089354,118.40812,-,-,-,-,-,-,-,-,0,-,-,20141020180000
385,"Jianghua vehicule center, Linyi",,35.010082,118.435749,-,-,-,-,-,-,-,-,0,-,-,20141020180000
386,Linyi,,35.10428,118.362202,132,49,12,10,13,4,15,15,0,94,4,20141020180000
387,"Heima group, Dezhou",,37.466063,116.314134,208,133,14,23,9,4,16,14,1020,89,3,20141020180000
388,"Monitoring station, Dezhou",,37.433107,116.377312,-,-,-,-,-,-,-,-,0,-,-,20141020180000
389,"Supervision Station, Dezhou",,37.449689,116.324709,189,159,10,22,15,5,16,14,1020,89,3,20141020180000
390,"Huayu technical school, Dezhou",,37.462809,116.357559,-,-,-,-,-,-,-,-,0,-,-,20141020180000
391,"Shuangyi group, Dezhou",,37.478848,116.316362,-,-,-,-,-,-,-,-,0,-,-,20141020180000
392,Dezhou,,37.434959,116.363366,221,159,14,23,15,5,16,14,1020,89,3,20141020180000
393,"Dongchang District Government, Liaocheng",,36.444473,115.971733,200,134,9,22,16,5,16,14,1018,87,3,20141020180000
394,"Light Machinery Factory No. 2, Liaocheng",,36.456788,116.002383,237,171,13,22,15,4,16,14,1018,87,3,20141020180000
395,"City committee communist party school, Liaocheng",,36.479537,115.989288,191,134,12,17,14,5,16,14,1018,87,3,20141020180000
396,"Customs, Liaocheng",,36.431933,115.956974,-,-,-,-,-,-,-,-,0,-,-,20141020180000
397,"Hongshun Garden, Liaocheng",,36.471124,115.960319,-,-,-,-,-,-,-,-,0,-,-,20141020180000
398,"BDA, Liaocheng",,36.459407,116.043621,-,-,-,-,-,-,-,-,0,-,-,20141020180000
399,Liaocheng,,36.456792,115.991051,237,171,13,22,16,5,16,14,1018,87,3,20141020180000
400,"City EPA, Binzhou",,37.38024,118.026895,82,59,15,8,7,5,16,15,1020,88,2,20141020180000
401,"Beizhong new school, Binzhou",,37.38374,117.988996,99,40,15,3,4,4,16,15,1020,88,2,20141020180000
402,"No.2 water factory, Binzhou",,37.36155,118.002648,91,36,9,7,10,18,16,15,1020,88,2,20141020180000
403,"Keling Chemical factory, Binzhou",,37.396138,117.943609,-,-,-,-,-,-,-,-,0,-,-,20141020180000
404,"Yinhe logistics company, Binzhou",,37.356122,117.943326,-,-,-,-,-,-,-,-,0,-,-,20141020180000
405,"Bilin compond, Binzhou",,37.36815,117.978964,-,-,-,-,-,-,-,-,0,-,-,20141020180000
406,Binzhou,,37.382639,117.976606,99,40,15,8,10,18,16,15,1020,88,2,20141020180000
407,"Bureau of Meteorology, Heze",,35.248625,115.428775,196,111,6,18,12,4,15,14,0,88,4,20141020180000
408,"Sewage treatment plant, Heze",,35.222517,115.531511,-,-,-,-,-,-,-,-,0,-,-,20141020180000
409,"Municipal CPPCC, Heze",,35.237125,115.480591,197,126,5,22,20,4,15,14,0,88,4,20141020180000
410,"Huarun Pharmaceutical Company, Heze",,35.261463,115.524873,-,-,-,-,-,-,-,-,0,-,-,20141020180000
411,"Heze University, Heze",,35.269706,115.460934,310,119,8,21,22,2,15,14,0,88,4,20141020180000
412,Heze,,35.233354,115.486503,197,126,8,22,22,4,15,14,0,88,4,20141020180000
413,"Shiji Park, Shijiazhuang",,38.03155,114.547873,226,139,8,10,3,10,15,15,1022,100,3,20141020180000
414,"Xinan College, Shijiazhuang",,38.012764,114.473163,275,171,8,9,7,11,15,15,1022,100,3,20141020180000
415,"Chemical College, Shijiazhuang",,38.055503,114.569816,341,166,5,21,7,12,15,15,1022,100,3,20141020180000
416,"Worker hospital, Shijiazhuang",,38.051784,114.461209,285,179,14,9,2,11,15,15,1022,100,3,20141020180000
417,"Northwest Water Company, Shijiazhuang",,38.140638,114.508038,292,220,11,17,2,8,15,15,1022,100,3,20141020180000
418,"High-tech zone, Shijiazhuang",,38.040482,114.610775,260,199,6,11,2,10,15,15,1022,100,3,20141020180000
419,"Fenglong Montain, Shijiazhuang",,37.910829,114.360264,139,73,29,23,34,17,15,15,1022,100,3,20141020180000
1130,"Zhengding Unicom, Shijiazhuang",,38.159458,114.59879,361,285,13,15,7,15,15,15,1022,100,3,20141020180000
1131,"Luancheng Communications, Shijiazhuang",,37.906534,114.638785,313,195,19,12,17,8,15,15,1022,100,3,20141020180000
1132,"Gaocheng Experimental School, Shijiazhuang",,38.039518,114.867812,293,195,7,15,24,15,15,15,1022,100,3,20141020180000
1133,"Wuji EPA, Shijiazhuang",,38.17862,114.997012,344,232,20,22,15,16,15,15,1022,100,3,20141020180000
1134,"Shenze Power Supply Bureau, Shijiazhuang",,38.197674,115.219126,260,189,18,27,11,17,15,15,1022,100,3,20141020180000
1135,"Zhaoxian EPA, Shijiazhuang",,37.77171,114.775957,239,137,19,18,16,11,15,15,1022,100,3,20141020180000
1136,"Gaoyi County City Hall, Shijiazhuang",,37.623535,114.612729,376,280,24,17,11,10,15,15,1022,100,3,20141020180000
1137,"Zanhuang County City Hall, Shijiazhuang",,37.672898,114.398269,352,239,19,27,11,14,15,15,1022,100,3,20141020180000
1138,"Jingxing Bureau of Meteorology, Shijiazhuang",,38.038788,114.158406,388,304,22,33,13,18,15,15,1022,100,3,20141020180000
1139,"Pingshan Ye River, Shijiazhuang",,38.266657,114.210275,371,332,13,20,6,16,15,15,1022,100,3,20141020180000
420,Shijiazhuang,,38.042926,114.520834,366,450,12,21,7,12,15,15,1022,100,3,20141020180000
421,"No. 12 middle school, Tangshan",,39.659306,118.190271,345,457,3,62,77,68,-,-,0,-,-,20141020180000
422,"Ceramics Company, Tangshan",,39.669255,118.225185,104,67,11,22,16,9,13,-1,1024,38,6,20141020180000
423,"Commodities Bureau, Tangshan",,39.642301,118.191265,112,73,8,12,11,8,13,-1,1024,38,6,20141020180000
424,"Leidazhanzi Station, Tangshan",,39.644375,118.150383,102,58,10,17,13,8,13,-1,1024,38,6,20141020180000
425,"Supply and marketing cooperatives, Tangshan",,39.632334,118.17232,102,73,14,19,13,6,13,-1,1024,38,6,20141020180000
1140,"Guye District City Hall, Tangshan",,39.741379,118.460246,117,79,11,33,22,17,13,-1,1024,38,6,20141020180000
1141,"Kaiping Stations, Tangshan",,39.675246,118.275149,153,103,9,36,21,22,13,-1,1024,38,6,20141020180000
1142,"Fengnan District City Hall, Tangshan",,39.5834,118.097454,87,62,14,36,29,23,13,-1,1024,38,6,20141020180000
1143,"Fengrun City Hall, Tangshan",,39.840355,118.175338,139,90,7,22,35,20,13,-1,1024,38,6,20141020180000
1144,"Qianxi EPA, Tangshan",,40.153339,118.317265,72,54,24,4,6,7,13,-1,1024,38,6,20141020180000
1145,"Caofeidian Xinli  Primary School, Tangshan",,39.291232,118.462182,76,64,24,14,3,3,13,-1,1024,38,6,20141020180000
1146,"Zunhua EPA, Tangshan",,40.206249,117.997315,95,55,16,15,8,6,13,-1,1024,38,6,20141020180000
1147,"Qianan No.1 middle school, Tangshan",,40.004248,118.717055,93,40,24,1,2,6,13,-1,1024,38,6,20141020180000
1266,"Luannan County , Tangshan",,39.511132,118.686928,76,52,25,10,6,7,13,-1,1024,38,6,20141020180000
1267,"Yutian County , Tangshan",,39.908249,117.751417,158,112,9,45,43,26,13,-1,1024,38,6,20141020180000
426,Tangshan,,39.632175,118.186472,153,103,17,36,29,23,-,-,0,-,-,20141020180000
427,"City Monitoring Station, Qinhuangdao",,39.958109,119.607773,59,30,13,2,11,5,,,0,,,20141020180000
428,"Beidaihe, Qinhuangdao",,39.829209,119.53194,50,37,14,1,2,3,,,0,,,20141020180000
429,"Shanhai Pass, Qinhuangdao",,40.019298,119.767898,65,31,21,12,4,1,,,0,,,20141020180000
430,"Contruction Plazz, Qinhuangdao",,39.943187,119.542912,38,40,14,22,9,1,,,0,,,20141020180000
431,"City government, Qinhuangdao",,39.93711,119.612769,53,25,6,9,11,3,,,0,,,20141020180000
1148,"Qinglong EPA, Qinhuangdao",,40.419223,118.958002,46,46,34,8,60,2,,,0,,,20141020180000
1149,"Changli EPA, Qinhuangdao",,39.714369,119.173237,63,56,24,11,3,1,,,0,,,20141020180000
1268,"Lulong County Bureau of Meteorology , Qinhuangdao",,39.901091,118.904857,97,58,19,1,17,4,,,0,,,20141020180000
432,Qinhuangdao,,39.936485,119.606263,59,40,14,22,11,5,,,0,,,20141020180000
433,"CongTai Park, Handan",,36.620197,114.501891,163,127,13,14,15,9,,,0,,,20141020180000
434,"City EPA, Handan",,36.618145,114.518822,257,91,11,33,12,11,,,0,,,20141020180000
435,"East Sewage Factory, Handan",,36.616064,114.548714,197,126,7,14,6,9,,,0,,,20141020180000
436,"Mine Hospital, Handan",,36.578149,114.509854,252,106,13,17,6,11,,,0,,,20141020180000
1150,"Fengfeng mine Inland Revenue Department, Handan",,36.423085,114.245994,236,145,12,26,39,5,,,0,,,20141020180000
1151,"Shexian EPA, Handan",,36.589084,113.692341,328,190,14,21,18,38,,,0,,,20141020180000
1152,"Ci County Vocational Education Center, Handan",,36.380247,114.390119,183,92,10,12,18,12,,,0,,,20141020180000
1153,"Yongnian government guesthouse, Handan",,36.783297,114.502905,228,142,11,22,118,3,,,0,,,20141020180000
1154,"Wuan BDA, Handan",,36.686223,114.269009,217,141,5,22,9,23,,,0,,,20141020180000
1085,Handan,,36.625683,114.544812,257,127,13,33,15,11,,,0,,,20141020180000
437,"Road and Bridge Corporation, Xingtai",,37.096415,114.538799,220,146,8,19,2,8,16,14,1022,83,1,20141020180000
438,"Dahuo fontain, Xingtai",,37.097563,114.488001,189,111,14,17,10,9,16,14,1022,83,1,20141020180000
439,"Xingtai Normal College, Xingtai",,37.053404,114.531819,205,145,14,17,7,8,16,14,1022,83,1,20141020180000
440,"Environment protection office, Xingtai",,37.06253,114.490985,209,141,21,18,5,8,16,14,1022,83,1,20141020180000
1155,"Cultural centers within the mound, Xingtai",,37.293569,114.524873,231,148,27,11,2,15,16,14,1022,83,1,20141020180000
383,Xingtai,,37.071066,114.510749,220,146,21,19,10,9,16,14,1022,83,1,20141020180000
441,"City Monitoring Station, Baoding",,38.871737,115.527103,261,159,10,13,21,12,15,14,1021,87,3,20141020180000
442,"Surface water Company, Baoding",,38.842891,115.467326,328,223,8,65,10,11,15,14,1021,87,3,20141020180000
443,"Huadian II, Baoding",,38.896748,115.528102,258,187,2,5,12,29,15,14,1021,87,3,20141020180000
444,"Reception Center, Baoding",,38.911905,115.477301,275,196,4,11,5,10,15,14,1021,87,3,20141020180000
445,"Film Factory, Baoding",,38.876949,115.448383,316,218,8,17,6,19,15,14,1021,87,3,20141020180000
446,"Natatorium, Baoding",,38.863815,115.499212,237,193,12,17,20,12,15,14,1021,87,3,20141020180000
1156,"Qingyuan City Hall, Baoding",,38.771758,115.502189,337,142,9,17,14,12,15,14,1021,87,3,20141020180000
1157,"Xushui EPA, Baoding",,39.025781,115.668023,124,84,6,7,3,12,15,14,1021,87,3,20141020180000
1158,"Zhouzhou Monitoring Stations, Baoding",,39.493241,116.040187,155,107,12,12,9,11,15,14,1021,87,3,20141020180000
1159,"Gaobeidian EPA, Baoding",,39.3329,115.885891,167,84,8,17,33,12,15,14,1021,87,3,20141020180000
447,Baoding,,38.874791,115.471124,328,223,12,65,21,29,15,14,1021,87,3,20141020180000
448,"Century Compound, Zhangjiakou",,40.770279,114.909106,82,40,42,9,5,7,12,6,1021,58,4,20141020180000
449,"North Pumping Station, Zhangjiakou",,40.874362,114.910119,102,48,8,19,11,10,12,6,1021,58,4,20141020180000
450,"Hardware Warehouse, Zhangjiakou",,40.81232,114.887119,82,53,27,14,12,19,12,6,1021,58,4,20141020180000
451,"Tanji Chang, Zhangjiakou",,40.796301,114.89811,142,59,35,10,19,8,12,6,1021,58,4,20141020180000
1160,"Xiahuayuan EPA, Zhangjiakou",,40.509345,115.302442,214,144,59,9,7,12,12,6,1021,58,4,20141020180000
1161,"Huaian EPA, Zhangjiakou",,40.68157,114.398646,214,139,27,21,24,5,12,6,1021,58,4,20141020180000
1162,"Huailai Fuqian Primary School, Zhangjiakou",,40.422204,115.530285,209,128,5,2,1,11,12,6,1021,58,4,20141020180000
1269,"Zhangbei EPA , Zhangjiakou",,41.166775,114.732369,197,122,29,11,11,7,12,6,1021,58,4,20141020180000
1270,"Kangbao County Environmental Protection Agency , Zhangjiakou",,41.837866,114.591246,74,50,21,6,9,5,12,6,1021,58,4,20141020180000
1271,"Guyuan County welfare , Zhangjiakou",,41.669984,115.687401,214,117,20,11,4,10,12,6,1021,58,4,20141020180000
1272,"Shangyi County Environmental Protection Bureau , Zhangjiakou",,41.086638,113.984688,202,132,27,14,20,10,12,6,1021,58,4,20141020180000
1273,"Yuxian Secondary School , Zhangjiakou",,39.84699,114.601986,227,157,57,14,8,7,12,6,1021,58,4,20141020180000
1274,"Yang County Vocational Education Center , Zhangjiakou",,40.106343,114.134732,240,170,17,19,9,12,12,6,1021,58,4,20141020180000
1275,"Wan county Environmental Protection Agency , Zhangjiakou",,40.770459,114.75033,264,159,39,24,27,13,12,6,1021,58,4,20141020180000
473,"Nankou road, Tianjin",,39.174022,117.199688,63,31,7,9,3,5,13,-1,1024,38,5,20141020180000
1276,"Zhuolu County Environmental Protection Agency , Zhangjiakou",,40.374273,115.221393,269,162,42,2,7,14,12,6,1021,58,4,20141020180000
452,Zhangjiakou,,40.825744,114.893659,151,63,42,19,19,19,12,6,1021,58,4,20141020180000
453,"Railway, Chengde",,40.917557,117.972331,53,59,39,5,8,1,8,-9,1025,16,2,20141020180000
454,"Cultural Center, Chengde",,40.974625,117.824437,50,52,25,9,3,5,8,-9,1025,16,2,20141020180000
455,"Bank of China, Chengde",,40.985582,117.958304,65,39,22,14,40,2,8,-9,1025,16,2,20141020180000
456,"BDA, Chengde",,40.937567,117.969325,55,56,31,6,5,3,8,-9,1025,16,2,20141020180000
457,"Ligong, Chengde",,41.012579,117.94428,91,78,26,4,2,2,8,-9,1025,16,2,20141020180000
1163,"Chengde County EPA, Chengde",,40.776643,118.17646,82,60,29,6,1,2,8,-9,1025,16,2,20141020180000
1164,"Xinglong County City Hall, Chengde",,40.424301,117.513488,152,74,24,17,24,15,8,-9,1025,16,2,20141020180000
1165,"Luanping EPA, Chengde",,40.950792,117.350715,63,48,32,5,10,5,8,-9,1025,16,2,20141020180000
1166,"Fengning County City Hall, Chengde",,41.216739,116.658037,169,96,1,5,9,10,8,-9,1025,16,2,20141020180000
1277,"Longhua EPA , Chengde",,41.311956,117.739605,102,55,32,11,10,4,8,-9,1025,16,2,20141020180000
458,Chengde,,40.955652,117.968737,91,78,39,14,40,3,8,-9,1025,16,2,20141020180000
459,"Municipal EPB, Cangzhou",,38.323507,116.876746,78,68,26,8,4,6,13,-1,1024,38,6,20141020180000
460,"Cangxian Urban Construction Bureau, Cangzhou",,38.299495,116.890734,99,60,20,6,13,8,13,-1,1024,38,5,20141020180000
461,"TV Broadcast Station, Cangzhou",,38.325525,116.863761,74,151,30,6,6,7,13,-1,1024,38,6,20141020180000
1167,"Qing County City Hall, Cangzhou",,38.589643,116.815876,114,23,3,10,3,13,13,-1,1024,38,6,20141020180000
1168,"Poyoushi City Hall, Cangzhou",,38.089516,116.590575,168,59,18,12,2,5,13,-1,1024,38,6,20141020180000
1169,"Huanghua Finance Bureau Training Center, Cangzhou",,38.377793,117.343356,107,56,27,2,267,5,13,-1,1024,38,6,20141020180000
462,Cangzhou,,38.305035,116.844625,78,151,30,8,12,8,14,0,1024,38,6,20141020180000
463,"Environmental Monitoring Supervision Center, Langfang",,39.558157,116.720995,97,65,18,12,8,9,13,-1,1024,38,6,20141020180000
464,"TCM Medical Material Company, Langfang",,39.519096,116.689914,82,72,13,14,8,11,13,-1,1024,38,6,20141020180000
465,"BDA, Langfang",,39.576175,116.779041,95,65,7,17,14,7,13,-1,1024,38,5,20141020180000
466,"North China Institute of Aerospace, Langfang",,39.53517,116.743027,95,55,10,2,7,13,13,-1,1024,38,6,20141020180000
1170,"Guan Party School, Langfang",,39.446185,116.311026,139,69,10,21,7,10,13,-1,1024,38,6,20141020180000
1171,"Xianghe EPA, Langfang",,39.76725,117.015252,122,72,23,18,12,14,13,-1,1024,38,6,20141020180000
1172,"Wenan County EPA, Langfang",,38.880927,116.47001,122,72,22,14,17,13,13,-1,1024,38,6,20141020180000
1173,"Three Rivers Department of Transportation, Langfang",,39.989419,117.091528,147,100,16,25,13,13,13,-1,1024,38,6,20141020180000
1278,"Yongqing EPA , Langfang",,39.329071,116.510917,117,67,15,14,7,9,13,-1,1024,38,6,20141020180000
1279,"Dacheng EPA, Langfang",,38.712628,116.665751,70,77,24,17,8,10,13,-1,1024,38,6,20141020180000
467,Langfang,,39.539148,116.689668,97,72,18,17,13,13,14,0,1024,38,6,20141020180000
468,"Hengshui City EPB, Hengshui",,37.739679,115.695929,255,130,11,17,10,9,15,10,0,70,4,20141020180000
469,"Environmental Monitoring Station, Hengshui",,37.738593,115.648837,239,138,17,17,4,12,15,10,0,70,4,20141020180000
470,"Electrical Machine North Factory, Hengshui",,37.758686,115.70094,246,156,17,17,19,12,15,10,0,70,4,20141020180000
1174,"Anping EPA, Hengshui",,38.238559,115.537988,184,167,18,15,36,11,15,10,0,70,4,20141020180000
1175,"Jizhou EPA, Hengshui",,37.548552,115.58679,252,137,4,18,47,10,15,10,0,70,4,20141020180000
1280,"Zaoqiang EPA, Hengshui",,37.520698,115.714936,248,149,38,15,6,10,15,10,0,70,4,20141020180000
1281,"Wuyi EPA, Hengshui",,37.801554,115.898697,142,76,11,9,13,10,15,10,0,70,4,20141020180000
1282,"Wuqiang EPA , Hengshui",,38.03557,115.959767,87,69,15,1,6,16,15,10,0,70,4,20141020180000
1283,"Raoyang EPA , Hengshui",,38.230652,115.741041,153,80,17,1,8,10,15,10,0,70,4,20141020180000
1284,"Gucheng County , Hengshui",,37.347569,115.966707,251,136,10,18,8,10,15,10,0,70,4,20141020180000
471,Hengshui,,37.739562,115.676066,255,156,17,17,19,12,15,10,0,70,4,20141020180000
1176,"Xinji City Hall, Xinji",,37.949711,115.230084,270,166,17,16,21,12,15,10,0,70,4,20141020180000
474,"Qinjian street, Tianjin",,39.166588,117.15104,68,57,12,6,3,7,13,-1,1024,38,5,20141020180000
475,"Nanjing Road, Tianjin",,39.120958,117.195112,61,54,11,7,3,7,13,-1,1024,38,5,20141020180000
476,"Dazhigu No.8 road, Tianjin",,39.111811,117.25147,57,22,10,8,2,6,13,-1,1024,38,5,20141020180000
477,"Qianjin street, Tianjin",,39.09371,117.207981,74,45,15,8,4,9,13,-1,1024,38,5,20141020180000
478,"Huaihe street, Tianjin",,39.227167,117.191293,59,20,12,12,3,5,13,-1,1024,38,5,20141020180000
479,"Xiangshan street, Tianjin",,39.134752,117.275125,70,53,12,12,3,8,13,-1,1024,38,5,20141020180000
480,"Yuejin Road, Tianjin",,39.088177,117.320884,42,53,8,12,2,4,13,-1,1024,38,5,20141020180000
482,"No.4 street, Tianjin",,39.035228,117.713424,61,18,13,9,2,4,13,-1,1024,38,5,20141020180000
483,"Yongming road, Tianjin",,38.840392,117.463805,63,44,9,5,3,7,13,-1,1024,38,5,20141020180000
484,"Xinhua street, Tianjin",,39.138671,117.010083,160,145,6,12,4,7,15,4,1023,48,7,20141020180000
485,"Jingu Road, Tianjin",,38.985659,117.381254,93,143,7,16,4,9,15,4,1023,48,7,20141020180000
486,"Tanggu Yingkou street, Tianjin",,39.021768,117.656454,95,114,13,19,10,23,14,1,1024,41,6,20141020180000
487,"Hexi Yijing road, Tianjin",,39.248392,117.798043,134,50,16,16,15,5,15,4,1023,48,7,20141020180000
488,"Jianshe Road, Tianjin",,39.720075,117.310588,166,109,13,14,5,11,15,4,1023,48,7,20141020180000
489,"Quanzhou South road, Tianjin",,39.373857,117.050329,158,130,13,9,6,12,14,1,1024,41,6,20141020180000
490,"Donghuan road, Tianjin",,40.043144,117.451062,-,-,-,-,-,-,-,-,0,-,-,20141020180000
491,"Tuanpowa, Tianjin",,38.920418,117.16299,72,34,10,8,1,4,13,-1,1024,38,5,20141020180000
493,"Beiwei No.2 road, Tianjin",,38.943857,116.920624,159,159,11,14,15,9,15,4,1023,48,7,20141020180000
494,"Haitai fazhan No.2 road, Tianjin",,39.079608,117.096583,139,126,10,12,4,11,15,4,1023,48,7,20141020180000
495,"Hangtian road, Tianjin",,39.152244,117.381309,80,142,12,5,3,8,13,-1,1024,38,5,20141020180000
496,"Hanbei road, Tianjin",,39.159768,117.770477,46,52,13,10,4,19,13,-1,1024,38,5,20141020180000
497,"Baobai highway, Tianjin",,39.51757,117.349635,153,60,26,10,5,6,15,4,1023,48,7,20141020180000
498,Tianjin,,39.085164,117.207281,74,54,15,8,4,9,13,-1,1024,38,5,20141020180000
499,"Wolong bridge, Hangzhou",,30.24371,120.132762,161,75,20,18,6,9,21,15,1013,68,1,20141020180000
500,"Hemu primary school, Hangzhou",,30.309669,120.124507,179,130,18,49,7,17,21,15,1013,68,1,20141020180000
501,"Zhejiang Agricultural University, Hangzhou",,30.265601,120.197583,177,113,19,49,17,14,21,15,1013,68,1,20141020180000
502,"Xiasha, Hangzhou",,30.303516,120.352618,189,118,22,44,36,9,21,15,1013,68,1,20141020180000
503,"Yunqi, Hangzhou",,30.178555,120.093142,169,84,14,28,3,13,21,15,1013,68,1,20141020180000
504,"Xixi, Hangzhou",,30.272425,120.068144,165,79,5,34,4,10,21,15,1013,68,1,20141020180000
505,"Chengxiang town, Hangzhou",,30.179493,120.274184,166,101,17,40,19,12,21,15,1013,68,1,20141020180000
506,"Qiandao lake, Hangzhou",,29.638139,119.031092,142,54,32,6,4,5,21,15,1013,68,1,20141020180000
507,"Linping town, Hangzhou",,30.415948,120.305059,201,142,25,67,19,10,21,15,1013,68,1,20141020180000
509,"No.2 Middle School, Hangzhou",,30.044303,119.956356,185,126,12,21,9,13,21,15,1013,68,1,20141020180000
510,"City Hall, Hangzhou",,30.234185,119.723503,163,88,53,12,11,11,21,15,1013,68,1,20141020180000
511,"No. 4 middle school, Hangzhou",,30.229428,119.699591,160,69,,1,6,13,21,15,1013,68,1,20141020180000
512,Hangzhou,,30.271756,120.159765,190,130,20,55,45,17,21,15,1013,68,1,20141020180000
513,"City Station, Wenzhou",,28.009715,120.679129,137,63,6,20,9,7,18,17,0,95,1,20141020180000
514,"Ouhai, Wenzhou",,28.001846,120.641982,119,65,8,24,7,9,18,17,0,95,1,20141020180000
515,"Longwan, Wenzhou",,27.968122,120.768393,132,72,7,27,6,10,18,17,0,95,1,20141020180000
516,"Nanpu, Wenzhou",,27.981763,120.683685,139,72,5,20,10,7,18,17,0,95,1,20141020180000
517,Wenzhou,,27.990985,120.703425,139,72,8,27,10,10,18,17,0,95,1,20141020180000
518,"Monitoring station, Jiaxing",,30.75437,120.767373,187,74,32,26,15,10,22,19,1012,83,3,20141020180000
519,"Jiaxing University, Jiaxing",,30.745099,120.735004,164,80,28,28,13,7,22,19,1012,83,3,20141020180000
520,"Qinghe Primary School, Jiaxing",,30.775685,120.747969,154,73,29,20,17,11,22,19,1012,83,3,20141020180000
521,Jiaxing,,30.751627,120.762862,187,80,32,28,15,11,22,19,1012,83,3,20141020180000
522,"Chengbei water plant, Huzhou",,30.891155,120.096593,170,89,15,49,13,12,22,19,1012,83,3,20141020180000
523,"Jishan new village, Huzhou",,30.859939,120.120168,189,94,25,39,12,13,22,19,1012,83,3,20141020180000
524,"Town west water plant, Huzhou",,30.862371,120.084577,175,125,9,73,17,16,22,19,1012,83,3,20141020180000
525,Huzhou,,30.892304,120.091694,189,125,25,73,17,16,22,19,1012,83,3,20141020180000
526,"Donghu middle school, Shaoxing",,29.990447,120.647547,139,57,28,8,7,7,21,15,1013,68,1,20141020180000
527,"City EPA station, Shaoxing",,30.001695,120.584318,162,81,16,26,17,7,21,15,1013,68,1,20141020180000
528,"Chengdong BDA committee, Shaoxing",,29.986643,120.613578,149,64,21,27,14,6,21,15,1013,68,1,20141020180000
529,"Paojiang station, Shaoxing",,30.07574,120.62154,165,86,22,33,13,10,21,15,1013,68,1,20141020180000
530,"Shaoxing technical school, Shaoxing",,29.930983,120.577131,132,72,30,12,5,10,21,15,1013,68,1,20141020180000
531,"Library, Shaoxing",,29.706266,120.253183,165,88,16,18,12,16,21,15,1013,68,1,20141020180000
532,"Transporation management station, Shaoxing",,29.726405,120.221602,160,99,10,62,8,20,21,15,1013,68,1,20141020180000
533,"Dongpu Town Governement, Shaoxing",,30.049601,120.539893,178,102,15,32,54,9,21,15,1013,68,1,20141020180000
534,Shaoxing,,29.993122,120.590182,178,109,30,47,54,16,-,-,0,-,-,20141020180000
535,"City Monitoring Station, Jinhua",,29.100031,119.690373,164,88,18,42,10,9,18,17,0,92,2,20141020180000
536,"No.15 middle school, Jinhua",,29.074022,119.652121,151,75,27,9,12,9,18,17,0,92,2,20141020180000
537,"No.4 middle school, Jinhua",,29.110109,119.653654,152,71,18,27,9,15,18,17,0,92,2,20141020180000
538,"Beiyuan, Jinhua",,29.332898,120.083351,166,97,2,37,51,20,18,17,0,92,2,20141020180000
539,"Jiangdong, Jinhua",,29.302486,120.095291,163,76,7,38,21,16,18,17,0,92,2,20141020180000
540,Jinhua,,29.076083,119.65215,164,88,27,42,12,15,18,17,0,92,2,20141020180000
541,"EPA building, Quzhou",,28.937291,118.876081,158,93,12,37,36,14,21,17,1014,73,1,20141020180000
542,"Experimental school, Quzhou",,28.961502,118.880916,152,72,24,43,21,11,21,17,1014,73,1,20141020180000
543,"Quzhou University, Quzhou",,28.971452,118.860052,159,73,27,44,10,5,21,17,1014,73,1,20141020180000
544,Quzhou,,28.966994,118.864252,159,93,27,44,36,14,21,17,1014,73,1,20141020180000
545,"Putuo east port, Zhoushan",,29.951412,122.317679,63,20,25,1,1,3,22,20,1013,88,2,20141020180000
546,"Dinghai tanfeng, Zhoushan",,30.018014,122.126566,70,25,23,6,6,11,22,20,1013,88,2,20141020180000
547,Zhoushan,,29.983049,122.210763,70,29,25,6,6,11,22,20,1013,88,2,20141020180000
548,"Taizhou EPA building, Taizhou",,28.651216,121.42331,117,67,17,3,3,8,20,19,0,96,2,20141020180000
549,"Luqiao Tian Yang Wang, Taizhou",,28.574364,121.381194,97,51,17,6,4,5,20,19,0,96,2,20141020180000
550,"Huangyan EPA building, Taizhou",,28.656151,121.285064,95,52,15,13,2,6,20,19,0,96,2,20141020180000
551,"Yu Zhuang Qian, Lishui",,28.419638,119.883884,134,55,23,31,3,8,23,18,1015,67,0,20141020180000
552,"Monitoring station building, Lishui",,28.444379,119.923103,114,70,19,17,4,8,23,18,1015,67,0,20141020180000
553,"Liandu primary school, Lishui",,28.450912,119.939332,129,69,17,16,2,8,23,18,1015,67,0,20141020180000
554,Lishui,,28.464224,119.927201,134,70,23,31,4,8,23,18,1015,67,0,20141020180000
1248,Jingningxian,,27.977454,119.634837,99,58,4,13,2,7,,,,,,20141020180000
555,Taigu Primary School,,29.864178,121.60022,85,50,18,14,6,5,22,20,1013,88,2,20141020190000
556,Qianhu shuihan,,29.862459,121.5328,104,54,9,17,7,9,22,20,1013,88,2,20141020190000
557,Sanjiang secondary schools,,29.891563,121.568427,93,51,16,18,8,6,22,20,1013,88,2,20141020190000
558,Longsai Hospital,,29.957301,121.726734,89,50,24,14,7,6,22,20,1013,88,2,20141020190000
559,Beilun District EPB,,29.911633,121.850773,78,39,23,4,3,5,22,20,1013,88,2,20141020190000
560,Wanli University,,29.821314,121.574364,76,53,22,12,6,3,22,20,1013,88,2,20141020190000
561,Qianhu water plant,,29.774416,121.648136,76,30,24,4,4,3,22,20,1013,88,2,20141020190000
562,Municipal management station,,29.899182,121.626691,104,55,21,13,5,7,22,20,1013,88,2,20141020190000
1177,Daxie Literary Museum,,29.9027,121.986447,70,28,21,5,3,4,22,20,1013,88,2,20141020190000
1178,Cixi EPB,,30.165807,121.248991,107,58,24,13,6,11,22,20,1013,88,2,20141020190000
1179,Cixi Experimently Primary School,,30.179808,121.268672,127,58,27,12,8,8,22,20,1013,88,2,20141020190000
1180,"Yongsan Park, Yuyao",,30.050842,121.162477,132,61,19,18,9,8,22,20,1013,88,2,20141020190000
1181,"Qilupu Water Company, Yuyao",,30.039112,121.133416,142,68,13,14,11,8,22,20,1013,88,2,20141020190000
1182,Fenghua EPB,,29.666557,121.42069,102,51,24,8,8,6,22,20,1013,88,2,20141020190000
1183,"Yuelong station, Ninghai",,29.296505,121.445872,132,59,12,16,8,6,22,20,1013,88,2,20141020190000
1184,"Wenfeng Primary School, Xiangshan",,29.470908,121.889544,78,38,23,4,4,4,22,20,1013,88,2,20141020190000
1185,"Chengnan Primary School, Ninghai",,29.293812,121.43666,134,51,28,12,8,7,22,20,1013,88,2,20141020190000
1186,"Xingang Primary School, Xiangshan",,29.203878,121.952514,82,19,20,5,4,5,22,20,1013,88,2,20141020190000
1356,Haishu City Monitoring Center,,29.86835,121.539341,104,54,8,17,7,9,22,20,1013,88,2,20141020190000
1357,Fenghua Xikou government,,29.693164,121.29331,91,41,14,24,3,7,22,20,1013,88,2,20141020190000
1294,Ningbo,,29.865766,121.548164,104,55,24,18,8,7,22,20,1013,88,2,20141020190000
1187,Fuyang,,30.046157,119.96468,185,126,12,21,9,13,-,-,0,-,-,20141020190000
1188,Yiwu,,29.304353,120.079794,166,97,7,38,51,20,-,-,0,-,-,20141020190000
1189,Zhuji,,29.711185,120.240748,165,99,16,62,12,20,22,15,1013,64,1,20141020190000
563,"Shanxi Road , Nanjing",,32.06795,118.779216,269,171,16,32,12,11,19,19,1011,100,2,20141020190000
564,"Ruijin Road , Nanjing",,32.029321,118.80817,243,152,10,38,16,18,19,19,1011,100,2,20141020190000
565,"Xuanwu Lake, Nanjing",,32.075423,118.800188,245,161,13,47,13,15,19,19,1011,100,2,20141020190000
566,"Olympic Center, Nanjing",,32.007171,118.742217,250,177,17,27,4,17,19,19,1011,100,2,20141020190000
567,"Xianlin University Town , Nanjing",,32.106958,118.919882,272,181,20,57,14,17,19,19,1011,100,2,20141020190000
568,Nanjing,,32.058179,118.802061,254,186,21,45,14,17,19,19,1011,100,2,20141020190000
569,"Shangfang hill , Suzhou",,31.24502,120.565211,178,102,14,37,8,8,21,19,1012,88,2,20141020190000
570,"Wuzhong District , Suzhou",,31.268105,120.61717,162,70,17,56,8,9,21,19,1012,88,2,20141020190000
571,"Suzhou New District , Suzhou",,31.297277,120.547262,13,76,11,42,28,8,21,19,1012,88,2,20141020190000
572,"Suzhou Industrial Area, Suzhou",,31.307603,120.673257,156,66,31,23,6,7,21,19,1012,88,2,20141020190000
573,"Xiangcheng district, Suzhou",,31.368674,120.645209,153,74,17,37,11,11,21,19,1012,88,2,20141020190000
574,Suzhou,,31.296701,120.589493,178,78,26,48,28,14,21,19,1012,88,2,20141020190000
575,"South suburb , Nantong",,31.957836,120.917218,200,94,27,37,12,7,19,17,0,87,2,20141020190000
576,"Xinghu park, Nantong",,31.927873,120.944254,196,127,22,57,34,11,19,17,0,87,2,20141020190000
577,"Zilang school, Nantong",,32.039638,120.814358,222,137,27,37,20,0,19,17,0,87,2,20141020190000
578,Nantong,,31.978005,120.898555,200,127,22,57,30,15,19,17,0,87,2,20141020190000
579,Lianyungang,,34.595509,119.226814,152,84,21,27,10,7,8,8,1016,96,0,20141020190000
580,"Hongmen police substation, Lianyungang",,34.588692,119.146693,93,36,25,8,10,8,16,15,1016,99,3,20141020190000
581,"Xugou Nuclear Expert Village , Lianyungang",,34.749957,119.373707,72,50,27,7,7,8,16,15,1016,99,3,20141020190000
582,"Hengrui pharmaceutical company, BDA, Lianyungang",,34.697574,119.353668,59,26,27,11,5,8,16,15,1016,99,3,20141020190000
583,"City Monitoring Station, Lianyungang",,34.586791,119.186929,80,50,20,11,8,9,16,15,1016,99,3,20141020190000
584,"Yellow river new village , Xuzhou",,34.271542,117.177241,82,50,12,16,11,16,16,15,1017,94,1,20141020190000
585,"Tongshan Veterinary Hospital , Xuzhou",,34.307086,117.197766,74,45,15,8,1,9,16,15,1017,94,1,20141020190000
586,"New Town , Xuzhou",,34.213992,117.261718,87,36,16,7,4,6,16,15,1017,94,1,20141020190000
587,"Taoyuan road, Xuzhou",,34.289822,117.249721,91,46,17,3,3,12,16,15,1017,94,1,20141020190000
588,"Agricultural Science Academy , Xuzhou",,34.27655,117.299079,63,42,8,4,5,6,16,15,1017,95,3,20141020190000
589,"Tongshan EPA, Xuzhou",,34.179384,117.171798,112,42,11,1,4,9,16,15,1017,94,1,20141020190000
590,Xuzhou,,34.20346,117.289825,112,38,17,18,11,16,16,15,1017,94,1,20141020190000
591,Yangzhou,,32.39233,119.418446,159,69,10,19,10,5,11,9,0,90,6,20141020190000
592,"Hanjiang Monitoring Station, Yangzhou",,32.374218,119.394484,153,90,22,16,9,8,20,18,0,88,3,20141020190000
593,"No. 4 Hospital, Yangzhou",,32.401394,119.44444,155,92,28,5,17,8,20,18,0,88,3,20141020190000
594,"City Monitoring Station, Yangzhou",,32.406588,119.41591,154,80,28,8,20,7,20,18,0,88,3,20141020190000
595,"University Town , Wuxi",,31.484752,120.273571,180,135,17,43,14,10,22,19,1012,83,3,20141020190000
596,"Shibei High School , Wuxi",,31.619969,120.279584,221,153,19,50,18,10,22,19,1013,83,2,20141020190000
597,"Yuhong Elementary School , Wuxi",,31.561155,120.249588,182,128,16,45,10,13,22,19,1012,83,3,20141020190000
598,Wuxi,,31.488746,120.31575,189,95,22,49,20,13,-,-,0,-,-,20141020190000
599,Changzhou,,31.808037,119.979205,172,86,6,22,36,13,11,9,0,88,5,20141020190000
600,"Chengjian School, Changzhou",,31.776476,119.937681,224,190,11,29,20,19,21,17,0,78,2,20141020190000
601,"Changzhou Engineering Institute , Changzhou",,31.806828,119.966724,223,158,13,33,24,19,21,17,0,78,2,20141020190000
602,"Wujin Monitoring Station, Changzhou",,31.701788,119.939676,236,144,17,28,28,18,21,17,0,78,2,20141020190000
603,"City Monitoring Station, Changzhou",,31.777201,119.979426,199,158,15,38,29,20,21,17,0,78,2,20141020190000
604,Zhenjiang,,32.18597,119.431281,170,79,4,39,15,13,9,8,0,93,5,20141020190000
605,"New District Administrative office , Zhenjiang",,32.186174,119.685021,188,97,26,16,7,12,19,19,1011,100,2,20141020190000
606,"Vocational Education Center , Zhenjiang",,32.212973,119.496253,183,116,32,44,11,11,19,19,1011,100,2,20141020190000
607,"Dantu Monitoring Station , Zhenjiang",,32.130026,119.435432,192,133,19,26,12,14,19,19,1011,100,2,20141020190000
608,"City Monitoring Station, Zhenjiang",,32.202178,119.439766,190,139,17,35,13,14,19,19,1011,100,2,20141020190000
609,"Gaogang Adminstrative office , Taizhoushi",,32.300768,119.886757,191,83,15,9,9,5,20,18,0,88,3,20141020190000
610,"Students Innovation Park , Taizhoushi",,32.461672,119.892761,163,75,27,7,16,5,20,18,0,88,3,20141020190000
611,Taizhoushi,,32.453555,119.927852,191,92,27,51,16,10,20,18,0,88,3,20141020190000
612,"Yancheng power station , Yancheng",,33.400859,120.123067,132,57,37,6,4,5,,,0,,,20141020190000
613,Yancheng,,33.345939,120.168504,144,52,30,5,3,7,11,10,1016,95,4,20141020190000
614,"Wenfeng Middle School , Yancheng",,33.370531,120.134041,127,52,36,1,3,5,,,0,,,20141020190000
615,"BDA Management Committe, Yancheng",,33.393191,120.22978,112,38,39,2,5,3,,,0,,,20141020190000
616,"City Monitoring Station, Yancheng",,33.390623,120.164423,9,61,41,6,4,3,,,0,,,20141020190000
617,Suqian,,33.960666,118.281004,160,87,24,7,5,7,11,10,0,91,6,20141020190000
618,"Suqian College , Suqian",,33.951472,118.298523,46,15,20,16,4,10,16,16,0,94,5,20141020190000
619,"Suqian Middle School , Suqian",,33.95784,118.249505,53,17,21,8,2,7,16,16,0,94,5,20141020190000
620,"Suyu District Environmental Protection Agency , Suqian",,33.94932,118.326569,63,13,24,1,44,10,16,16,0,94,5,20141020190000
621,"City Monitoring Station, Suqian",,33.956982,118.277022,76,25,13,3,4,10,16,16,0,94,5,20141020190000
622,Taizhou,,28.653436,121.425185,119,67,16,13,3,8,20,19,0,96,2,20141020190000
623,Donghu Liyuan,,30.572324,114.377844,74,9,25,6,2,11,17,17,1016,100,2,20141020190000
624,Yuehu Lake,,30.554662,114.256937,38,7,25,10,2,10,17,17,1016,100,2,20141020190000
625,Hankou Huaqiao ,,30.61724,114.287652,30,20,17,10,2,13,17,17,1016,100,2,20141020190000
626,Wuchang Ziyang ,,30.530801,114.309438,89,52,18,12,5,11,17,17,1015,100,3,20141020190000
627,Qingshan Ganghua,,30.622435,114.375599,68,55,21,8,9,11,17,17,1016,100,2,20141020190000
628,Dunkou Xinou,,30.480091,114.162176,13,6,12,10,4,10,17,17,1016,100,2,20141020190000
629,Donghu Gaoxin,,30.48095,114.40724,38,24,28,7,4,14,17,17,1016,100,2,20141020190000
630,Wujianshan,,30.63114,114.135907,80,21,17,8,1,12,17,17,1016,100,2,20141020190000
631,Yuanshun Road,,30.297142,113.858587,42,26,27,6,8,11,17,17,1016,100,2,20141020190000
632,Wuhan,,30.590689,114.310838,74,7,25,10,9,13,17,17,1016,100,2,20141020190000
1190,"Silingsan Factory, Yichang",,30.713288,111.306585,151,64,3,20,3,10,17,17,1018,99,1,20141020190000
633,Yichang,,30.689528,111.292131,151,64,6,106,12,14,17,17,1018,99,1,20141020190000
633,Yichang,,30.689528,111.292131,151,64,6,106,12,14,17,17,1018,99,1,20141020190000
1191,"City Library , Jingzhou",,30.31494,112.260844,1,1,22,0,0,10,16,14,1018,82,1,20141020190000
1192,"City committee communist party school, Jingzhou",,30.35054,112.20743,1,1,17,0,0,10,16,14,1018,82,1,20141020190000
1193,"kerong EPA, Jingzhou",,30.302965,112.29443,1,1,22,0,0,10,16,14,1018,82,1,20141020190000
634,Jingzhou,,30.332608,112.245451,149,74,24,10,10,11,16,14,1018,82,1,20141020190000
634,Jingzhou,,30.332608,112.245451,149,74,24,10,10,11,16,14,1018,82,1,20141020190000
635,Huangshi,,30.19723,115.043908,183,115,32,18,14,36,23,,1016,78,4,20141020190000
635,Huangshi,,30.19723,115.043908,183,115,32,18,14,36,23,,1016,78,4,20141020190000
1194,"Chenjiaying, Huangshi",,30.232823,115.067923,170,98,19,8,3,14,23,,1016,78,4,20141020190000
1195,"Chenjiawan , Huangshi",,30.200422,115.082138,183,115,21,14,4,36,23,,1016,78,4,20141020190000
1196,"Xinxialu, Huangshi",,30.17332,114.954357,172,96,32,11,14,28,23,,1016,78,4,20141020190000
1197,"Tie montian, Huangshi",,30.203885,114.906439,170,94,16,18,1,20,23,,1016,78,4,20141020190000
1198,"BDA, Huangshi",,30.207491,115.031739,177,100,29,1,1,35,23,,1016,78,4,20141020190000
636,Shiyan,,32.627208,110.803311,124,135,21,1,1,2,13,,,100,1,20141020190000
636,Shiyan,,32.627208,110.803311,124,135,21,1,1,2,13,,,100,1,20141020190000
1199,"Wudang Mountain , Shiyan",,32.392921,111.047655,-,-,-,-,-,-,-,,,-,-,20141020190000
1200,"Riverside Village , Shiyan",,32.647286,110.785335,127,51,7,13,1,1,13,,,100,1,20141020190000
1201,"Liujiagou , Shiyan",,32.636732,110.731129,124,49,14,1,1,2,13,,,100,1,20141020190000
637,Xiangyang,,32.007029,112.128496,180,82,10,14,8,15,15,,1021,96,4,20141020190000
637,Xiangyang,,32.007029,112.128496,180,82,10,14,8,15,15,,1021,96,4,20141020190000
638,Ezhou,,30.389244,114.899884,153,73,22,8,6,21,18,,1026,100,8,20141020190000
638,Ezhou,,30.389244,114.899884,153,73,22,8,6,21,18,,1026,100,8,20141020190000
1203,"City government, Ezhou",,30.391836,114.892822,114,54,21,8,4,17,18,,1026,100,8,20141020190000
1204,"Zhaojiaba, Ezhou",,30.368966,114.90365,153,73,18,5,6,21,18,,1026,100,8,20141020190000
1205,"Fankou BDA, Ezhou",,30.410759,114.818225,107,46,22,1,1,14,18,,1026,100,8,20141020190000
639,Jingmen,,31.033208,112.205093,172,69,22,13,16,10,15,,1013,92,5,20141020190000
639,Jingmen,,31.033208,112.205093,172,69,22,13,16,10,15,,1013,92,5,20141020190000
640,Xiaogan,,30.922089,113.922387,72,50,18,1,22,12,17,,1016,100,2,20141020190000
640,Xiaogan,,30.922089,113.922387,72,50,18,1,22,12,17,,1016,100,2,20141020190000
1206,"wenhua street, Shenyang , Xiaogan",,30.925856,113.92104,72,31,18,1,2,12,17,,1016,100,2,20141020190000
1207,"Dongcheng District , Huludao , Xiaogan",,30.917963,113.943904,61,50,18,1,22,5,17,,1016,100,2,20141020190000
641,Huanggang,,30.45124,114.877378,151,62,33,15,2,16,20,,1026,100,8,20141020190000
641,Huanggang,,30.45124,114.877378,151,62,33,15,2,16,20,,1026,100,8,20141020190000
1208,"Dazhou Island, Huanggang",,30.446205,114.900323,82,61,24,15,1,16,18,,1026,100,8,20141020190000
1209,"Workers Center , Huanggang",,30.469244,114.912504,97,47,28,6,2,16,18,,1026,100,8,20141020190000
642,Xianning,,29.838978,114.327898,272,186,37,5,4,32,20,,988,81,1,20141020190000
642,Xianning,,29.838978,114.327898,272,186,37,5,4,32,20,,988,81,1,20141020190000
1210,"Municipal Development and Reform Commission , Xianning",,29.818645,114.328461,272,186,28,5,2,32,20,,988,81,1,20141020190000
1211,"Xianan District Governement, Xianning",,29.51107,114.181864,274,166,13,1,4,30,19,,998,92,1,20141020190000
1212,"Yangtze River Industrial Park , Xianning",,29.883098,114.32909,240,169,37,1,3,29,20,,988,81,1,20141020190000
1213,"Qianshan Park, Xianning",,29.815351,114.328689,199,124,24,4,1,20,20,,988,81,1,20141020190000
643,Suizhou,,31.688342,113.388675,157,60,27,3,6,17,15,,1014,96,5,20141020190000
643,Suizhou,,31.688342,113.388675,157,60,27,3,6,17,15,,1014,96,5,20141020190000
1338,"City committee communist party school, Suizhou",,31.725316,113.3648,153,69,31,2,1,13,15,,1014,96,5,20141020190000
1339,"Forestry Bureau, Suizhou",,31.690065,113.383157,163,51,26,5,5,11,15,,1014,96,5,20141020190000
645,Xiantao,,30.360228,113.460616,65,23,9,3,2,14,18,,1026,100,7,20141020190000
645,Xiantao,,30.360228,113.460616,65,23,9,3,2,14,18,,1026,100,7,20141020190000
1214,"Xiangcheng Yundong Street, Xiangfan",,32.017716,112.16102,171,66,19,13,7,12,14,,1021,95,3,20141020190000
1359,"Fancheng Xinhua Road , Xiangfan",,32.0544,112.145224,175,72,5,17,8,18,14,,1021,95,3,20141020190000
655,"City Environmental Monitoring Station, Baotou",,40.657201,109.886738,112,69,15,17,17,10,,,0,,,20141020190000
656,"Donghe EPB, Baotou",,40.586213,110.002224,97,169,5,38,11,11,,,0,,,20141020190000
657,"Baotou shopping mall, Baotou",,40.508334,109.819085,76,90,18,24,13,12,,,0,,,20141020190000
658,"Huilong logistics, Baotou",,40.633436,109.879821,142,90,10,15,12,8,,,0,,,20141020190000
659,Baotou,,40.658597,109.846051,161,169,18,45,24,18,,,0,,,20141020190000
660,"Huatai Automobile Mall, Eerduosi",,39.837048,109.972209,72,50,46,19,3,4,10,-2,1019,29,1,20141020190000
661,"Olympus Garden, Eerduosi",,39.789171,109.987742,112,69,43,27,7,10,10,-2,1019,29,1,20141020190000
662,Eerduosi,,39.609284,109.78704,149,75,47,40,16,22,10,-2,1019,29,1,20141020190000
663,"Tianyi Road, Chifeng",,42.275552,118.88507,76,51,39,12,57,4,1,-13,1031,21,2,20141020190000
664,"Songshan No.1 Middle School, Chifeng",,42.329307,118.793045,46,38,35,3,5,2,1,-13,1031,21,2,20141020190000
665,"Hada Street, Chifeng",,42.280714,118.988235,68,64,23,12,24,4,1,-13,1031,21,2,20141020190000
666,"Songshan Road, Chifeng",,42.171487,118.89501,38,51,48,7,12,3,1,-13,1031,21,2,20141020190000
667,Chifeng,,42.259752,118.893027,76,64,48,12,57,4,1,-13,1031,21,2,20141020190000
674,Fuzhou,,26.071406,119.301294,119,84,129,20,5,6,22,20,1015,88,2,20141020190000
675,"Xidong, Xiamen",,24.815345,118.161848,119,48,69,11,2,7,23,23,1015,100,1,20141020190000
676,"Hongwen, Xiamen",,24.473969,118.156281,87,38,44,15,3,8,23,23,1015,100,1,20141020190000
677,"Gulangyu, Xiamen",,24.443168,118.068571,68,23,41,5,2,4,23,23,1015,100,1,20141020190000
678,"Huli, Xiamen",,24.51235,118.099146,93,42,41,19,2,4,23,23,1015,100,1,20141020190000
679,Xiamen,,24.477187,118.094402,93,42,41,19,2,4,-,-,0,-,-,20141020190000
680,"Qingyuan Montain, Quanzhou",,24.939503,118.598337,85,32,45,3,4,5,23,23,1015,100,1,20141020190000
681,"Tushan Street, Quanzhou",,24.90867,118.586397,95,59,124,14,3,7,23,23,1015,100,1,20141020190000
682,"Wanan, Quanzhou",,24.304154,118.070903,102,33,38,14,2,9,23,23,1015,100,1,20141020190000
683,Quanzhou,,24.87179,118.68001,102,59,124,17,5,9,23,23,1015,100,1,20141020190000
687,"Jiancaoping, Taiyuan",,37.887889,112.528383,259,295,2,19,14,22,12,7,1022,72,4,20141020190000
688,"Jianhe, Taiyuan",,37.910779,112.579258,194,200,2,11,21,27,12,7,1022,72,4,20141020190000
689,"Shanglan, Taiyuan",,38.011589,112.440679,156,64,11,12,12,10,12,7,1022,72,4,20141020190000
690,"Jinyuan, Taiyuan",,37.713164,112.475552,272,216,1,24,20,15,12,7,1022,72,4,20141020190000
691,"Xiaodian, Taiyuan",,37.782137,112.483533,282,206,14,12,30,18,12,7,1022,72,4,20141020190000
692,"Taoyuan, Taiyuan",,37.869752,112.543332,210,167,1,31,16,27,12,7,1022,72,4,20141020190000
693,"Wucheng, Taiyuan",,37.819998,112.576252,197,175,2,22,21,24,12,7,1022,72,4,20141020190000
694,"Nanzhai, Taiyuan",,37.985902,112.555312,193,144,3,16,9,19,12,7,1022,72,4,20141020190000
695,"Jinsheng, Taiyuan",,37.781205,112.494494,189,153,3,23,26,16,12,7,1022,72,4,20141020190000
696,Taiyuan,,37.871115,112.555178,259,295,2,31,16,27,-,-,0,-,-,20141020190000
697,"Monitoring station, Changzhi",,36.194062,113.10389,173,97,22,13,19,21,,,0,,,20141020190000
698,"Auditing bureau, Changzhi",,36.212787,113.095221,187,100,39,12,5,23,,,0,,,20141020190000
699,"Qinghua station, Changzhi",,36.154328,113.116385,172,94,19,8,17,42,,,0,,,20141020190000
700,"No.8 middle school, Changzhi",,36.185451,113.099481,177,103,30,18,20,32,,,0,,,20141020190000
701,Changzhi,,36.195553,113.12292,187,103,39,18,20,42,,,0,,,20141020190000
702,"Yungang Hotel, Datong",,40.076997,113.278079,87,74,2,13,10,18,8,2,1021,62,2,20141020190000
703,"college of education, Datong",,40.085608,113.27808,153,72,3,10,6,33,8,2,1021,62,2,20141020190000
704,Datong,,40.078016,113.307143,153,74,10,13,11,33,8,2,1021,62,2,20141020190000
705,"Technical Schools, Linfen",,36.07131,111.509046,-,-,-,-,-,-,-,-,0,-,-,20141020190000
706,"Municipal party committee, Linfen",,36.087425,111.508771,139,72,15,33,23,28,9,2,0,62,1,20141020190000
1073,"City Monitoring Station, Linfen",,36.097676,111.518739,172,104,9,27,32,34,9,2,0,62,1,20141020190000
707,"South Airport, Linfen",,36.041614,111.497968,167,74,3,23,56,25,9,2,0,62,1,20141020190000
708,Linfen,,36.087944,111.525098,172,104,15,33,56,49,9,2,0,62,1,20141020190000
709,"City center, Yangquan",,37.848012,113.578636,291,444,21,11,22,21,12,7,1022,72,4,20141020190000
710,Yangquan,,37.857475,113.586921,315,444,24,82,109,27,12,7,1022,72,4,20141020190000
711,"Water Company, Jincheng",,35.504787,112.857245,170,118,5,22,56,23,13,12,1021,98,1,20141020190000
712,"Baiyun shopping mall, Jincheng",,35.492858,112.841566,161,115,5,16,3,28,13,12,1021,98,1,20141020190000
713,"City EPA, Jincheng",,35.488422,112.858528,163,89,6,12,4,31,13,12,1021,98,1,20141020190000
714,"Institute of Technology, Jincheng",,35.484844,112.878073,220,148,3,9,15,32,13,12,1021,98,1,20141020190000
715,"No.1 middle school, Jincheng",,35.478725,112.838636,161,94,4,12,10,21,13,12,1021,98,1,20141020190000
716,Jincheng,,35.490287,112.85794,220,148,6,12,15,32,13,12,1021,98,1,20141020190000
718,"District Government, Shuozhou",,39.320857,112.430641,,-,,-,-,,-,-,0,-,-,20141020190000
719,"City EPA, Shuozhou",,39.331495,112.407997,180,97,22,-,-,12,12,5,1020,53,1,20141020190000
720,"No.2 middle school, Shuozhou",,39.377963,112.432877,186,76,22,39,39,9,12,5,1020,53,1,20141020190000
721,Shuozhou,,39.332756,112.439672,186,76,22,39,55,9,12,5,1020,53,1,20141020190000
722,"Jinlun compound, Jinzhong",,37.697891,112.771017,179,82,5,10,28,14,14,5,1020,55,6,20141020190000
723,"Hydraulic Component Factory, Jinzhong",,37.688355,112.725844,180,-,4,,20,17,14,5,1020,55,6,20141020190000
724,"Nandu compound, Jinzhong",,37.713148,112.732036,172,110,52,11,10,17,14,5,1020,55,3,20141020190000
725,"Yuci district government, Jinzhong",,37.698228,112.714167,-,-,-,-,-,-,-,-,0,-,-,20141020190000
726,Jinzhong,,37.687705,112.759187,180,110,112,11,28,17,14,5,1020,55,6,20141020190000
727,"Yuncheng Middle School, Yuncheng",,35.012345,111.003215,-,-,-,-,-,-,-,-,0,-,-,20141020190000
728,"Yudou BDA, Yuncheng",,35.05065,111.029571,179,112,9,24,30,,14,13,1022,89,2,20141020190000
730,"Regional Technical School, Yuncheng",,35.028727,110.974076,173,124,6,-,62,31,14,14,1020,92,2,20141020190000
731,"Airport new district, Yuncheng",,35.084515,111.05339,199,-,14,-,-,-,13,12,1022,90,2,20141020190000
732,Yuncheng,,35.025675,111.013344,199,75,14,9,9,29,-,-,0,-,-,20141020190000
733,"Jiyin, Xinzhou",,38.413292,112.742432,,-,,-,-,,-,-,0,-,-,20141020190000
734,"BDA, Xinzhou",,38.450069,112.736723,233,52,2,6,50,7,14,5,1020,55,6,20141020190000
735,"Convention Center, Xinzhou",,38.492043,112.709772,256,158,7,31,44,24,14,5,1020,55,6,20141020190000
736,Xinzhou,,38.417244,112.740742,256,158,7,31,44,24,14,5,1020,55,6,20141020190000
737,"City EPA, Luliang",,37.522189,111.144365,-,-,-,-,-,-,-,-,0,-,-,20141020190000
738,"Soybean factory, Luliang",,37.51689,111.135101,186,-,4,-,-,36,18,8,0,42,2,20141020190000
739,"Water Company, Luliang",,37.53394,111.138834,173,130,10,-,10,32,18,8,0,42,2,20141020190000
740,Luliang,,25.027007,103.668566,186,79,4,-,17,36,18,8,0,42,2,20141020190000
741,"City government, Sanmenxia",,34.776251,111.198781,155,63,8,16,9,11,13,12,1022,90,2,20141020190000
743,"BDA, Sanmenxia",,34.800434,111.204332,151,60,3,12,7,16,13,12,1022,90,2,20141020190000
744,Sanmenxia,,34.771506,111.206129,156,67,8,17,9,19,13,12,1022,90,2,20141020190000
745,"Food Factory, Changchun",,43.919094,125.329521,195,126,16,28,14,11,-4,-12,1029,54,1,20141020190000
746,"Bus Factory, Changchun",,43.912337,125.293431,179,91,16,29,18,9,-4,-12,1029,54,1,20141020190000
747,"Institute of Posts and Telecommunications, Changchun",,43.842368,125.285005,178,110,8,28,12,8,-4,-12,1029,54,1,20141020190000
748,"Laodong Park, Changchun",,43.877293,125.371519,184,143,10,36,14,12,-4,-12,1029,54,1,20141020190000
749,"Forest area, Changchun",,43.871825,125.331519,197,108,11,29,17,15,-4,-12,1029,54,1,20141020190000
750,"Jinyuetan, Changchun",,43.79031,125.460561,235,152,21,36,13,10,-4,-12,1029,54,1,20141020190000
751,"Shuaiwanzi, Changchun",,43.552321,125.639086,173,87,21,8,4,12,-4,-12,1029,54,1,20141020190000
752,"Economic Development Zone Sanitation Department, Changchun",,43.869221,125.42365,279,147,13,36,16,11,-4,-12,1029,54,1,20141020190000
753,"High-tech Zone Administrative Committee, Changchun",,43.819064,125.256375,188,139,16,30,10,7,-4,-12,1029,54,1,20141020190000
754,"Daishan Park, Changchun",,43.852365,125.223399,169,94,11,27,18,10,-4,-12,1029,54,1,20141020190000
755,Changchun,,43.819415,125.329977,184,143,10,36,14,12,-,-,0,-,-,20141020190000
756,"Hadawan, Jilin",,43.888081,126.545727,243,168,21,33,13,14,-2,-18,0,28,1,20141020190000
757,"Fengman, Jilin",,43.768169,126.678802,144,59,25,5,4,5,-2,-18,0,28,1,20141020190000
758,"Electric Power College, Jilin",,43.827403,126.502281,281,179,13,34,26,10,-2,-18,0,28,1,20141020190000
759,"Jiangnan Park, Jilin",,43.83531,126.556519,194,105,12,24,13,7,-2,-18,0,28,1,20141020190000
760,"Dongjuzi, Jilin",,43.838597,126.590068,181,109,14,21,8,5,-2,-18,0,28,1,20141020190000
763,Jilin,,43.840137,126.555262,306,195,37,37,26,14,-2,-18,0,28,1,20141020190000
764,"Lingbei, Haerbin",,45.756979,126.548008,142,66,23,28,6,3,-9,-12,1029,79,2,20141020190000
765,"Songbei Commercial University, Haerbin",,45.818624,126.566963,144,57,24,21,10,3,-9,-12,1029,79,2,20141020190000
766,"Acheng huining, Haerbin",,45.544286,126.985183,142,63,20,14,7,3,-9,-12,1029,79,2,20141020190000
767,"Nangang College Street, Haerbin",,45.724121,126.604906,191,121,25,23,11,6,-9,-12,1029,79,2,20141020190000
768,"Taiping Hongwei Park, Haerbin",,45.775332,126.695101,72,36,23,18,38,6,-9,-12,1029,79,2,20141020190000
769,"Daowai Chengde Square, Haerbin",,45.768637,126.640955,70,45,26,15,20,6,-9,-12,1029,79,2,20141020190000
770,"Xiangfang Hongqi Street, Haerbin",,45.733936,126.691083,72,49,29,5,53,10,-9,-12,1029,79,2,20141020190000
771,"Dongli Heping Road, Haerbin",,45.727765,126.651974,87,41,24,17,19,2,-9,-12,1029,79,2,20141020190000
772,"Daoli Jianguo Road, Haerbin",,45.749715,126.59891,97,59,35,25,15,5,-9,-12,1029,79,2,20141020190000
773,"Pingfang Light Factory, Haerbin",,45.611951,126.620898,152,79,6,25,9,6,-9,-12,1029,79,2,20141020190000
774,"Hulan Normal College, Haerbin",,45.983745,126.616553,137,47,24,22,4,7,-9,-12,1029,79,2,20141020190000
775,"Provincial Academy of Agricultural Sciences, Haerbin",,45.686141,126.626517,157,95,19,27,21,7,-9,-12,1029,79,2,20141020190000
776,Haerbin,,45.805757,126.541007,144,66,24,28,10,3,-,-,0,-,-,20141020190000
777,"Anju Compound, Qiqihaer",,47.365672,123.937016,5,13,28,4,4,5,-6,-14,1030,41,2,20141020190000
778,"Farming Vehicule Factory, Qiqihaer",,47.326793,123.961427,53,10,24,15,58,10,-6,-14,1030,41,2,20141020190000
779,"Fuqu EPA, Qiqihaer",,47.1853,123.62322,91,56,29,-,4,3,-6,-14,1030,41,2,20141020190000
780,"City Center Square, Qiqihaer",,47.343096,123.96192,50,16,28,2,52,11,-6,-14,1030,41,2,20141020190000
1217,"City Environmental Monitoring Station, Qiqihaer",,47.303639,123.957551,42,35,21,11,4,3,-6,-14,1030,41,2,20141020190000
781,Qiqihaer,,47.356387,123.924736,91,56,29,15,58,11,-6,-14,1030,41,2,20141020190000
782,"Saertu District, Daqing",,46.582368,125.152904,34,10,26,7,8,2,-4,-16,1030,24,1,20141020190000
783,"Datong District, Daqing",,46.036786,124.842115,34,12,29,2,5,5,-4,-16,1030,24,1,20141020190000
784,"Honggang District, Daqing",,46.418381,124.88973,46,13,24,5,5,3,-4,-16,1030,24,1,20141020190000
785,"Longfeng District, Daqing",,46.535426,125.107043,34,14,28,11,11,4,-4,-16,1030,24,1,20141020190000
786,"Ranghulu District, Daqing",,46.635123,124.85648,38,18,29,9,11,2,-4,-16,1030,24,1,20141020190000
787,Daqing,,46.591414,125.110838,46,18,29,11,11,5,-4,-16,1030,24,1,20141020190000
788,"Locomotive Factory, Mudanjiang",,44.610589,129.652672,122,50,46,6,10,3,-4,-13,1028,36,1,20141020190000
789,"No. 1 hospital, Mudanjiang",,44.567775,129.617043,87,34,49,5,6,2,-4,-13,1028,36,1,20141020190000
1220,"EPA building, Mudanjiang",,44.567777,129.620658,124,66,25,3,4,3,-4,-13,1028,36,1,20141020190000
1221,"Cultural Square, Mudanjiang",,44.586388,129.623164,104,37,19,7,1,2,-4,-13,1028,36,1,20141020190000
790,Mudanjiang,,44.553619,129.640246,124,66,46,7,10,3,-4,-13,1028,36,1,20141020190000
791,"Mingzhu Plaza, Hefei",,31.782847,117.201512,178,192,196,9,9,11,18,18,1014,100,4,20141020190000
792,"Sanli Street, Hefei",,31.874637,117.312573,188,303,122,14,5,18,18,18,1014,100,4,20141020190000
793,"Hupo Compound, Hefei",,31.868583,117.264491,190,295,169,6,7,20,18,18,1014,100,4,20141020190000
794,"Dongpu Reservoir, Hefei",,31.90319,117.165584,167,197,171,5,5,10,18,18,1014,100,4,20141020190000
795,"Changjiang middle road, Hefei",,31.855185,117.255484,173,162,12,7,3,22,18,18,1014,100,4,20141020190000
796,"Luyang District, Hefei",,31.941771,117.271504,173,147,5,2,14,12,18,18,1014,100,4,20141020190000
797,"Yaohai District, Hefei",,31.856595,117.341644,188,150,19,4,4,22,18,18,1014,100,4,20141020190000
798,"Baohe District, Hefei",,31.793644,117.307554,184,184,6,1,2,16,18,18,1014,100,4,20141020190000
799,"Lake district, Hefei",,31.736619,117.283501,185,174,26,10,5,12,18,18,1014,100,4,20141020190000
800,"High-tech zone, Hefei",,31.849755,117.129624,168,238,22,5,8,11,18,18,1014,100,4,20141020190000
801,Hefei,,31.819449,117.232753,178,162,196,9,9,22,-,-,0,-,-,20141020190000
802,"Hudong Road No.4 Elementary School, Maanshan",,31.684121,118.511017,233,146,41,33,30,14,21,19,1012,88,2,20141020190000
803,"Tianping Garment Factory, Maanshan",,31.64197,118.488043,221,145,114,37,21,18,21,19,1012,88,2,20141020190000
804,"City education base, Maanshan",,31.711216,118.648913,162,75,8,14,6,7,21,19,1012,88,2,20141020190000
805,"Cihu No.2 elementary school, Maanshan",,31.748546,118.515729,283,163,17,31,33,22,21,19,1012,88,2,20141020190000
806,"Maanshan steel factory power plant, Maanshan",,31.690864,118.48528,194,180,23,25,42,18,21,19,1012,88,2,20141020190000
807,Maanshan,,31.668461,118.511939,283,180,114,37,42,22,21,19,1012,88,2,20141020190000
808,"Science Innovation Center, Wuhu",,31.417056,118.375406,192,96,9,16,3,14,21,19,1012,88,2,20141020190000
809,"No.4 Water Plant, Wuhu",,31.315914,118.376231,219,91,26,25,5,20,21,19,1012,88,2,20141020190000
810,"Monitoring station, Wuhu",,31.348955,118.358154,184,86,19,7,2,15,21,19,1012,88,2,20141020190000
811,"Wuqierling Factory, Wuhu",,31.382068,118.407639,190,115,35,22,11,9,21,19,1012,88,2,20141020190000
812,Wuhu,,31.351007,118.438322,219,115,35,25,11,20,21,19,1012,88,2,20141020190000
813,"Jiangxi Foreign Affairs Office, Nanchang",,28.678027,115.903436,232,157,11,55,12,34,22,18,1012,74,0,20141020190000
814,"Provincial forestry company, Nanchang",,28.69065,115.898546,194,174,6,44,15,14,22,18,1012,74,0,20141020190000
815,"Institute of Forestry, Nanchang",,28.731518,115.82478,169,101,26,20,22,12,22,18,1012,74,0,20141020190000
816,"Jingdong town government, Nanchang",,28.680659,115.972736,211,124,17,33,21,13,22,18,1012,74,0,20141020190000
817,"Contruction Industry College, Nanchang",,28.684018,115.865891,177,97,4,90,13,22,22,18,1012,74,0,20141020190000
818,"Xianghu, Nanchang",,28.637831,115.9033,191,429,4,101,6,21,22,18,1012,74,0,20141020190000
819,"Martial Arts School, Nanchang",,28.794538,115.752876,157,82,14,6,5,5,22,18,1012,74,0,20141020190000
820,"Petrifaction Company, Nanchang",,28.608634,115.912999,217,141,17,59,20,15,22,18,1012,74,0,20141020190000
821,"Provincial Station, Nanchang",,28.677155,115.941896,206,165,19,51,14,20,22,18,1012,74,0,20141020190000
822,Nanchang,,28.679883,115.863022,232,429,26,101,22,34,22,18,1012,74,0,20141020190000
1317,Puyang,,35.761825,115.035106,151,60,3,12,11,19,16,,1028,99,2,20141020190000
823,"Lushan Mountain Observatory, Jiujiang",,29.5751,115.998926,122,72,106,19,10,4,19,13,1013,64,4,20141020190000
824,"Shili, Jiujiang",,29.668119,115.992381,281,147,17,20,12,14,19,13,1013,64,4,20141020190000
825,"Maoshantou, Jiujiang",,29.700819,115.967192,214,136,25,19,14,10,19,13,1013,64,4,20141020190000
826,"Xiyuan, Jiujiang",,29.723929,115.998206,219,159,23,19,12,8,19,13,1013,64,4,20141020190000
827,"Wuqierling Factory, Jiujiang",,29.640802,116.022713,204,175,47,17,19,5,19,13,1013,64,4,20141020190000
828,"Water Scientific Research Institute, Jiujiang",,29.679179,116.068081,244,167,33,22,20,11,19,13,1013,64,4,20141020190000
829,"Zonghe Industrial Park, Jiujiang",,29.592047,115.916335,212,151,47,24,17,6,19,13,1013,64,4,20141020190000
830,"Petrochemical General Plant, Jiujiang",,29.738832,116.09463,244,143,28,19,14,6,19,13,1013,64,4,20141020190000
831,Jiujiang,,29.70254,116.007025,281,175,106,24,20,14,19,13,1013,64,4,20141020190000
1332,"Feiyu, Xinyu",,27.844697,115.000136,163,114,13,19,22,,27,,1014,51,1,20141020190000
1333,"Beigang, Xinyu",,27.932491,115.103767,155,83,19,22,15,,27,,1014,51,1,20141020190000
1334,"No.2 water factory, Xinyu",,27.839577,114.933915,162,101,4,17,16,,27,,1014,51,1,20141020190000
1335,"Bureau of Meteorology, Xinyu",,27.81048,114.936507,157,96,21,6,26,,27,,1014,51,1,20141020190000
1336,Xinyu,,27.814351,114.922194,163,114,21,22,26,,27,,1014,51,1,20141020190000
832,"Tobacco Factory, Zhengzhou",,34.753419,113.687131,184,93,14,17,7,25,15,13,1020,88,4,20141020190000
833,"Textile Machinery Factory, Zhengzhou",,34.773366,113.647067,189,90,16,17,10,25,15,13,1020,88,4,20141020190000
834,"Banking College, Zhengzhou",,34.800856,113.681126,187,86,7,19,13,14,15,13,1020,88,4,20141020190000
835,"Water Supply Company, Zhengzhou",,34.807188,113.571089,200,102,5,29,20,22,15,13,1020,88,4,20141020190000
836,"Economic Development Zone Management Committee, Zhengzhou",,34.717652,113.733182,182,83,9,6,11,19,15,13,1020,88,4,20141020190000
837,"No. 47 middle school, Zhengzhou",,34.772211,113.74009,191,118,13,15,11,18,15,13,1020,88,4,20141020190000
838,"City Monitoring Station, Zhengzhou",,34.748404,113.60514,187,91,19,19,5,32,15,13,1020,88,4,20141020190000
839,"Henan Medical University, Zhengzhou",,34.752637,113.641658,189,105,18,21,13,28,15,13,1020,88,4,20141020190000
840,"Gangli Reservoir, Zhengzhou",,34.952652,113.64248,185,94,4,15,10,24,15,13,1020,88,4,20141020190000
841,Zhengzhou,,34.745417,113.631415,189,105,19,21,13,32,-,-,0,-,-,20141020190000
842,"Henan University No.1 Hospital, Kaifeng",,34.799302,114.352706,159,64,17,17,17,12,15,13,1020,88,4,20141020190000
843,"Maternity And Child Hospital, Kaifeng",,34.795803,114.386103,127,63,10,11,9,15,15,13,1020,88,4,20141020200000
844,"Cancer Hospital, Kaifeng",,34.775428,114.350292,109,61,11,7,13,11,15,13,1020,88,4,20141020200000
845,"Yellow River Conservancy Institute, Kaifeng",,34.826066,114.324772,155,99,46,9,27,10,15,13,1020,88,4,20141020200000
846,"Shijixing Kindergarden, Kaifeng",,34.793606,114.302744,151,70,9,25,27,18,15,13,1020,88,4,20141020200000
847,Kaifeng,,34.796346,114.313426,159,70,17,25,27,18,15,13,1020,88,4,20141020200000
852,Jiaozuo,,35.215381,113.248188,192,124,24,26,12,35,15,13,1020,88,4,20141020200000
853,"Cotton Research Institute, Anyang",,36.081435,114.486451,158,66,9,10,2,12,15,13,1022,83,2,20141020200000
854,"Hongmiao Street, Anyang",,36.086733,114.326,157,63,7,11,6,15,15,13,1022,83,2,20141020200000
855,"Yinxing Compound, Anyang",,36.056519,114.36495,151,54,10,17,6,16,15,13,1022,83,2,20141020200000
856,"Tiefo Temple, Anyang",,36.110041,114.309309,182,86,5,27,41,27,15,13,1022,83,2,20141020200000
857,Anyang,,36.097767,114.398846,182,66,12,27,41,27,15,13,1022,83,2,20141020200000
858,"City Monitoring Station, Luoyang",,34.669055,112.439633,184,91,4,14,12,7,14,,1020,100,1,20141020200000
859,"BDA Management Committee, Luoyang",,34.622084,112.390759,163,70,8,18,19,11,14,,1020,100,1,20141020200000
860,"New municipal office, Luoyang",,34.623745,112.432973,164,76,4,17,9,15,14,,1020,100,1,20141020200000
861,"City committee communist party school, Luoyang",,34.650169,112.400212,163,59,2,23,8,11,14,,1020,100,1,20141020200000
862,"Henan Forestry College, Luoyang",,34.685566,112.509429,168,76,6,18,4,22,14,,1020,100,1,20141020200000
863,"CITIC No.2 Elementary School, Luoyang",,34.668212,112.36907,97,85,4,18,7,14,14,,1020,100,1,20141020200000
864,"Yuxi Hotel, Luoyang",,34.685949,112.472611,180,84,1,14,18,24,14,,1020,100,1,20141020200000
865,Luoyang,,34.617424,112.46054,184,91,8,23,19,24,14,,1020,100,1,20141020200000
866,"City Planning Design Institute, Pingdingshan",,33.7352,113.297916,235,143,21,23,38,24,15,13,1020,88,4,20141020200000
867,"Xinhua Hotel, Pingdingshan",,33.737754,113.328814,240,137,19,22,23,18,15,13,1020,88,4,20141020200000
868,"Engineering College, Pingdingshan",,33.772474,113.188235,234,146,10,22,13,28,15,13,1020,88,4,20141020200000
