locationid,stationname,chinesename,latitude,longitude,pm25,pm10,o3,no2,so2,co,temperature,dewpoint,pressure,humidity,wind,est_time
44,Chuansha,,31.188626,121.707342,61,40,28,16,4,5,21,17,1014,78,2,20141001170000
1,Dongcheng Dongsi,,39.9304,116.423239,159,68,2,26,2,12,11,11,1014,100,2,20141001170000
2,"Temple of Heaven, Dongcheng",,39.887403,116.41324,157,55,1,25,2,12,11,11,1014,100,2,20141001170000
3,West Park officials,,39.930333,116.345162,172,61,1,30,2,11,11,11,1014,100,2,20141001170000
4,West Wanshou Nishinomiya,,39.879354,116.358183,162,76,1,29,2,12,11,11,1014,100,2,20141001170000
5,Chaoyang Olympic Sports Center,,39.983406,116.403253,164,61,1,27,3,9,11,11,1014,100,2,20141001170000
6,Chaoyang Agricultural Exhibition Hall,,39.938331,116.46715,159,80,1,25,2,10,11,11,1014,100,2,20141001170000
7,Haidian Wanliu,,39.988245,116.293062,159,59,1,35,4,9,11,11,1014,100,2,20141001170000
8,The Haidian northern New Area,,40.091313,116.180194,157,55,1,24,3,9,11,11,1014,100,2,20141001170000
9,Haidian Beijing Botanical Garden,,40.003252,116.213097,162,56,2,24,2,8,11,11,1014,100,2,20141001170000
10,Fengtai garden,,39.86423,116.285037,164,72,1,29,2,12,11,11,1014,100,2,20141001170000
11,Fengtai Yungang,,39.82535,116.152237,156,56,1,25,2,10,11,11,1014,100,2,20141001170000
12,Shijingshan city,,39.915286,116.190144,163,67,1,30,2,11,11,11,1014,100,2,20141001170000
13,"Fangshan, Liangxiang",,39.743357,116.14225,162,60,1,27,2,10,11,11,1014,100,2,20141001170000
14,"Huangcunzhen, Daxing",,39.719389,116.410219,166,78,1,26,3,13,11,11,1014,100,2,20141001170000
15,BDA,,39.796197,116.51197,163,99,3,25,2,12,11,11,1014,100,2,20141001170000
16,Tongzhou New Town,,39.887113,116.6689,150,89,1,21,3,7,11,11,1014,100,2,20141001170000
17,Shunyi New Town ,,40.128111,116.660908,136,60,4,13,2,10,11,11,1014,100,2,20141001170000
18,Changping Town,,40.218245,116.236084,157,63,1,20,2,9,11,11,1014,100,2,20141001170000
19,"Mentougou, Longquan Town",,39.938397,116.112323,153,60,2,19,2,8,11,11,1014,100,2,20141001170000
20,Pinggu town,,40.144433,117.106563,144,61,6,10,2,8,11,11,1014,100,2,20141001170000
21,Huairou town,,40.329104,116.63387,136,56,6,11,2,10,11,11,1014,100,2,20141001170000
22,The town of Miyun,,40.371186,116.838053,98,53,7,8,2,9,11,11,1014,100,2,20141001170000
23,Yanqing town,,40.454217,115.978106,119,54,3,19,2,8,11,11,1014,100,2,20141001170000
24,Changping Dingling,,40.293269,116.226108,153,-,1,20,2,9,11,11,1014,100,2,20141001170000
25,Badaling Northwest,,40.36623,115.994146,145,52,2,21,17,9,11,11,1014,100,2,20141001170000
26,Miyun Reservoir,,40.500157,116.91701,117,48,12,3,2,8,11,11,1014,100,2,20141001170000
27,"Donggaocun Zhen, Pinggu",,40.10142,117.126556,138,44,5,17,2,7,11,11,1014,100,2,20141001170000
28,"Yongledianzhen, Tongzhou",,39.713192,116.78905,157,72,1,33,6,10,11,11,1014,100,2,20141001170000
29,"Yufazhen, Daxing",,39.521203,116.306026,170,-,1,25,2,12,11,11,1014,100,2,20141001170000
30,"Liulihezhen, Fangshan",,39.581169,116.006089,158,59,1,24,3,8,11,11,1014,100,2,20141001170000
31,"Qianmen E St, Dongcheng",,39.900402,116.401242,170,67,1,26,2,11,11,11,1014,100,2,20141001170000
32,Yongdingmen Inner St,,39.877401,116.400238,167,77,1,28,3,12,11,11,1014,100,2,20141001170000
33,Xizhimen N St,,39.955352,116.355187,166,66,1,29,4,11,11,11,1014,100,2,20141001170000
34,South Ring Road,,39.857377,116.37421,166,72,1,27,5,14,11,11,1014,100,2,20141001170000
35,East Fourth Ring Road,,39.940273,116.489075,157,70,1,24,6,11,11,11,1014,100,2,20141001170000
36,Beijing,,39.955906,116.474246,164,68,2,27,2,12,11,11,1014,100,2,20141001170000
37,Putuo,,31.232979,121.415378,65,34,40,24,8,3,21,17,1014,78,2,20141001170000
38,Yangpu Sipiao,,31.263795,121.540311,107,39,34,16,5,5,21,17,1014,78,2,20141001170000
39,Shanghai Normal College Primary Division,,31.199031,121.487719,72,33,32,16,4,8,21,17,1014,78,2,20141001170000
40,Dianshan Lake,,31.091338,120.982293,134,65,31,36,6,7,21,17,1014,78,2,20141001170000
41,Hongkou Liangcheng,,31.298906,121.47155,70,37,38,20,23,4,23,16,1015,65,3,20141001170000
42,Jingan,,31.224251,121.429637,42,32,27,17,5,8,21,17,1014,78,2,20141001170000
43,Shanghai Normal University,,31.163531,121.416643,68,40,34,17,6,6,21,17,1014,78,2,20141001170000
45,Zhangjiang,,31.204896,121.581215,38,37,35,14,3,4,21,17,1014,78,3,20141001170000
46,Lingshan Road,,31.226286,121.537317,53,34,35,12,5,4,21,17,1014,78,2,20141001170000
1080,City average,,31.228451,121.478227,71,48,41,18,8,4,23,16,1015,65,3,20141001170000
47,Shanghai,,31.202842,121.453493,61,36,35,18,6,8,21,17,1014,78,2,20141001170000
48,Guangzhou,,23.138517,113.263701,153,65,24,27,7,13,28,23,1012,74,0,20141001170000
49,"Huadu town, Guangzhou",,23.389121,113.220062,152,59,41,11,17,7,28,23,1012,74,0,20141001170000
50,"Luogang Zhenlong, Guangzhou",,23.308027,113.567032,151,76,32,19,30,8,28,23,1012,74,0,20141001170000
51,"LuHu, Guangzhou",,23.151743,113.281842,139,65,24,27,5,12,28,23,1012,74,0,20141001170000
52,"Tianhu, Guangzhou",,23.647433,113.629715,107,50,47,6,9,9,28,23,1012,74,0,20141001170000
53,"Zhudong, Guangzhou",,23.418406,113.078552,152,62,44,10,4,7,28,23,1012,74,0,20141001170000
54,"Modiesha station, Guangzhou",,23.103814,113.338238,99,60,61,17,2,10,29,23,1012,70,0,20141001170000
55,Zhuhai,,22.2677,113.581765,129,51,55,7,7,12,29,25,1012,79,4,20141001170000
1075,"Huicai technical school, Foshan",,23.039667,113.105492,124,56,40,9,14,9,28,23,1012,74,0,20141001170000
56,"Sanshuiyun donghai, Foshan",,23.185788,112.865368,132,51,53,13,12,10,28,23,1012,74,0,20141001170000
57,"Nanhai Bureau of Meteorology, Foshan",,23.046836,113.145764,124,54,44,18,10,9,28,23,1012,74,0,20141001170000
58,"Sanshui Monitoring Station, Foshan",,23.163551,112.890843,132,51,42,14,16,7,28,23,1012,74,0,20141001170000
1087,Foshan,,23.018995,113.126899,132,56,44,22,14,9,28,23,1012,74,0,20141001170000
59,"Ronggui street committee, Shunde",,22.762729,113.258356,132,50,41,14,28,9,28,23,1012,74,0,20141001170000
60,Shunde,,22.80246,113.298701,132,50,41,14,28,9,-,-,0,-,-,20141001170000
61,"Donghu, Jiangmen",,22.590411,113.087351,85,42,36,13,7,5,30,26,1011,79,3,20141001170000
62,"Taoyuan Atmosphere Premier Station, Jiangmen",,22.72489,112.93404,132,54,45,8,9,5,30,26,1011,79,3,20141001170000
63,Jiangmen,,22.576047,113.087351,87,44,36,13,11,14,30,26,1011,79,3,20141001170000
64,"Kengkouzi station, Zhaoqing",,23.158865,112.570287,152,65,105,4,8,10,28,23,1012,74,0,20141001170000
65,"Mugangzi station, Zhaoqing",,23.067961,112.431934,154,68,48,21,4,11,28,23,1012,74,0,20141001170000
66,"Qixingyanzi station, Zhaoqing",,23.075974,112.477437,-,-,-,-,-,-,-,-,0,-,-,20141001170000
67,Zhaoqing,,23.044571,112.470346,154,68,94,21,7,11,28,23,1012,74,0,20141001170000
68,"Jinguo Bay, Huizhou",,22.937223,114.385567,-,-,-,-,-,-,-,-,0,-,-,20141001170000
1091,"Xiabu, Huizhou",,23.077493,114.410275,78,39,41,5,3,5,26,24,1012,89,2,20141001170000
69,"Xijiao, Huizhou",,23.338178,114.112867,112,47,21,12,2,7,26,24,1012,89,2,20141001170000
70,"Jiangbei, Huizhou",,23.111706,114.415274,72,58,45,14,4,6,26,24,1012,89,2,20141001170000
71,"Huiyang chuanhu, Huizhou",,22.814485,114.329292,74,31,40,6,4,8,26,24,1012,89,2,20141001170000
72,"Daya bay management committee, Huizhou",,22.739283,114.53631,82,30,44,8,12,4,26,24,1012,89,2,20141001170000
73,Huizhou,,23.109349,114.421164,85,51,143,14,4,7,26,24,1012,89,2,20141001170000
74,"Guancheng No.2 water plant, Dongguan",,23.057294,113.753254,134,58,46,18,5,9,26,24,1012,89,2,20141001170000
75,"Dongcheng Shijing, Dongguan",,23.010039,113.799529,134,64,42,14,5,9,26,24,1012,89,2,20141001170000
76,"Nancheng Xiping, Dongguan",,22.963051,113.743494,112,56,48,6,6,8,26,24,1012,89,2,20141001170000
77,"Nancheng Yuanling, Dongguan",,23.025058,113.751308,119,50,63,14,9,9,26,24,1012,89,2,20141001170000
78,Dongguan,,23.017813,113.756958,134,64,63,18,9,9,26,24,1012,89,2,20141001170000
79,"Zimaling, Zhongshan",,22.505112,113.407183,82,36,36,12,7,8,29,25,1012,79,4,20141001170000
80,"Yangtze River tourist area, Zhongshan",,22.48589,113.439054,82,34,36,4,2,11,29,25,1012,79,4,20141001170000
81,"Huabai Park, Zhongshan",,22.51839,113.374362,80,40,23,20,5,12,29,25,1011,79,4,20141001170000
82,Zhongshan,,22.513997,113.398277,99,43,38,12,7,11,29,25,1012,79,4,20141001170000
83,"No.8 middle school, Shaoguan",,24.767777,113.583537,149,65,25,16,18,11,24,21,1013,85,2,20141001170000
83,"No.8 middle school, Shaoguan",,24.767777,113.583537,149,65,25,16,18,11,24,21,1013,85,2,20141001170000
84,"Forest area, Shaoguan",,24.796106,113.612131,147,80,28,7,26,12,24,21,1013,85,2,20141001170000
84,"Forest area, Shaoguan",,24.796107,113.612131,147,80,28,7,26,12,24,21,1013,85,2,20141001170000
86,"Shaoguan University, Shaoguan",,24.790864,113.646598,139,55,29,10,14,10,24,21,1013,85,2,20141001170000
86,"Shaoguan University, Shaoguan",,24.790864,113.646599,139,55,29,10,14,10,24,21,1013,85,2,20141001170000
88,"Qujiang Monitoring Station, Shaoguan",,24.683042,113.60157,158,61,33,20,11,10,24,21,1013,85,2,20141001170000
88,"Qujiang Monitoring Station, Shaoguan",,24.683042,113.60157,158,61,33,20,11,10,24,21,1013,85,2,20141001170000
89,Shaoguan,,24.807342,113.602712,158,80,33,20,26,14,24,21,1013,85,2,20141001170000
90,"Chaonanzi Station, Shantou",,23.251213,116.406762,85,38,39,6,10,11,27,24,1012,84,2,20141001170000
91,Shantou,,23.350642,116.686306,72,33,47,5,5,10,27,24,1012,84,2,20141001170000
92,"City Environmental Monitoring Station, Zhanjiang",,21.220431,110.397317,68,36,49,6,3,5,26,24,1012,83,2,20141001170000
93,"EPB Dormitory, Zhanjiang",,21.197376,110.406487,78,35,44,5,3,10,26,24,1012,83,2,20141001170000
94,"Xiashan Swimming Park, Zhanjiang",,21.200431,110.415655,78,66,46,5,6,10,26,24,1012,83,2,20141001170000
95,"Zhanjiang Theatre, Zhanjiang",,21.268177,110.366445,95,34,55,6,5,11,26,24,1012,83,2,20141001170000
96,"Mazhang EPA, Zhanjiang",,21.265486,110.335993,87,28,17,6,3,8,26,24,1012,83,2,20141001170000
97,"Potou District EPB, Zhanjiang",,21.247604,110.454508,78,55,44,10,3,10,26,24,1012,83,2,20141001170000
98,Zhanjiang,,21.26832,110.363883,95,55,55,10,6,11,26,24,1012,83,2,20141001170000
99,"Maogang sub-office EPB, Maoming",,21.466435,111.033462,104,50,46,3,7,5,26,24,0,84,3,20141001170000
100,"Petrochemical No. 7 elementaty school, Maoming",,21.648905,110.937861,153,65,47,13,47,9,26,24,0,84,3,20141001170000
101,"Jiankang road, Maoming",,21.662211,110.909482,155,71,31,11,36,13,26,24,0,84,3,20141001170000
102,"Gaoling, Maoming",,21.690558,110.871146,85,41,31,6,20,7,26,24,0,84,3,20141001170000
1094,Maoming,,21.660223,110.929968,155,71,47,13,47,13,26,24,0,84,3,20141001170000
103,"Jiaying University, Meizhou",,24.325415,116.12816,107,45,25,7,6,12,27,24,1012,84,2,20141001170000
104,"Mexian new town, Meizhou",,24.269283,116.084546,107,65,24,14,11,10,27,24,1012,84,2,20141001170000
105,"Environmental Monitoring Center, Meizhou",,24.262778,116.129621,95,43,28,7,4,9,27,24,1012,84,2,20141001170000
1095,Meizhou,,24.285988,116.127065,107,65,28,14,11,12,27,24,1012,84,2,20141001170000
106,"City EPA, Shanwei",,22.772349,115.370227,117,58,48,6,5,97,27,25,1013,83,1,20141001170000
107,"City government, Shanwei",,22.787161,115.375536,85,31,52,4,6,7,27,25,1013,83,1,20141001170000
108,"Xincheng Middle School, Shanwei",,22.789851,115.367124,82,33,46,6,5,10,27,25,1013,83,1,20141001170000
1099,Shanwei,,22.783576,115.38022,117,58,52,6,6,10,27,25,1013,83,1,20141001170000
109,"No.3 elementary school, Heyuan",,23.75435,114.703514,70,60,26,22,5,10,26,23,1012,84,2,20141001170000
109,"No.3 elementary school, Heyuan",,23.755946,114.699091,70,60,26,22,5,10,26,23,1012,84,2,20141001170000
111,"City water company, Heyuan",,23.754246,114.682459,152,61,24,20,7,10,26,23,1012,84,2,20141001170000
111,"City water company, Heyuan",,23.688709,114.954652,152,61,24,20,7,10,26,23,1012,84,2,20141001170000
113,"Heyuan high school, Heyuan",,23.720666,114.693879,61,55,26,13,4,9,26,23,1012,84,2,20141001170000
113,"Heyuan high school, Heyuan",,23.720037,114.699563,61,55,26,13,4,9,26,23,1012,84,2,20141001170000
115,Heyuan,,23.740888,114.705147,152,61,26,22,7,10,26,23,1012,84,2,20141001170000
116,"Yuanyang Lake, Yangjiang",,21.855869,111.983676,95,34,41,1,2,8,26,24,1012,82,3,20141001170000
1100,Yangjiang,,21.855227,111.987308,95,38,43,5,2,11,26,24,1012,82,3,20141001170000
118,"Town governement, Qingyuan",,23.708005,113.026215,61,26,28,5,8,16,28,23,1012,74,0,20141001170000
119,"Fupin district, Qingyuan",,23.624781,113.067713,72,49,24,13,5,19,28,23,1012,74,0,20141001170000
119,"Fupin district, Qingyuan",,24.185415,113.419369,72,49,24,13,5,19,28,23,1012,74,0,20141001170000
121,"Environment protection office, Qingyuan",,23.685931,113.053239,117,58,29,4,4,10,28,23,1012,74,0,20141001170000
121,"Environment protection office, Qingyuan",,23.691109,113.047948,117,58,29,4,4,10,28,23,1012,74,0,20141001170000
123,"Fengcheng Subdistrict, Qingyuan",,23.695447,113.068189,61,51,28,5,8,16,28,23,1012,74,0,20141001170000
124,Qingyuan,,23.679304,113.061513,117,58,29,13,5,19,28,23,1012,74,0,20141001170000
125,"Xiyuan Road, Chaozhou",,23.668654,116.638272,139,65,41,3,5,13,27,25,1013,89,2,20141001170000
126,"Archives Bureau, Chaozhou",,23.667881,116.649104,149,69,45,7,6,12,27,25,1013,89,2,20141001170000
127,"Municipal Corporation, Chaozhou",,23.65035,116.621859,156,78,44,11,17,14,27,25,1013,89,2,20141001170000
1101,Chaozhou,,23.654204,116.626969,156,78,45,11,17,14,27,25,1013,89,2,20141001170000
128,"Donghu Park, Jieyang",,23.532877,116.374427,91,37,48,3,9,11,27,25,1013,89,2,20141001170000
129,"Yuhu Middle School, Jieyang",,23.52682,116.414123,95,36,43,1,5,10,27,25,1013,89,2,20141001170000
130,"Experimental Primary School, Jieyang",,23.571473,116.364137,74,32,41,5,11,11,27,25,1013,89,2,20141001170000
1102,Jieyang,,23.547596,116.37754,95,37,48,5,11,11,27,25,1013,89,2,20141001170000
131,"City Environmental Monitoring Station, Yunfu",,22.936779,112.042248,164,103,36,15,7,10,28,23,1012,74,0,20141001170000
132,"The new city government headquarters, Yunfu",,22.914275,112.044475,159,69,40,9,6,19,28,23,1012,74,0,20141001170000
133,"Muyang police sub-station, Yunfu",,22.951267,112.05923,152,71,45,23,12,18,28,23,1012,74,0,20141001170000
1103,Yunfu,,22.912436,112.049811,164,103,45,23,12,19,28,23,1012,74,0,20141001170000
134,Yantian,,22.587949,114.266899,72,30,42,5,5,17,27,24,1012,84,5,20141001170000
135,Kwai Chung,,22.572837,113.867166,93,37,21,25,9,14,27,24,1012,84,5,20141001170000
135,Kwai Chung,,22.627947,114.428875,93,37,21,25,9,14,27,24,1012,84,5,20141001170000
135,Kwai Chung,,22.354168,114.134558,93,37,21,25,9,14,27,24,1012,84,5,20141001170000
137,Nanyou,,22.513802,113.928051,89,42,44,1,3,7,27,24,1012,84,5,20141001170000
138,Meisha,,22.59611,114.318345,76,32,38,3,4,11,27,24,1012,84,5,20141001170000
139,Xi xiang,,22.717524,114.252304,85,38,36,13,5,13,27,24,1012,84,5,20141001170000
140,Liyuan,,22.54732,114.101205,82,45,28,8,4,11,27,24,1012,84,5,20141001170000
1072,Kwai Chung,,22.572837,113.867166,76,29,28,9,2,7,27,24,1012,84,5,20141001170000
1072,Kwai Chung,,22.627947,114.428875,76,29,28,9,2,7,27,24,1012,84,5,20141001170000
1072,Kwai Chung,,22.354168,114.134558,76,29,28,9,2,7,27,24,1012,84,5,20141001170000
141,OCT,,22.539549,113.992458,87,47,33,18,2,17,27,24,1012,84,5,20141001170000
142,Honghu,,22.559647,114.121976,91,40,41,15,3,11,27,24,1012,84,5,20141001170000
143,Mission Hills,,22.694131,114.050496,74,37,34,13,3,8,26,24,1012,89,2,20141001170000
144,Shenzhen,,22.540382,114.062982,93,47,44,25,9,17,-,-,0,-,-,20141001170000
145,Chengdu,,30.622581,104.069564,117,55,21,42,3,8,21,18,1018,83,0,20141001170000
146,"Jinquan lianghe, Chengdu",,30.710359,103.974209,154,73,13,28,4,8,23,18,1017,73,2,20141001170000
147,"Shilidian, Chengdu",,30.684718,104.17845,117,76,15,33,3,8,23,18,1017,73,2,20141001170000
148,"Sanwayao, Chengdu",,30.568159,104.081524,93,60,11,27,2,9,23,18,1017,73,2,20141001170000
149,"Shahepu, Chengdu",,30.633685,104.120536,97,55,11,27,2,10,23,18,1017,73,2,20141001170000
150,"Liang Lane, Chengdu",,30.682601,104.076522,93,55,21,37,2,7,23,18,1017,73,2,20141001170000
151,"Caotang Temple, Chengdu",,30.651891,104.0284,87,52,24,42,3,8,23,18,1017,73,2,20141001170000
152,"Lingyansi, Chengdu",,31.025729,103.615022,109,48,50,4,2,2,23,18,1017,73,2,20141001170000
153,"Fuleshan, Mianyang",,31.472493,104.7806,74,33,26,4,5,8,24,19,1015,65,1,20141001170000
154,"High-tech Zone Water Company, Mianyang",,31.463309,104.674293,70,33,24,7,3,7,24,19,1015,65,1,20141001170000
155,"No.3 water company, Mianyang",,31.505002,104.731054,65,31,19,8,3,9,24,19,1015,65,1,20141001170000
156,Mianyang,,31.465174,104.681731,74,41,26,12,5,9,24,19,1015,65,1,20141001170000
157,"Dongshan Park, Deyang",,31.118648,104.424587,46,26,27,5,1,5,23,18,1017,73,2,20141001170000
158,"Xixiaoqu, Deyang",,31.131159,104.390972,57,26,15,16,10,7,23,18,1017,73,2,20141001170000
159,"City Procuratorate, Deyang",,31.114554,104.407986,65,42,9,13,6,9,23,18,1017,73,2,20141001170000
160,"Refractory Factory, Deyang",,31.108606,104.356506,93,53,18,18,13,4,23,18,1017,73,2,20141001170000
161,Deyang,,31.124715,104.400703,93,53,27,18,13,9,23,18,1017,73,2,20141001170000
162,"Nongnongping, Panzhihua",,26.566698,101.695438,55,22,25,12,16,7,20,11,0,45,4,20141001170000
163,"Hemenkou, Panzhihua",,26.589072,101.578312,99,52,32,9,12,11,20,11,0,45,4,20141001170000
164,"Bingcaogang, Panzhihua",,26.58143,101.718473,57,42,16,25,6,10,20,11,0,45,4,20141001170000
165,"Renhe, Panzhihua",,26.498166,101.746887,55,24,14,14,6,8,20,11,0,45,4,20141001170000
166,"Jinjina, Panzhihua",,26.553226,101.84862,87,71,21,10,32,8,20,11,0,45,4,20141001170000
167,Panzhihua,,26.578779,101.720211,99,71,32,25,32,11,20,11,0,45,4,20141001170000
168,"Shima Middle School, Yibin",,28.815979,104.599199,142,62,17,25,11,10,22,20,1017,83,1,20141001170000
169,"Municipal party committee, Yibin",,28.762654,104.624834,129,47,18,4,5,10,22,20,1017,83,1,20141001170000
170,"No. 4 middle school, Yibin",,28.783257,104.608407,154,71,13,23,10,8,22,20,1017,83,1,20141001170000
171,"City government, Yibin",,28.760477,104.644079,144,63,17,17,12,9,22,20,1017,83,1,20141001170000
172,"Huangjinzui, Yibin",,28.712319,104.578389,151,89,18,19,9,11,22,20,1017,83,1,20141001170000
173,"Shaping Middle School, Yibin",,28.795569,104.681393,104,44,21,7,2,8,22,20,1017,83,1,20141001170000
174,Yibin,,28.748384,104.645766,154,89,21,25,12,11,22,20,1017,83,1,20141001170000
175,"Datang Hill, Zigong",,29.359969,104.757388,127,60,15,11,1,6,22,20,1001,89,2,20141001170000
176,"Yanma Road, Zigong",,29.355752,104.724036,97,63,19,11,17,8,22,20,1001,89,2,20141001170000
177,"Tanmulin Street, Zigong",,29.353555,104.777397,139,56,20,9,7,5,22,20,1001,89,2,20141001170000
178,"Chunhua Road, Zigong",,29.33825,104.771895,180,46,13,10,4,9,22,20,1001,89,2,20141001170000
179,Zigong,,29.33617,104.781138,180,63,20,11,17,9,22,20,1001,89,2,20141001170000
180,"Jiushi Hill, Luzhou",,28.955347,105.434207,21,50,29,2,1,2,22,21,1001,91,1,20141001170000
181,"Xiaoshishang Port, Luzhou",,28.899583,105.447192,114,54,21,4,6,8,22,21,1001,91,1,20141001170000
182,"Lantianxian Bridge, Luzhou",,28.852766,105.4358,117,44,25,10,2,4,22,21,1001,91,1,20141001170000
183,"City Environment Monitoring Station, Luzhou",,28.895898,105.435802,139,53,17,18,4,7,22,21,1001,91,1,20141001170000
184,Luzhou,,28.868782,105.445938,139,54,29,18,6,8,22,21,1001,91,1,20141001170000
185,"City Committee, Nanchong",,30.799993,106.082906,134,61,22,9,4,7,21,21,1017,100,1,20141001170000
186,"Refinery Factory, Nanchong",,30.819412,106.10712,157,73,28,38,10,4,21,21,1017,100,1,20141001170000
187,"Gaoping District Monitoring Station, Nanchong",,30.783291,106.110417,155,66,20,22,4,8,21,21,1017,100,1,20141001170000
188,"Jialing District EPB, Nanchong",,30.761255,106.06818,169,74,30,29,10,7,21,21,1017,100,1,20141001170000
189,"City Environmental Monitoring Station, Nanchong",,30.836519,106.11272,154,60,18,13,10,7,21,21,1017,100,1,20141001170000
190,Nanchong,,30.835511,106.114717,169,73,30,38,10,8,21,21,1017,100,1,20141001170000
1249,"City Monitoring Station, Neijiang",,29.592673,105.036234,134,69,8,9,6,7,22,20,1001,89,2,20141001170000
1250,"Dongxing District Government , Neijiang",,29.592148,105.074966,142,48,9,17,4,5,22,20,1001,89,2,20141001170000
1251,"No 2 middle school, Neijiang",,29.579135,105.068548,155,80,9,17,1,6,22,20,1001,89,2,20141001170000
1252,Neijiang,,29.577653,105.06166,155,80,9,17,6,8,22,20,1001,89,2,20141001170000
1253,"City Monitoring Station, Suining",,30.610641,105.683583,124,64,42,11,4,9,21,19,0,87,1,20141001170000
1254,"Administrative center , Suining",,30.63206,105.819747,91,50,48,16,2,6,21,19,0,87,1,20141001170000
1255,Suining,,30.530053,105.596307,124,77,48,22,24,9,21,19,0,87,1,20141001170000
1256,"City Monitoring Station, Leshan",,29.560651,103.759211,156,79,24,26,12,10,21,19,0,86,1,20141001170000
1257,"Leshan Giant Buddha Scenic Area , Leshan",,29.543938,103.772706,155,71,34,12,8,8,21,19,0,86,1,20141001170000
1258,Leshan,,29.54935,103.767777,156,79,34,28,18,12,21,19,0,86,1,20141001170000
1259,"Heilongtan , Meishan",,30.047726,103.900649,154,53,33,5,7,6,23,18,1017,73,2,20141001170000
1260,"Bureau of Meteorology, Meishan",,30.084591,103.843715,194,108,31,14,4,7,23,18,1017,73,2,20141001170000
1261,"Xuguang Community , Meishan",,30.066277,103.8516,205,118,31,12,3,7,23,18,1017,73,2,20141001170000
1262,"City Monitoring Station, Meishan",,30.059205,103.836229,204,117,26,21,6,8,23,18,1017,73,2,20141001170000
1263,Meishan,,30.072618,103.85064,205,118,33,21,7,8,23,18,1017,73,2,20141001170000
1264,"Ziyang middle school, Ziyang",,30.147763,104.638024,57,56,26,2,20,12,22,20,1001,89,2,20141001170000
1265,Ziyang,,30.126054,104.63004,63,63,29,7,20,14,22,20,1001,89,2,20141001170000
191,Shenyang US Consulate,,41.785668,123.432865,174,74,11,29,11,9,9,8,1014,93,3,20141001170000
192,"Huishan, Shenyang",,41.835421,123.647773,173,82,11,11,2,9,8,8,1014,100,3,20141001170000
193,"Hunnan, Shenyang",,41.758263,123.540809,182,98,2,22,9,9,9,8,1014,93,3,20141001170000
194,"Zhangshi, Shenyang",,41.771679,123.289859,167,99,2,19,10,8,8,8,1014,100,3,20141001170000
195,"Artillery College, Shenyang",,41.835749,123.547799,117,67,4,15,4,9,9,8,1014,93,3,20141001170000
196,"Beiling, Shenyang",,41.849633,123.434146,162,80,2,20,6,6,8,8,1014,100,3,20141001170000
197,"Wenyi Road, Shenyang",,41.767444,123.416144,182,74,7,29,11,9,9,8,1014,93,3,20141001170000
198,"Xiaoheyan, Shenyang",,41.779828,123.484015,172,84,10,25,6,8,8,8,1014,100,3,20141001170000
199,"Taiyuan Street, Shenyang",,41.799646,123.406146,185,86,2,25,8,9,8,8,1014,100,3,20141001170000
200,"Ermao, Shenyang",,41.783011,123.366679,174,98,9,28,15,8,9,8,1014,93,3,20141001170000
201,"Liaoning University, Shenyang",,41.830704,123.361071,161,58,7,15,5,7,9,8,1014,93,3,20141001170000
202,Shenyang,,41.808126,123.437611,174,86,2,29,11,9,9,8,1014,93,3,20141001170000
1104,"wenhua street, Shenyang , Shenyang",,41.774139,123.441839,177,74,7,28,10,8,8,8,1015,100,4,20141001170000
1105,"Tanglin Road , Shenyang , Shenyang",,41.823665,123.562317,117,67,4,15,4,9,8,8,1014,100,3,20141001170000
203,"Ganjingzi, Dalian",,38.9747,121.616893,107,69,24,16,1,5,14,13,1013,94,2,20141001170000
204,"Zhoushuizi, Dalian",,38.951928,121.569981,63,40,22,13,2,11,14,13,1014,94,1,20141001170000
205,"Xinghai No 3 station, Dalian",,38.885779,121.568864,107,29,23,7,3,6,14,13,1013,94,2,20141001170000
206,"Qingniwa Bridge, Dalian",,38.91274,121.638018,63,30,31,11,1,7,14,13,1014,94,1,20141001170000
207,"Fujiazhuang, Dalian",,38.864647,121.629947,53,40,33,9,4,5,14,13,1014,94,1,20141001170000
208,"Qixianling, Dalian",,38.856978,121.523169,68,33,11,10,2,6,14,13,1013,94,2,20141001170000
209,"Lushun, Dalian",,38.808946,121.264063,72,38,13,8,2,5,14,13,1013,94,2,20141001170000
210,"Jinzhou, Dalian",,39.132192,121.753259,85,58,11,8,3,5,14,13,1013,94,2,20141001170000
211,"BDA, Dalian",,39.05213,121.782022,93,44,15,10,1,5,14,13,1013,94,2,20141001170000
212,"D&D Port, Dalian",,39.064087,121.981874,78,32,5,7,2,10,14,13,1013,94,2,20141001170000
213,Dalian,,38.91478,121.619625,63,40,33,11,4,7,-,-,0,-,-,20141001170000
214,"Bearing Factory, Dandong",,40.068929,124.345703,104,62,13,30,13,20,11,9,1014,75,1,20141001170000
215,"Financial school, Dandong",,40.158723,124.432593,134,72,18,24,8,16,11,9,1014,75,1,20141001170000
216,"Yuanbaoshan water, Dandong",,40.149431,124.391698,76,37,26,11,13,14,11,9,1014,75,1,20141001170000
217,"Experimental Primary School, Dandong",,39.887343,124.158056,102,57,13,25,5,5,11,9,1014,75,1,20141001170000
218,Dandong,,40.002046,124.360479,134,72,26,25,13,16,11,9,1014,75,1,20141001170000
1106,"minzhu bridge, Dandong , Dandong",,40.112974,124.373604,102,57,13,25,5,5,11,9,1014,75,1,20141001170000
1107,"yuanbaoshan, Dandong , Dandong",,40.146298,124.399081,76,37,26,11,13,14,11,9,1014,75,1,20141001170000
1108,"linjiang houjie, Dandong , Dandong",,40.152757,124.431745,134,72,18,24,8,16,11,9,1014,75,1,20141001170000
219,"BDA, Panjin",,41.157144,122.06645,134,53,11,9,4,10,7,6,0,91,5,20141001170000
220,"Xinglongtai, Panjin",,41.140948,122.111343,137,71,5,16,6,12,7,6,0,91,5,20141001170000
221,"Dingxiang, Panjin",,41.16139,121.928781,107,54,16,10,4,10,7,6,0,91,5,20141001170000
222,Panjin,,41.122089,122.076206,137,71,16,16,6,12,7,6,0,91,5,20141001170000
223,"No.3 water company, Yingkou",,40.682052,122.385352,70,33,31,17,3,9,8,7,1014,94,6,20141001170000
224,"Yingkou University, Yingkou",,40.683689,122.388285,80,35,26,17,3,9,8,7,1014,94,6,20141001170000
225,"Botanical garden, Yingkou",,40.711674,122.281568,178,101,10,17,4,30,8,7,1014,94,6,20141001170000
226,Yingkou,,40.668578,122.24059,178,101,36,17,4,13,8,7,1014,94,6,20141001170000
1109,"jinghu west street, Yingkou , Yingkou",,40.653831,122.221943,70,33,31,17,3,9,8,7,1014,94,6,20141001170000
1110,"Daqing Road , Yingkou , Yingkou",,40.709181,122.28243,202,128,7,13,4,13,8,7,1014,94,6,20141001170000
227,"Xishanpo, Huludao",,40.724078,120.921974,157,70,14,27,79,16,7,6,0,91,5,20141001170000
228,"Huagong hospital, Huludao",,40.755662,120.848435,91,61,9,24,6,32,7,6,0,91,5,20141001170000
229,"New district park, Huludao",,40.723415,120.853801,93,62,17,22,10,13,7,6,0,91,5,20141001170000
230,"Lianshan district governement, Huludao",,40.775488,120.872292,80,53,12,29,10,11,7,6,0,91,5,20141001170000
231,Huludao,,40.712501,120.842107,157,70,14,27,79,16,8,6,0,87,2,20141001170000
1111,"Dongcheng District , Huludao , Huludao",,40.775362,120.871706,80,53,12,29,10,11,,,0,,,20141001170000
1112,"huagong street, Huludao , Huludao",,40.758901,120.842935,91,61,9,24,6,32,,,0,,,20141001170000
232,Anshan,,41.110466,123.000147,199,153,13,38,18,29,8,8,1014,100,3,20141001170000
233,"Qianshan Park, Anshan",,41.033486,123.143897,250,156,14,24,6,15,8,8,1015,100,4,20141001170000
234,"Tiexi, Anshan",,41.121636,122.97506,199,137,8,23,12,28,9,8,1014,93,3,20141001170000
235,"Taiping Station, Anshan",,41.153322,123.052433,189,113,7,22,12,18,9,8,1014,93,3,20141001170000
236,"Central Station, Anshan",,41.106731,123.002736,170,115,12,18,8,29,9,8,1014,93,3,20141001170000
237,"Shengou Temple, Anshan",,41.137157,123.031901,183,107,12,38,7,22,8,8,1014,100,3,20141001170000
1113,"Qianshan , Anshan , Anshan",,41.014521,123.122538,250,156,14,24,6,15,8,8,1015,100,4,20141001170000
1114,"Tiexi Sandao jie, Anshan",,41.103264,122.978613,199,137,8,23,12,28,8,8,1014,100,3,20141001170000
1115,"Taiyang, Anshan",,41.094946,123.019037,170,115,12,18,8,29,8,8,1014,100,3,20141001170000
238,Fushun,,41.883028,123.962984,99,81,11,11,7,11,9,8,1014,93,3,20141001170000
239,"Shenfu new town, Fushun",,41.804638,123.631684,174,78,6,12,5,12,8,8,1014,100,3,20141001170000
240,"Reservoir, Fushun",,41.8464,123.802857,164,80,13,10,6,18,9,8,1014,93,3,20141001170000
241,"Train Station, Fushun",,41.89726,124.017604,171,82,6,11,8,13,9,8,1014,93,3,20141001170000
242,"Dongzhou, Fushun",,41.855578,124.044738,117,95,12,15,7,11,9,8,1014,93,3,20141001170000
243,"Xinhua, Fushun",,41.888598,123.932932,160,82,5,21,5,12,9,8,1014,93,3,20141001170000
244,"Wanghua, Fushun",,41.888825,123.093723,169,71,4,24,6,14,9,8,1014,93,3,20141001170000
245,Benxi,,41.296267,123.772371,204,141,4,30,12,21,9,8,1014,93,3,20141001170000
246,"Weining, Benxi",,41.349663,123.826071,175,105,11,26,5,27,9,8,1014,93,3,20141001170000
247,"Occupational disease hospital, Benxi",,41.305432,123.74645,179,81,4,14,7,13,9,8,1014,93,3,20141001170000
248,"Dongming, Benxi",,41.292369,123.765058,184,63,4,6,20,29,8,8,1014,100,3,20141001170000
249,"Caitun, Benxi",,41.301591,123.746039,189,127,4,43,6,17,8,8,1014,100,3,20141001170000
250,"Xihu, Benxi",,41.331332,123.773537,195,67,4,29,6,21,9,8,1014,93,3,20141001170000
251,"Dayu, Benxi",,41.308091,123.818442,204,77,6,30,12,15,9,8,1014,93,3,20141001170000
1116,"Xinlitun , Benxi , Benxi",,41.264104,123.811523,179,81,4,14,7,13,8,8,1014,100,3,20141001170000
252,Jinzhou,,41.097169,121.132647,134,42,10,18,9,11,8,6,1015,87,2,20141001170000
253,"Beihu Park, Jinzhou",,41.141447,121.137339,114,44,10,13,7,10,8,6,1015,87,2,20141001170000
254,"Monitoring station, Jinzhou",,41.113441,121.140911,132,49,9,18,6,10,8,6,1015,87,2,20141001170000
255,"Nanshan, Jinzhou",,41.570689,122.046753,134,53,9,18,7,10,8,6,1015,87,2,20141001170000
1118,"BDA, Jinzhou",,40.853915,121.061756,95,39,7,17,9,11,8,6,1015,87,2,20141001170000
1119,"tianan street, Jinzhou , Jinzhou",,41.124468,121.126119,124,49,9,17,6,8,8,6,1015,87,2,20141001170000
1120,"baigu street, Jinzhou, Jinzhou",,41.12214,121.21027,109,42,9,13,5,8,8,6,1015,87,2,20141001170000
1121,Chaoyang,,41.576022,120.456053,134,61,11,7,20,10,-,-,0,-,-,20141001170000
472,"Fukang road, Tianjin",,39.098136,117.157621,175,84,3,22,8,16,13,12,1012,94,2,20141001170000
1122,"Agricultural Area, Chaoyang",,43.93968,125.247371,127,44,5,5,4,10,9,8,1016,94,2,20141001170000
1123,Tieling,,42.225197,123.732174,129,51,11,7,38,6,-,-,0,-,-,20141001170000
260,"Waterpark, Tieling",,42.297031,123.880748,157,53,5,12,10,8,9,8,1014,93,3,20141001170000
1124,"Huigong Street West , Tieling , Tieling",,42.311115,123.845614,114,41,4,7,3,6,9,8,1014,93,3,20141001170000
1125,Liaoyang,,41.269312,123.24268,159,17,4,18,13,24,-,-,0,-,-,20141001170000
1126,"Riverside Road , Liaoyang , Liaoyang",,41.176884,123.419859,159,61,4,17,9,16,9,8,1014,93,3,20141001170000
1127,Fuxin,,42.02373,121.675733,74,23,11,9,4,4,-,-,0,-,-,20141001170000
266,"Agricultural Area, Fuxin",,42.071291,121.696445,65,28,10,3,6,5,7,6,0,91,3,20141001170000
267,"Industrial Area, Fuxin",,42.041052,121.715554,68,25,7,6,3,9,7,6,0,91,3,20141001170000
1128,"Yulong Metro , Fuxin , Fuxin",,42.035091,121.666531,42,25,13,6,6,9,7,6,0,91,3,20141001170000
1129,"Dongyuan , Fuxin , Fuxin",,42.029119,121.681553,50,22,11,7,5,5,7,6,0,91,3,20141001170000
268,"City Monitoring Station, Jinan",,36.662614,117.054645,188,118,20,28,33,7,17,13,1014,71,2,20141001170000
269,"Shandong Institute of Economics, Jinan",,36.63819,117.074975,182,115,19,38,30,6,17,13,1014,71,2,20141001170000
270,"Quancheng Plaza, Jinan",,36.661711,117.027043,184,107,17,22,22,8,17,13,1014,71,2,20141001170000
271,"Kegansuo, Jinan",,36.611582,116.99384,172,103,27,38,18,7,17,13,1014,71,2,20141001170000
272,"Agriculture Science Institute, Jinan",,36.663115,116.95063,163,87,12,29,15,12,17,13,1014,71,2,20141001170000
273,"Lanxiang technical school, Jinan",,36.700421,116.95342,164,74,11,21,22,8,17,13,1014,71,2,20141001170000
274,"Chemical factory, Jinan",,36.687463,116.994406,165,74,10,21,17,7,17,13,1014,71,2,20141001170000
275,"Provincial Seed Warehouse, Jinan",,36.685706,117.066348,171,93,20,26,16,9,17,13,1014,71,2,20141001170000
276,"Shandong Architecture University, Jinan",,36.681732,117.191868,177,96,20,24,43,9,17,13,1014,71,2,20141001170000
277,"Baosheng cable company, Jinan",,36.724638,117.130855,170,84,11,19,16,7,17,13,1014,71,2,20141001170000
278,"Paomaling, Jinan",,36.47869,117.219027,144,66,48,11,21,13,17,13,1014,71,2,20141001170000
279,"Changqing District Communist Party School, Jinan",,36.548797,116.770859,176,89,20,25,45,13,17,13,1014,71,2,20141001170000
280,"BDA, Jinan",,36.685835,117.130851,174,96,29,30,31,10,17,13,1014,71,2,20141001170000
281,Jinan,,36.651426,117.126625,188,139,32,41,33,23,17,13,1014,71,2,20141001170000
282,"Shinan district No. 1, Qingdao",,36.065534,120.40839,57,31,49,1,5,2,17,13,1013,77,1,20141001170000
283,"Shibei district No. 1, Qingdao",,36.069919,120.341264,38,44,42,2,7,5,17,13,1013,77,1,20141001170000
284,"Shibei district No. 2, Qingdao",,36.104146,120.36637,21,13,107,7,5,4,18,11,1014,64,2,20141001170000
285,"Huangdao District No. 1, Qingdao",,35.958935,120.191041,57,50,40,10,13,5,17,13,1013,77,1,20141001170000
286,"Huangdao District No. 2, Qingdao",,35.970487,120.160339,61,43,34,12,11,8,17,13,1013,77,1,20141001170000
287,"Laoshan District No. 1, Qingdao",,36.085881,120.451839,68,41,46,8,14,6,17,13,1013,77,1,20141001170000
288,"Laoshan District No. 2, Qingdao",,36.091075,120.490388,38,28,68,6,7,1,17,13,1013,77,1,20141001170000
289,"Licang District No. 1, Qingdao",,36.184872,120.38533,59,43,21,20,9,7,17,13,1013,77,1,20141001170000
290,"Licang District No. 2, Qingdao",,36.154369,120.432287,78,62,17,31,7,5,17,13,1013,77,1,20141001170000
291,"Chengyang District No. 1, Qingdao",,36.308502,120.40008,76,51,22,22,13,4,17,13,1013,77,1,20141001170000
292,"Chengyang District No. 2, Qingdao",,36.308429,120.465806,72,46,38,11,9,2,17,13,1013,77,1,20141001170000
293,Qingdao,,36.067358,120.387773,68,50,42,2,16,8,17,13,1013,77,1,20141001170000
294,"Zichuan Meteo. Stations, Zibo",,36.637916,117.960222,183,110,18,44,68,18,16,14,0,87,1,20141001170000
295,"Dongfeng Chemical factory, Zibo",,36.838576,118.050785,169,92,16,22,19,15,16,14,0,87,1,20141001170000
296,"Boshan shuangshan, Zibo",,36.497278,117.853581,199,110,21,41,60,14,16,14,0,87,1,20141001170000
297,"Linzi Putian Park, Zibo",,36.820171,118.315022,157,71,30,20,19,17,16,14,0,87,1,20141001170000
298,"Qilu Petrochemical, Zibo",,36.765907,118.254967,78,74,24,19,14,12,16,14,0,87,1,20141001170000
299,"Zhoucun sanjin Group, Zibo",,36.8044,117.85694,163,76,27,14,23,20,16,14,0,87,1,20141001170000
300,"Vocational College, Zibo",,36.825208,117.926305,168,79,14,24,54,16,16,14,0,87,1,20141001170000
301,"BDA, Zibo",,36.905214,118.021824,163,76,17,13,16,13,16,14,0,87,1,20141001170000
302,Zibo,,36.813618,118.060948,199,133,30,44,68,18,16,14,0,87,1,20141001170000
303,"Shizhong District Government, Zaozhuang",,34.850397,117.569545,155,87,41,17,23,6,19,14,1014,63,2,20141001170000
304,"Sewage treatment plant, Zaozhuang",,34.818951,117.595345,173,79,24,27,21,7,19,14,1014,63,2,20141001170000
305,"Xuecheng EPA, Zaozhuang",,34.790214,117.272455,162,70,33,18,9,6,19,14,1014,63,2,20141001170000
306,"Yicheng District government, Zaozhuang",,34.772806,117.57647,184,108,40,24,11,8,19,14,1014,63,2,20141001170000
307,"Taierzhuang EPA, Zaozhuang",,34.579462,117.741067,151,76,30,15,6,8,19,14,1014,63,2,20141001170000
308,"Shanting EPA, Zaozhuang",,35.070373,117.457691,155,92,44,14,21,11,19,14,1014,63,2,20141001170000
309,"City EPA, Zaozhuang",,34.809466,117.320608,139,152,47,12,8,5,19,14,1014,63,2,20141001170000
310,"High-tech zone, Zaozhuang",,34.821779,117.363495,107,57,36,12,9,6,19,14,1014,63,2,20141001170000
311,Zaozhuang,,34.809693,117.329634,184,108,44,24,23,11,19,14,1014,63,2,20141001170000
312,"City EPA, Dongying",,37.432052,118.672871,170,90,27,14,35,12,17,14,0,84,1,20141001170000
313,"Vocational College, Dongying",,37.438653,118.630567,173,105,27,14,30,10,17,14,0,84,1,20141001170000
314,"Xianhe Oil Production Plant, Dongying",,37.442419,118.510222,182,119,27,14,15,10,17,14,0,84,1,20141001170000
315,"Gengjin village, Dongying",,37.445072,118.55839,178,116,23,12,29,9,17,14,0,84,1,20141001170000
316,"City environmental company, Dongying",,37.466599,118.508012,179,96,27,17,20,11,17,14,0,84,1,20141001170000
317,"Hekou  district, Dongying",,37.883786,118.522171,175,105,37,12,23,7,17,14,0,84,1,20141001170000
318,"BDA, Dongying",,37.435162,118.701827,181,87,35,16,25,14,17,14,0,84,1,20141001170000
319,Dongying,,37.435429,118.680434,182,119,37,17,35,12,17,14,0,84,1,20141001170000
320,"Bearing Factory, Yantai",,37.544126,121.376956,95,51,23,31,7,5,,,0,,,20141001170000
321,"Xijiao Chemical Station, Yantai",,37.547148,121.323695,93,55,35,17,8,6,,,0,,,20141001170000
322,"Fushan Monitoring Stations, Yantai",,37.472245,121.260116,53,30,6,6,4,6,,,0,,,20141001170000
323,"Mouping EPA, Yantai",,37.376681,121.586509,65,49,31,9,10,5,,,0,,,20141001170000
324,"Laishan EPA, Yantai",,37.478422,121.44829,80,40,35,21,6,3,,,0,,,20141001170000
325,"Laishan Shengquan Industrial Park, Yantai",,37.4271,121.408386,68,46,32,11,10,5,,,0,,,20141001170000
326,"China Agricultural University, Yantai",,37.423568,121.511838,59,42,32,14,7,5,,,0,,,20141001170000
327,"BDA EPA, Yantai",,37.560827,121.257954,68,33,16,19,4,6,,,0,,,20141001170000
329,"Dajijia, Yantai",,37.673849,121.071465,63,34,21,6,5,5,,,0,,,20141001170000
330,Yantai,,37.464793,121.453142,95,57,35,17,8,6,17,11,0,67,3,20141001170000
331,"BDA, Weifang",,36.720022,119.054064,193,111,29,21,27,7,,,0,,,20141001170000
332,"Business School, Weifang",,36.682442,119.105909,184,86,28,21,37,5,,,0,,,20141001170000
333,"Hanting District, Weifang",,36.773484,119.199705,154,75,32,18,10,6,,,0,,,20141001170000
334,"Gongda Company, Weifang",,36.657635,119.167266,160,86,31,22,14,4,,,0,,,20141001170000
335,"City EPA, Weifang",,36.701272,119.16838,163,92,25,16,7,2,,,0,,,20141001170000
336,"City Arbitration Committee, Weifang",,36.702422,119.145927,164,81,38,18,7,8,,,0,,,20141001170000
337,"Xinhui Group, Weifang",,36.641581,119.11679,154,79,28,18,9,6,,,0,,,20141001170000
338,"Jincheng Middle School, Weifang",,36.773611,119.115539,170,92,40,21,14,5,,,0,,,20141001170000
339,Weifang,,36.707217,119.167638,193,111,40,22,37,8,17,14,0,84,1,20141001170000
340,"City Monitoring Station, Jining",,35.408443,116.623917,161,92,25,15,19,13,18,14,1015,70,0,20141001170000
1090,"Shengdi Hollidays Resort, Jining",,35.424746,116.699093,154,66,28,17,26,7,18,14,1015,70,0,20141001170000
341,"Sewage treatment plant, Jining",,35.364286,116.609177,169,65,25,14,11,11,18,14,1015,70,0,20141001170000
342,"Electrochemical Factory, Jining",,35.390473,116.552956,151,73,31,16,19,11,18,14,1015,70,0,20141001170000
343,"Rencheng BDA, Jining",,35.390484,116.662995,162,71,31,20,16,12,18,14,1015,70,0,20141001170000
344,"Agricultural School, Jining",,35.44235,116.601682,157,83,19,24,13,10,18,14,1015,70,0,20141001170000
345,"BDA Huojucheng, Jining",,35.436377,116.642953,167,71,27,12,13,13,18,14,1015,70,0,20141001170000
346,Jining,,35.414473,116.59239,167,92,28,17,26,7,18,14,1015,70,0,20141001170000
347,"Taishan monitoring station, Taian",,36.194362,117.159648,159,83,19,16,19,14,14,13,0,90,2,20141001170000
348,"Shandong Electric Power School, Taian",,36.176071,117.12413,171,81,25,24,18,13,8,6,0,77,8,20141001170000
349,"Population Education school, Taian",,36.194417,117.104131,153,73,32,9,15,11,8,6,0,77,8,20141001170000
350,"Houfeng company, Taian",,36.204863,117.19015,154,91,17,16,21,13,8,6,0,77,8,20141001170000
351,"Nongda new campus, Taian",,36.170179,117.165191,182,122,6,50,30,24,8,6,0,77,8,20141001170000
352,"Transportation technical school, Taian",,36.202126,117.047068,157,73,14,18,21,13,8,6,0,77,8,20141001170000
353,"ICT Technology, Taian",,36.116621,117.107458,190,111,9,29,17,17,8,6,0,77,8,20141001170000
354,Taian,,36.200502,117.093682,190,122,32,50,30,24,8,6,0,77,8,20141001170000
355,"City Environmental Monitoring Station, Weihai",,37.513939,122.067058,61,28,36,11,6,4,17,11,0,67,3,20141001170000
356,"Woodworking Factory, Weihai",,37.325455,122.160777,61,32,45,6,5,2,17,11,0,67,3,20141001170000
357,"Lantian Hotel, Weihai",,37.514641,122.146276,57,25,47,9,7,4,17,11,0,67,3,20141001170000
358,"Zhang village government, Weihai",,37.485561,122.049436,42,24,34,10,6,4,17,11,0,67,3,20141001170000
359,"Gao District Bank, Weihai",,37.534919,122.056294,65,32,41,6,6,4,18,11,0,67,3,20141001170000
360,"Huxia technical school, Weihai",,37.427951,122.130811,68,46,34,6,8,4,17,11,0,67,3,20141001170000
361,Weihai,,37.5141,122.125477,68,46,47,11,8,4,17,11,0,67,3,20141001170000
362,"City governement square, Rizhao",,35.4075,119.526008,124,70,24,25,6,6,18,14,1015,69,1,20141001170000
363,"Port Authority, Rizhao",,35.381297,119.55396,104,67,30,33,7,6,18,14,1015,69,1,20141001170000
364,"City Monitoring Station, Rizhao",,35.388683,119.496405,124,59,22,39,8,8,18,14,1015,69,1,20141001170000
365,"Professor Garden, Rizhao",,35.462161,119.574193,104,68,39,21,8,8,18,14,1015,69,1,20141001170000
366,"Vocational and Technical College, Rizhao",,35.441939,119.538187,112,59,35,33,10,7,18,14,1015,69,1,20141001170000
367,"Lanshan EPA branch, Rizhao",,35.293405,119.345716,142,65,28,26,19,3,18,14,1015,69,1,20141001170000
368,"Jinma Industrial Park, Rizhao",,35.373339,119.514108,107,66,31,38,11,6,18,14,1015,69,1,20141001170000
369,Rizhao,,35.416089,119.532316,142,70,39,38,19,8,18,14,1015,69,1,20141001170000
370,"Vegetable oil factory, Laiwu",,36.205028,117.700917,181,89,24,17,42,13,17,13,1014,70,1,20141001170000
371,"Nursing home, Laiwu",,36.266067,117.652769,177,120,16,17,27,22,17,13,1014,70,1,20141001170000
372,"Xinyi middle school, Laiwu",,36.245086,117.739025,158,89,14,17,40,19,17,13,1014,70,1,20141001170000
373,"Risheng International School, Laiwu",,36.208125,117.730959,177,105,18,11,38,12,17,13,1014,70,1,20141001170000
374,"Gangcheng EPA, Laiwu",,36.066836,117.871823,160,86,13,12,45,25,17,13,1014,70,1,20141001170000
375,"City EPA, Laiwu",,36.228913,117.694797,162,75,24,5,36,18,17,13,1014,70,1,20141001170000
376,Laiwu,,36.213688,117.682612,181,120,18,17,45,22,-,-,0,-,-,20141001170000
377,"Lunan Pharmaceutical Factory, Linyi",,35.061671,118.299527,174,107,15,29,17,24,16,13,0,82,2,20141001170000
378,"Yihe compound, Linyi",,35.056752,118.34739,157,84,19,23,11,11,16,13,0,82,2,20141001170000
379,"Linyi University, Linyi",,35.114777,118.293414,188,123,10,28,18,19,16,13,0,82,2,20141001170000
380,City EPA,Nanfang,35.104871,118.353518,102,80,26,18,9,9,16,13,0,82,2,20141001170000
381,"Xinguang woolen factory, Linyi",,34.981004,118.282,165,115,12,21,24,15,16,13,0,82,2,20141001170000
382,"Hongfu Baijiu Factory, Linyi",,34.998788,118.257275,180,144,14,29,17,16,16,13,0,82,2,20141001170000
384,"Hedong insurance company, Linyi",,35.089354,118.40812,114,71,19,44,13,8,16,13,0,82,2,20141001170000
385,"Jianghua vehicule center, Linyi",,35.010082,118.435749,159,72,14,33,18,11,16,13,0,82,2,20141001170000
386,Linyi,,35.10428,118.362202,188,144,26,21,24,24,16,13,0,82,2,20141001170000
387,"Heima group, Dezhou",,37.466063,116.314134,151,58,24,12,9,8,15,12,1014,79,3,20141001170000
388,"Monitoring station, Dezhou",,37.433107,116.377312,153,52,20,10,12,13,15,12,1014,79,3,20141001170000
389,"Supervision Station, Dezhou",,37.449689,116.324709,119,62,22,12,7,14,15,12,1014,79,3,20141001180000
390,"Huayu technical school, Dezhou",,37.462809,116.357559,248,70,28,22,12,13,15,12,1014,79,3,20141001180000
391,"Shuangyi group, Dezhou",,37.478848,116.316362,154,84,26,20,5,9,15,12,1014,79,3,20141001180000
392,Dezhou,,37.434959,116.363366,153,70,28,22,7,16,15,12,1014,79,3,20141001180000
393,"Dongchang District Government, Liaocheng",,36.444473,115.971733,159,68,12,22,10,16,13,13,1014,96,2,20141001180000
394,"Light Machinery Factory No. 2, Liaocheng",,36.456788,116.002383,166,86,10,6,9,16,17,13,1014,67,1,20141001180000
395,"City committee communist party school, Liaocheng",,36.479537,115.989288,154,73,9,20,11,15,13,13,1014,96,2,20141001180000
396,"Customs, Liaocheng",,36.431933,115.956974,5,77,8,31,7,12,17,13,1014,67,1,20141001180000
397,"Hongshun Garden, Liaocheng",,36.471124,115.960319,157,84,10,27,13,14,17,13,1014,67,1,20141001180000
398,"BDA, Liaocheng",,36.459407,116.043621,163,73,11,22,12,15,17,13,1014,67,1,20141001180000
399,Liaocheng,,36.456792,115.991051,166,86,12,31,13,16,17,13,1014,67,1,20141001180000
400,"City EPA, Binzhou",,37.38024,118.026895,173,68,17,12,18,0,17,15,1014,84,0,20141001180000
401,"Beizhong new school, Binzhou",,37.38374,117.988996,164,57,11,7,11,15,17,15,1014,84,0,20141001180000
402,"No.2 water factory, Binzhou",,37.36155,118.002648,167,32,9,8,10,16,17,15,1014,84,0,20141001180000
403,"Keling Chemical factory, Binzhou",,37.396138,117.943609,162,66,13,12,5,14,17,15,1014,84,0,20141001180000
404,"Yinhe logistics company, Binzhou",,37.356122,117.943326,168,79,11,10,13,15,17,15,1014,84,0,20141001180000
405,"Bilin compond, Binzhou",,37.36815,117.978964,163,75,13,9,7,13,17,15,1014,84,0,20141001180000
406,Binzhou,,37.382639,117.976606,168,79,13,10,13,16,17,15,1014,84,0,20141001180000
407,"Bureau of Meteorology, Heze",,35.248625,115.428775,99,84,20,24,11,14,14,13,0,96,3,20141001180000
408,"Sewage treatment plant, Heze",,35.222517,115.531511,165,81,10,16,7,9,14,13,0,96,3,20141001180000
409,"Municipal CPPCC, Heze",,35.237125,115.480591,160,72,19,17,11,10,14,13,0,96,3,20141001180000
410,"Huarun Pharmaceutical Company, Heze",,35.261463,115.524873,157,73,20,17,9,10,14,13,0,96,3,20141001180000
411,"Heze University, Heze",,35.269706,115.460934,164,75,25,30,9,10,14,13,0,96,3,20141001180000
412,Heze,,35.233354,115.486503,164,84,25,30,11,14,14,13,0,96,3,20141001180000
413,"Shiji Park, Shijiazhuang",,38.03155,114.547873,181,97,1,12,6,10,12,12,1013,100,1,20141001180000
414,"Xinan College, Shijiazhuang",,38.012764,114.473163,168,104,1,8,7,9,12,12,1013,100,1,20141001180000
415,"Chemical College, Shijiazhuang",,38.055503,114.569816,201,103,1,18,14,10,12,12,1013,100,1,20141001180000
416,"Worker hospital, Shijiazhuang",,38.051784,114.461209,175,94,1,14,6,9,12,12,1013,100,1,20141001180000
417,"Northwest Water Company, Shijiazhuang",,38.140638,114.508038,177,98,1,13,4,5,12,12,1013,100,1,20141001180000
418,"High-tech zone, Shijiazhuang",,38.040482,114.610775,171,106,1,11,5,6,12,12,1013,100,1,20141001180000
419,"Fenglong Montain, Shijiazhuang",,37.910829,114.360264,132,62,8,27,33,17,12,12,1013,100,1,20141001180000
1130,"Zhengding Unicom, Shijiazhuang",,38.159458,114.59879,195,127,2,27,9,14,12,12,1013,100,1,20141001180000
1131,"Luancheng Communications, Shijiazhuang",,37.906534,114.638785,201,114,2,28,15,11,12,12,1013,100,1,20141001180000
1132,"Gaocheng Experimental School, Shijiazhuang",,38.039518,114.867812,193,144,2,22,26,10,12,12,1013,100,1,20141001180000
1133,"Wuji EPA, Shijiazhuang",,38.17862,114.997012,201,117,2,31,6,10,12,12,1013,100,1,20141001180000
1134,"Shenze Power Supply Bureau, Shijiazhuang",,38.197674,115.219126,89,116,1,24,3,11,12,12,1013,100,1,20141001180000
1135,"Zhaoxian EPA, Shijiazhuang",,37.77171,114.775957,195,135,1,28,5,12,12,12,1013,100,1,20141001180000
1136,"Gaoyi County City Hall, Shijiazhuang",,37.623535,114.612729,232,143,1,25,11,12,12,12,1013,100,1,20141001180000
1137,"Zanhuang County City Hall, Shijiazhuang",,37.672898,114.398269,233,141,1,27,10,12,12,12,1013,100,1,20141001180000
1138,"Jingxing Bureau of Meteorology, Shijiazhuang",,38.038788,114.158406,174,114,2,21,8,21,12,12,1013,100,1,20141001180000
1139,"Pingshan Ye River, Shijiazhuang",,38.266657,114.210275,165,82,2,27,9,12,12,12,1013,100,1,20141001180000
420,Shijiazhuang,,38.042926,114.520834,201,135,4,18,14,10,12,12,1013,100,1,20141001180000
421,"No. 12 middle school, Tangshan",,39.659306,118.190271,175,85,5,20,4,10,-,-,0,-,-,20141001180000
422,"Ceramics Company, Tangshan",,39.669255,118.225185,153,50,4,14,10,9,13,12,1012,94,2,20141001180000
423,"Commodities Bureau, Tangshan",,39.642301,118.191265,153,69,6,14,6,9,13,12,1012,94,2,20141001180000
424,"Leidazhanzi Station, Tangshan",,39.644375,118.150383,153,60,2,17,8,10,13,12,1012,94,2,20141001180000
425,"Supply and marketing cooperatives, Tangshan",,39.632334,118.17232,167,58,3,20,11,11,13,12,1012,94,2,20141001180000
1140,"Guye District City Hall, Tangshan",,39.741379,118.460246,152,66,3,34,17,17,13,12,1012,94,2,20141001180000
1141,"Kaiping Stations, Tangshan",,39.675246,118.275149,194,95,4,34,19,26,13,12,1012,94,2,20141001180000
1142,"Fengnan District City Hall, Tangshan",,39.5834,118.097454,127,59,1,39,10,20,13,12,1012,94,2,20141001180000
1143,"Fengrun City Hall, Tangshan",,39.840355,118.175338,162,74,6,14,4,11,13,12,1012,94,2,20141001180000
1144,"Qianxi EPA, Tangshan",,40.153339,118.317265,156,55,6,24,10,24,13,12,1012,94,2,20141001180000
1145,"Caofeidian Xinli  Primary School, Tangshan",,39.291232,118.462182,179,77,20,36,29,12,13,12,1012,94,2,20141001180000
1146,"Zunhua EPA, Tangshan",,40.206249,117.997315,166,57,4,23,11,11,13,12,1012,94,2,20141001180000
1147,"Qianan No.1 middle school, Tangshan",,40.004248,118.717055,173,61,9,18,3,24,13,12,1012,94,2,20141001180000
1266,"Luannan County , Tangshan",,39.511132,118.686928,163,78,23,42,17,29,13,12,1012,94,2,20141001180000
1267,"Yutian County , Tangshan",,39.908249,117.751417,165,71,4,25,8,18,13,12,1012,94,2,20141001180000
426,Tangshan,,39.632175,118.186472,194,95,6,39,19,26,-,-,0,-,-,20141001180000
427,"City Monitoring Station, Qinhuangdao",,39.958109,119.607773,154,31,7,21,5,33,,,0,,,20141001180000
428,"Beidaihe, Qinhuangdao",,39.829209,119.53194,154,39,7,30,28,24,,,0,,,20141001180000
429,"Shanhai Pass, Qinhuangdao",,40.019298,119.767898,117,63,3,21,23,26,,,0,,,20141001180000
430,"Contruction Plazz, Qinhuangdao",,39.943187,119.542912,132,47,4,30,10,24,,,0,,,20141001180000
431,"City government, Qinhuangdao",,39.93711,119.612769,104,37,1,25,16,25,,,0,,,20141001180000
1148,"Qinglong EPA, Qinhuangdao",,40.419223,118.958002,139,55,15,14,5,13,13,12,0,94,2,20141001180000
1149,"Changli EPA, Qinhuangdao",,39.714369,119.173237,177,78,13,21,15,29,,,0,,,20141001180000
1268,"Lulong County Bureau of Meteorology , Qinhuangdao",,39.901091,118.904857,167,65,10,17,16,11,13,12,0,94,2,20141001180000
432,Qinhuangdao,,39.936485,119.606263,154,47,7,30,16,33,-,-,0,-,-,20141001180000
433,"CongTai Park, Handan",,36.620197,114.501891,179,94,5,12,16,3,14,13,0,89,2,20141001180000
434,"City EPA, Handan",,36.618145,114.518822,190,93,8,23,19,9,14,13,0,89,2,20141001180000
435,"East Sewage Factory, Handan",,36.616064,114.548714,161,102,6,15,11,6,14,13,0,89,2,20141001180000
436,"Mine Hospital, Handan",,36.578149,114.509854,174,110,7,28,7,10,14,13,0,89,2,20141001180000
1150,"Fengfeng mine Inland Revenue Department, Handan",,36.423085,114.245994,219,122,7,24,44,6,14,13,0,91,2,20141001180000
1151,"Shexian EPA, Handan",,36.589084,113.692341,162,68,15,11,5,12,,,0,,,20141001180000
1152,"Ci County Vocational Education Center, Handan",,36.380247,114.390119,13,6,10,22,2,8,,,0,,,20141001180000
1153,"Yongnian government guesthouse, Handan",,36.783297,114.502905,201,142,4,29,45,8,14,13,0,89,2,20141001180000
1154,"Wuan BDA, Handan",,36.686223,114.269009,154,153,2,31,10,14,,,0,,,20141001180000
1085,Handan,,36.625683,114.544812,190,110,8,28,19,10,14,13,0,89,2,20141001180000
437,"Road and Bridge Corporation, Xingtai",,37.096415,114.538799,255,173,2,37,9,14,14,13,1014,89,2,20141001180000
438,"Dahuo fontain, Xingtai",,37.097563,114.488001,242,169,2,26,9,18,14,13,1014,89,2,20141001180000
439,"Xingtai Normal College, Xingtai",,37.053404,114.531819,194,191,4,32,14,10,14,13,1014,89,2,20141001180000
440,"Environment protection office, Xingtai",,37.06253,114.490985,238,262,3,39,10,19,14,13,1014,89,2,20141001180000
1155,"Cultural centers within the mound, Xingtai",,37.293569,114.524873,249,185,2,28,9,19,14,13,1014,89,2,20141001180000
383,Xingtai,,37.071066,114.510749,255,262,4,39,14,19,14,13,1014,89,2,20141001180000
441,"City Monitoring Station, Baoding",,38.871737,115.527103,158,67,4,27,7,5,12,11,1015,91,3,20141001180000
442,"Surface water Company, Baoding",,38.842891,115.467326,176,70,6,32,3,9,12,11,1015,91,3,20141001180000
443,"Huadian II, Baoding",,38.896748,115.528102,174,71,4,9,3,2,12,11,1015,91,3,20141001180000
444,"Reception Center, Baoding",,38.911905,115.477301,163,65,1,27,4,8,12,11,1015,91,3,20141001180000
445,"Film Factory, Baoding",,38.876949,115.448383,170,74,2,22,7,13,12,11,1015,91,3,20141001180000
446,"Natatorium, Baoding",,38.863815,115.499212,157,73,2,27,1,16,12,11,1015,91,3,20141001180000
1156,"Qingyuan City Hall, Baoding",,38.771758,115.502189,182,78,3,28,3,10,12,11,1015,91,3,20141001180000
1157,"Xushui EPA, Baoding",,39.025781,115.668023,171,64,1,26,57,8,12,11,1015,91,3,20141001180000
1158,"Zhouzhou Monitoring Stations, Baoding",,39.493241,116.040187,174,75,1,25,7,9,12,11,1015,91,3,20141001180000
1159,"Gaobeidian EPA, Baoding",,39.3329,115.885891,165,66,5,29,12,4,12,11,1015,91,3,20141001180000
447,Baoding,,38.874791,115.471124,176,74,6,32,7,16,12,11,1015,91,3,20141001180000
448,"Century Compound, Zhangjiakou",,40.770279,114.909106,76,7,3,17,38,11,8,7,1016,96,2,20141001180000
449,"North Pumping Station, Zhangjiakou",,40.874362,114.910119,109,52,1,17,2,13,8,7,1016,96,2,20141001180000
450,"Hardware Warehouse, Zhangjiakou",,40.81232,114.887119,55,63,21,43,12,23,8,7,1016,96,2,20141001180000
451,"Tanji Chang, Zhangjiakou",,40.796301,114.89811,38,20,3,15,17,13,8,7,1016,96,2,20141001180000
1160,"Xiahuayuan EPA, Zhangjiakou",,40.509345,115.302442,158,65,1,17,11,17,8,7,1016,96,2,20141001180000
1161,"Huaian EPA, Zhangjiakou",,40.68157,114.398646,70,39,3,14,10,2,8,7,1016,96,2,20141001180000
1162,"Huailai Fuqian Primary School, Zhangjiakou",,40.422204,115.530285,152,42,1,17,8,5,8,7,1016,96,2,20141001180000
1269,"Zhangbei EPA , Zhangjiakou",,41.166775,114.732369,91,46,22,3,4,4,8,7,1016,96,2,20141001180000
1270,"Kangbao County Environmental Protection Agency , Zhangjiakou",,41.837866,114.591246,70,29,31,2,5,3,8,7,1016,96,2,20141001180000
1271,"Guyuan County welfare , Zhangjiakou",,41.669984,115.687401,95,31,23,1,3,4,8,7,1016,96,2,20141001180000
1272,"Shangyi County Environmental Protection Bureau , Zhangjiakou",,41.086638,113.984688,63,48,22,12,5,4,8,7,1016,96,2,20141001180000
1273,"Yuxian Secondary School , Zhangjiakou",,39.84699,114.601986,68,24,12,10,7,7,8,7,1016,96,2,20141001180000
1274,"Yang County Vocational Education Center , Zhangjiakou",,40.106343,114.134732,97,36,9,4,2,12,8,7,1016,96,2,20141001180000
1275,"Wan county Environmental Protection Agency , Zhangjiakou",,40.770459,114.75033,107,47,3,12,5,11,8,7,1016,96,2,20141001180000
473,"Nankou road, Tianjin",,39.174022,117.199688,178,77,6,25,10,13,13,12,1012,94,2,20141001180000
1276,"Zhuolu County Environmental Protection Agency , Zhangjiakou",,40.374273,115.221393,134,51,2,1,4,9,8,7,1016,96,2,20141001180000
452,Zhangjiakou,,40.825744,114.893659,109,63,21,43,38,23,8,7,1016,96,2,20141001180000
453,"Railway, Chengde",,40.917557,117.972331,53,40,9,17,6,7,8,8,1016,97,1,20141001180000
454,"Cultural Center, Chengde",,40.974625,117.824437,82,29,1,21,11,9,8,8,1016,97,1,20141001180000
455,"Bank of China, Chengde",,40.985582,117.958304,68,37,1,18,13,6,8,8,1016,97,1,20141001180000
456,"BDA, Chengde",,40.937567,117.969325,93,42,3,21,10,12,8,8,1016,97,1,20141001180000
457,"Ligong, Chengde",,41.012579,117.94428,107,76,2,11,2,7,8,8,1016,97,1,20141001180000
1163,"Chengde County EPA, Chengde",,40.776643,118.17646,129,54,1,18,1,6,8,8,1016,97,1,20141001180000
1164,"Xinglong County City Hall, Chengde",,40.424301,117.513488,175,96,13,22,51,12,8,8,1016,97,1,20141001180000
1165,"Luanping EPA, Chengde",,40.950792,117.350715,132,47,1,17,4,19,8,8,1016,97,1,20141001180000
1166,"Fengning County City Hall, Chengde",,41.216739,116.658037,109,44,2,5,3,11,8,8,1016,97,1,20141001180000
1277,"Longhua EPA , Chengde",,41.311956,117.739605,139,50,7,13,5,9,8,8,1016,97,1,20141001180000
458,Chengde,,40.955652,117.968737,107,76,9,21,13,12,8,8,1016,97,1,20141001180000
459,"Municipal EPB, Cangzhou",,38.323507,116.876746,153,60,20,12,2,8,13,12,1012,94,2,20141001180000
460,"Cangxian Urban Construction Bureau, Cangzhou",,38.299495,116.890734,137,53,12,10,4,10,13,12,1012,94,2,20141001180000
461,"TV Broadcast Station, Cangzhou",,38.325525,116.863761,154,58,14,6,6,5,13,12,1012,94,2,20141001180000
1167,"Qing County City Hall, Cangzhou",,38.589643,116.815876,227,114,1,29,6,0,13,12,1012,94,2,20141001180000
1168,"Poyoushi City Hall, Cangzhou",,38.089516,116.590575,163,70,12,7,1,5,13,12,1012,94,2,20141001180000
1169,"Huanghua Finance Bureau Training Center, Cangzhou",,38.377793,117.343356,162,79,27,5,5,3,13,12,1012,94,2,20141001180000
462,Cangzhou,,38.305035,116.844625,154,60,20,12,6,10,13,12,1012,94,2,20141001180000
1182,Fenghua EPB,,29.666557,121.42069,70,37,27,6,3,6,18,15,1018,83,3,20141001180000
463,"Environmental Monitoring Supervision Center, Langfang",,39.558157,116.720995,152,58,9,12,5,10,13,12,1012,94,2,20141001180000
464,"TCM Medical Material Company, Langfang",,39.519096,116.689914,144,51,4,17,4,13,13,12,1012,94,2,20141001180000
465,"BDA, Langfang",,39.576175,116.779041,155,67,1,21,8,11,13,12,1012,94,2,20141001180000
466,"North China Institute of Aerospace, Langfang",,39.53517,116.743027,147,61,3,20,4,13,13,12,1012,94,2,20141001180000
1170,"Guan Party School, Langfang",,39.446185,116.311026,174,81,1,33,4,11,13,12,1012,94,2,20141001180000
1171,"Xianghe EPA, Langfang",,39.76725,117.015252,161,54,4,16,3,11,13,12,1012,94,2,20141001180000
1172,"Wenan County EPA, Langfang",,38.880927,116.47001,194,110,16,21,7,7,13,12,1012,94,2,20141001180000
1173,"Three Rivers Department of Transportation, Langfang",,39.989419,117.091528,144,44,4,11,4,7,13,12,1012,94,2,20141001180000
1278,"Yongqing EPA , Langfang",,39.329071,116.510917,155,63,1,31,4,11,13,12,1012,94,2,20141001180000
1279,"Dacheng EPA, Langfang",,38.712628,116.665751,270,130,18,16,20,10,13,12,1012,94,2,20141001180000
467,Langfang,,39.539148,116.689668,155,67,9,21,8,13,13,12,1012,94,2,20141001180000
468,"Hengshui City EPB, Hengshui",,37.739679,115.695929,177,74,16,19,5,8,12,12,0,97,1,20141001180000
469,"Environmental Monitoring Station, Hengshui",,37.738593,115.648837,187,80,16,26,1,7,12,12,0,97,1,20141001180000
470,"Electrical Machine North Factory, Hengshui",,37.758686,115.70094,241,61,15,21,2,9,12,12,0,97,1,20141001180000
1174,"Anping EPA, Hengshui",,38.238559,115.537988,190,100,1,28,7,14,12,12,0,97,1,20141001180000
1175,"Jizhou EPA, Hengshui",,37.548552,115.58679,149,70,26,16,5,6,12,12,0,97,1,20141001180000
1280,"Zaoqiang EPA, Hengshui",,37.520698,115.714936,129,52,50,15,2,5,12,12,0,97,1,20141001180000
1281,"Wuyi EPA, Hengshui",,37.801554,115.898697,193,110,10,18,7,6,12,12,0,97,1,20141001180000
1282,"Wuqiang EPA , Hengshui",,38.03557,115.959767,217,132,7,1,11,13,12,12,0,97,1,20141001180000
1283,"Raoyang EPA , Hengshui",,38.230652,115.741041,198,121,9,27,12,12,12,12,0,97,1,20141001180000
1284,"Gucheng County , Hengshui",,37.347569,115.966707,165,65,29,13,9,5,12,12,0,97,1,20141001180000
471,Hengshui,,37.739562,115.676066,241,80,16,26,5,9,12,12,0,97,1,20141001180000
1176,"Xinji City Hall, Xinji",,37.949711,115.230084,224,136,2,20,14,12,12,12,0,97,1,20141001180000
474,"Qinjian street, Tianjin",,39.166588,117.15104,168,67,5,22,10,11,13,12,1012,94,2,20141001180000
475,"Nanjing Road, Tianjin",,39.120958,117.195112,181,101,7,15,12,11,13,12,1012,94,2,20141001180000
476,"Dazhigu No.8 road, Tianjin",,39.111811,117.25147,171,73,7,18,13,7,13,12,1012,94,2,20141001180000
477,"Qianjin street, Tianjin",,39.09371,117.207981,167,66,9,23,11,9,13,12,1012,94,2,20141001180000
478,"Huaihe street, Tianjin",,39.227167,117.191293,177,82,6,25,8,10,13,12,1012,94,2,20141001180000
479,"Xiangshan street, Tianjin",,39.134752,117.275125,180,80,8,14,7,9,13,12,1012,94,2,20141001180000
480,"Yuejin Road, Tianjin",,39.088177,117.320884,170,73,6,15,7,5,13,12,1012,94,2,20141001180000
481,"Zhujiang street, Tianjin",,39.064463,117.231268,-,-,-,-,-,-,-,-,0,-,-,20141001180000
482,"No.4 street, Tianjin",,39.035228,117.713424,165,94,10,28,8,13,13,12,1012,94,2,20141001180000
483,"Yongming road, Tianjin",,38.840392,117.463805,163,84,4,15,4,8,13,12,1012,94,2,20141001180000
484,"Xinhua street, Tianjin",,39.138671,117.010083,172,76,6,18,14,16,13,12,1012,94,2,20141001180000
485,"Jingu Road, Tianjin",,38.985659,117.381254,165,71,6,6,9,15,13,12,1012,94,2,20141001180000
486,"Tanggu Yingkou street, Tianjin",,39.021768,117.656454,155,77,5,21,4,10,13,12,1012,94,2,20141001180000
487,"Hexi Yijing road, Tianjin",,39.248392,117.798043,169,74,5,14,7,7,13,12,1012,94,2,20141001180000
488,"Jianshe Road, Tianjin",,39.720075,117.310588,156,60,3,31,5,13,13,12,1012,94,2,20141001180000
489,"Quanzhou South road, Tianjin",,39.373857,117.050329,155,71,5,7,5,9,13,12,1012,94,2,20141001180000
490,"Donghuan road, Tianjin",,40.043144,117.451062,156,56,5,21,2,12,13,12,1012,94,2,20141001180000
491,"Tuanpowa, Tianjin",,38.920418,117.16299,182,77,13,24,14,24,13,12,1012,94,2,20141001180000
493,"Beiwei No.2 road, Tianjin",,38.943857,116.920624,192,98,9,31,13,15,13,12,1012,94,2,20141001180000
494,"Haitai fazhan No.2 road, Tianjin",,39.079608,117.096583,173,79,6,30,9,11,13,12,1012,94,2,20141001180000
495,"Hangtian road, Tianjin",,39.152244,117.381309,-,-,-,-,-,-,-,-,0,-,-,20141001180000
496,"Hanbei road, Tianjin",,39.159768,117.770477,170,84,17,24,15,10,13,12,1012,94,2,20141001180000
497,"Baobai highway, Tianjin",,39.51757,117.349635,139,101,7,21,3,11,13,12,1012,94,2,20141001180000
498,Tianjin,,39.085164,117.207281,181,66,9,23,12,11,13,12,1012,94,2,20141001180000
499,"Wolong bridge, Hangzhou",,30.24371,120.132762,132,55,22,11,6,5,18,12,1019,68,2,20141001180000
500,"Hemu primary school, Hangzhou",,30.309669,120.124507,158,81,19,33,3,7,18,12,1019,68,2,20141001180000
501,"Zhejiang Agricultural University, Hangzhou",,30.265601,120.197583,164,78,20,38,12,6,18,12,1019,68,2,20141001180000
502,"Xiasha, Hangzhou",,30.303516,120.352618,164,79,23,19,32,6,18,12,1019,68,2,20141001180000
503,"Yunqi, Hangzhou",,30.178555,120.093142,119,51,14,13,3,5,18,12,1019,68,2,20141001180000
504,"Xixi, Hangzhou",,30.272425,120.068144,142,53,10,25,4,7,18,12,1019,68,2,20141001180000
505,"Chengxiang town, Hangzhou",,30.179493,120.274184,142,74,26,26,11,6,18,12,1019,68,2,20141001180000
506,"Qiandao lake, Hangzhou",,29.638139,119.031092,80,18,36,3,3,4,18,12,1019,68,2,20141001180000
507,"Linping town, Hangzhou",,30.415948,120.305059,161,88,23,43,23,7,18,12,1019,68,2,20141001180000
509,"No.2 Middle School, Hangzhou",,30.044303,119.956356,153,85,18,10,7,9,18,12,1019,68,2,20141001180000
611,Taizhoushi,,32.453555,119.927852,144,56,26,13,19,4,17,14,0,82,1,20141001180000
510,"City Hall, Hangzhou",,30.234185,119.723503,134,57,56,15,14,8,18,12,1019,68,2,20141001180000
511,"No. 4 middle school, Hangzhou",,30.229428,119.699591,107,45,-,1,2,8,18,12,1019,68,2,20141001180000
512,Hangzhou,,30.271756,120.159765,168,81,27,38,12,7,18,12,1019,68,2,20141001180000
513,"City Station, Wenzhou",,28.009715,120.679129,80,43,40,10,4,6,19,18,0,93,1,20141001180000
514,"Ouhai, Wenzhou",,28.001846,120.641982,91,50,31,13,3,9,19,18,0,93,1,20141001180000
515,"Longwan, Wenzhou",,27.968122,120.768393,76,39,49,6,3,5,19,18,0,93,1,20141001180000
516,"Nanpu, Wenzhou",,27.981763,120.683685,82,49,39,4,3,9,19,18,0,93,1,20141001180000
517,Wenzhou,,27.990985,120.703425,154,55,49,16,12,9,19,18,0,93,1,20141001180000
518,"Monitoring station, Jiaxing",,30.75437,120.767373,154,74,50,16,6,7,16,13,1018,82,2,20141001180000
519,"Jiaxing University, Jiaxing",,30.745099,120.735004,152,54,41,23,6,6,20,17,1013,83,1,20141001180000
520,"Qinghe Primary School, Jiaxing",,30.775685,120.747969,122,61,43,12,7,6,20,17,1013,83,1,20141001180000
521,Jiaxing,,30.751627,120.762862,154,74,50,23,7,7,16,13,1018,82,2,20141001180000
522,"Chengbei water plant, Huzhou",,30.891155,120.096593,119,68,27,25,5,8,16,13,1018,82,2,20141001180000
523,"Jishan new village, Huzhou",,30.859939,120.120168,144,59,21,36,6,9,20,17,1013,83,1,20141001180000
524,"Town west water plant, Huzhou",,30.862371,120.084577,99,58,24,31,4,7,16,13,1018,82,2,20141001180000
525,Huzhou,,30.892304,120.091694,144,68,26,36,6,9,20,17,1013,83,1,20141001180000
526,"Donghu middle school, Shaoxing",,29.990447,120.647547,107,48,34,8,10,12,18,12,1019,68,2,20141001180000
527,"City EPA station, Shaoxing",,30.001695,120.584318,137,58,34,24,10,4,18,12,1019,68,2,20141001180000
528,"Chengdong BDA committee, Shaoxing",,29.986643,120.613578,107,70,33,13,9,3,18,12,1019,68,2,20141001180000
529,"Paojiang station, Shaoxing",,30.07574,120.62154,129,61,38,19,13,6,19,15,1013,78,1,20141001180000
530,"Shaoxing technical school, Shaoxing",,29.930983,120.577131,72,54,10,10,5,6,18,12,1019,68,2,20141001180000
531,"Library, Shaoxing",,29.706266,120.253183,139,64,33,14,6,8,18,12,1019,68,2,20141001180000
532,"Transporation management station, Shaoxing",,29.726405,120.221602,124,71,40,22,6,7,18,12,1019,68,2,20141001180000
533,"Dongpu Town Governement, Shaoxing",,30.049601,120.539893,153,0,24,22,18,8,18,12,1019,68,2,20141001180000
534,Shaoxing,,29.993122,120.590182,153,70,38,27,18,12,-,-,0,-,-,20141001180000
535,"City Monitoring Station, Jinhua",,29.100031,119.690373,171,73,37,17,36,6,16,15,0,95,0,20141001180000
536,"No.15 middle school, Jinhua",,29.074022,119.652121,165,72,31,16,21,7,16,15,0,95,0,20141001180000
537,"No.4 middle school, Jinhua",,29.110109,119.653654,167,70,34,18,29,7,16,15,0,95,0,20141001180000
538,"Beiyuan, Jinhua",,29.332898,120.083351,157,80,33,23,13,11,16,15,0,95,0,20141001180000
539,"Jiangdong, Jinhua",,29.302486,120.095291,157,67,46,20,18,10,16,15,0,95,0,20141001180000
540,Jinhua,,29.076083,119.65215,171,73,37,18,36,7,16,15,0,95,0,20141001180000
541,"EPA building, Quzhou",,28.937291,118.876081,97,34,25,26,8,6,22,20,1015,89,1,20141001180000
542,"Experimental school, Quzhou",,28.961502,118.880916,107,51,24,18,13,6,22,20,1015,89,1,20141001180000
543,"Quzhou University, Quzhou",,28.971452,118.860052,127,54,15,28,6,6,22,20,1015,89,1,20141001180000
544,Quzhou,,28.966994,118.864252,127,54,25,28,13,6,22,20,1015,89,1,20141001180000
545,"Putuo east port, Zhoushan",,29.951412,122.317679,57,29,38,1,3,4,18,17,1013,94,1,20141001180000
546,"Dinghai tanfeng, Zhoushan",,30.018014,122.126566,53,29,28,7,3,10,18,17,1013,94,1,20141001180000
547,Zhoushan,,29.983049,122.210763,59,44,38,10,3,10,18,17,1013,94,1,20141001180000
548,"Taizhou EPA building, Taizhou",,28.651216,121.42331,99,52,46,5,2,6,18,17,0,93,1,20141001180000
549,"Luqiao Tian Yang Wang, Taizhou",,28.574364,121.381194,91,52,47,8,7,5,18,17,0,93,1,20141001180000
550,"Huangyan EPA building, Taizhou",,28.656151,121.285064,97,45,24,9,2,11,18,17,0,93,1,20141001180000
551,"Yu Zhuang Qian, Lishui",,28.419638,119.883884,109,41,14,14,2,6,22,20,1014,81,1,20141001180000
552,"Monitoring station building, Lishui",,28.444379,119.923103,91,52,12,10,3,7,22,20,1014,81,1,20141001180000
553,"Liandu primary school, Lishui",,28.450912,119.939332,93,58,12,13,1,7,22,20,1014,81,1,20141001180000
554,Lishui,,28.464224,119.927201,109,58,14,14,3,7,22,20,1014,81,1,20141001180000
1248,Jingningxian,,27.977454,119.634837,78,41,10,8,2,7,22,20,1014,81,1,20141001180000
555,Taigu Primary School,,29.864178,121.60022,78,42,16,15,6,7,18,15,1018,83,3,20141001180000
556,Qianhu shuihan,,29.862459,121.5328,95,57,17,14,100,6,18,15,1018,83,3,20141001180000
557,Sanjiang secondary schools,,29.891563,121.568427,104,55,21,27,31,6,18,15,1018,83,3,20141001180000
558,Longsai Hospital,,29.957301,121.726734,117,53,19,14,10,6,18,15,1018,83,3,20141001180000
559,Beilun District EPB,,29.911633,121.850773,74,44,24,10,4,5,18,15,1018,83,3,20141001180000
560,Wanli University,,29.821314,121.574364,95,58,23,7,7,6,18,15,1018,83,3,20141001180000
561,Qianhu water plant,,29.774416,121.648136,72,33,21,11,130,4,18,15,1018,83,3,20141001180000
562,Municipal management station,,29.899182,121.626691,122,60,11,20,51,7,18,15,1018,83,3,20141001180000
1177,Daxie Literary Museum,,29.9027,121.986447,95,47,23,12,3,5,18,15,1018,83,3,20141001180000
1178,Cixi EPB,,30.165807,121.248991,85,61,33,10,3,7,18,15,1018,83,3,20141001180000
1179,Cixi Experimently Primary School,,30.179808,121.268672,93,56,36,11,8,6,18,15,1018,83,3,20141001180000
1180,"Yongsan Park, Yuyao",,30.050842,121.162477,82,32,35,8,3,6,18,15,1018,83,3,20141001180000
1181,"Qilupu Water Company, Yuyao",,30.039112,121.133416,82,60,33,15,4,7,18,15,1018,83,3,20141001180000
1183,"Yuelong station, Ninghai",,29.296505,121.445872,99,39,29,9,4,6,18,15,1018,83,3,20141001180000
1184,"Wenfeng Primary School, Xiangshan",,29.470908,121.889544,72,38,27,7,4,7,18,15,1018,83,3,20141001180000
1185,"Chengnan Primary School, Ninghai",,29.293812,121.43666,91,43,33,8,4,5,18,15,1018,83,3,20141001180000
1186,"Xingang Primary School, Xiangshan",,29.203878,121.952514,72,23,39,8,4,5,18,15,1018,83,3,20141001180000
1356,Haishu City Monitoring Center,,29.86835,121.539341,95,57,17,8,55,6,18,15,1018,83,3,20141001180000
1357,Fenghua Xikou government,,29.693164,121.29331,76,35,27,8,1,9,18,15,1018,83,3,20141001180000
1294,Ningbo,,29.865766,121.548164,122,60,23,27,130,7,18,15,1018,83,3,20141001180000
1187,Fuyang,,30.046157,119.96468,153,85,18,10,7,9,-,-,0,-,-,20141001180000
1188,Yiwu,,29.304353,120.079794,157,80,46,23,18,11,-,-,0,-,-,20141001180000
1189,Zhuji,,29.711185,120.240748,139,71,40,22,6,8,18,12,1019,68,2,20141001180000
563,"Shanxi Road , Nanjing",,32.06795,118.779216,153,84,31,44,5,7,17,17,1013,100,1,20141001180000
564,"Ruijin Road , Nanjing",,32.029321,118.80817,153,75,16,40,7,4,17,17,1013,100,1,20141001180000
565,"Xuanwu Lake, Nanjing",,32.075423,118.800188,151,68,30,24,7,3,17,17,1013,100,1,20141001180000
566,"Olympic Center, Nanjing",,32.007171,118.742217,151,82,4,23,2,2,17,17,1013,100,1,20141001180000
567,"Xianlin University Town , Nanjing",,32.106958,118.919882,153,86,23,19,1,4,17,17,1013,100,1,20141001180000
568,Nanjing,,32.058179,118.802061,154,90,19,49,7,5,18,17,1013,94,1,20141001180000
569,"Shangfang hill , Suzhou",,31.24502,120.565211,142,59,21,30,5,0,16,13,1018,82,2,20141001180000
570,"Wuzhong District , Suzhou",,31.268105,120.61717,117,71,15,35,8,0,16,13,1018,82,2,20141001180000
571,"Suzhou New District , Suzhou",,31.297277,120.547262,160,84,20,44,18,0,16,13,1018,82,2,20141001180000
572,"Suzhou Industrial Area, Suzhou",,31.307603,120.673257,144,68,20,37,7,0,16,13,1018,82,2,20141001180000
573,"Xiangcheng district, Suzhou",,31.368674,120.645209,117,54,11,33,7,0,16,13,1018,82,2,20141001180000
574,Suzhou,,31.296701,120.589493,149,84,21,33,18,6,16,13,1018,82,2,20141001180000
575,"South suburb , Nantong",,31.957836,120.917218,89,42,25,15,7,0,16,15,1003,95,1,20141001180000
576,"Xinghu park, Nantong",,31.927873,120.944254,102,56,24,14,15,3,16,15,1003,95,1,20141001180000
577,"Zilang school, Nantong",,32.039638,120.814358,93,51,27,16,9,0,16,15,1003,95,1,20141001180000
578,Nantong,,31.978005,120.898555,102,56,25,11,20,6,16,15,1003,95,1,20141001180000
579,Lianyungang,,34.595509,119.226814,152,84,21,27,10,7,8,8,1016,96,0,20141001180000
580,"Hongmen police substation, Lianyungang",,34.588692,119.146693,70,34,29,9,7,3,17,15,1014,83,1,20141001180000
581,"Xugou Nuclear Expert Village , Lianyungang",,34.749957,119.373707,59,36,25,10,9,4,17,15,1014,83,1,20141001180000
582,"Hengrui pharmaceutical company, BDA, Lianyungang",,34.697574,119.353668,61,50,29,9,5,3,17,15,1014,83,1,20141001180000
583,"City Monitoring Station, Lianyungang",,34.586791,119.186929,80,47,24,9,6,4,17,15,1014,83,1,20141001180000
584,"Yellow river new village , Xuzhou",,34.271542,117.177241,63,37,19,9,7,4,19,14,1013,64,1,20141001180000
585,"Tongshan Veterinary Hospital , Xuzhou",,34.307086,117.197766,53,30,26,12,3,0,19,14,1014,63,2,20141001180000
586,"New Town , Xuzhou",,34.213992,117.261718,59,43,27,12,2,7,19,14,1014,63,2,20141001180000
587,"Taoyuan road, Xuzhou",,34.289822,117.249721,57,20,26,4,2,6,19,14,1013,64,1,20141001180000
588,"Agricultural Science Academy , Xuzhou",,34.27655,117.299079,46,34,22,4,5,2,19,14,1014,63,2,20141001180000
589,"Tongshan EPA, Xuzhou",,34.179384,117.171798,63,39,3,11,5,2,19,14,1013,64,1,20141001180000
590,Xuzhou,,34.20346,117.289825,63,43,26,4,7,7,19,14,1013,64,1,20141001180000
591,Yangzhou,,32.39233,119.418446,159,69,10,19,10,5,11,9,0,90,6,20141001180000
592,"Hanjiang Monitoring Station, Yangzhou",,32.374218,119.394484,78,67,5,18,13,2,17,14,0,82,1,20141001180000
593,"No. 4 Hospital, Yangzhou",,32.401394,119.44444,82,57,24,6,17,3,17,14,0,82,1,20141001180000
594,"City Monitoring Station, Yangzhou",,32.406588,119.41591,95,56,18,14,21,4,17,14,0,82,1,20141001180000
595,"University Town , Wuxi",,31.484752,120.273571,99,61,65,21,10,4,16,13,1018,82,2,20141001180000
596,"Shibei High School , Wuxi",,31.619969,120.279584,152,83,23,31,12,0,16,13,1018,82,2,20141001180000
597,"Yuhong Elementary School , Wuxi",,31.561155,120.249588,99,56,39,16,6,5,16,13,1018,82,2,20141001180000
598,Wuxi,,31.488746,120.31575,127,56,14,18,5,6,-,-,0,-,-,20141001180000
599,Changzhou,,31.808037,119.979205,172,86,6,22,36,13,11,9,0,88,5,20141001180000
600,"Chengjian School, Changzhou",,31.776476,119.937681,109,74,26,17,7,5,16,15,1003,91,1,20141001180000
601,"Changzhou Engineering Institute , Changzhou",,31.806828,119.966724,127,71,25,27,10,5,16,15,1003,91,1,20141001180000
602,"Wujin Monitoring Station, Changzhou",,31.701788,119.939676,137,62,40,16,7,0,16,15,1003,92,1,20141001180000
603,"City Monitoring Station, Changzhou",,31.777201,119.979426,134,66,30,28,6,4,16,15,1003,91,1,20141001180000
604,Zhenjiang,,32.18597,119.431281,170,79,4,39,15,13,9,8,0,93,5,20141001180000
605,"New District Administrative office , Zhenjiang",,32.186174,119.685021,97,60,15,10,7,0,18,17,1013,94,1,20141001180000
606,"Vocational Education Center , Zhenjiang",,32.212973,119.496253,134,85,15,29,5,2,18,17,1013,94,1,20141001180000
607,"Dantu Monitoring Station , Zhenjiang",,32.130026,119.435432,151,96,20,34,12,4,18,17,1013,94,1,20141001180000
608,"City Monitoring Station, Zhenjiang",,32.202178,119.439766,144,94,18,35,9,5,18,17,1013,94,1,20141001180000
609,"Gaogang Adminstrative office , Taizhoushi",,32.300768,119.886757,109,56,19,7,9,0,17,14,0,82,1,20141001180000
610,"Students Innovation Park , Taizhoushi",,32.461672,119.892761,144,53,26,6,11,2,17,14,0,82,1,20141001180000
612,"Yancheng power station , Yancheng",,33.400859,120.123067,53,35,33,5,5,1,-,-,0,-,-,20141001180000
613,Yancheng,,33.345939,120.168504,144,52,30,5,3,7,11,10,1016,95,4,20141001180000
614,"Wenfeng Middle School , Yancheng",,33.370531,120.134041,38,26,19,9,4,0,-,-,0,-,-,20141001180000
615,"BDA Management Committe, Yancheng",,33.393191,120.22978,72,24,31,8,4,1,-,-,0,-,-,20141001180000
616,"City Monitoring Station, Yancheng",,33.390623,120.164423,55,20,29,12,4,2,17,14,0,82,1,20141001180000
617,Suqian,,33.960666,118.281004,160,87,24,7,5,7,11,10,0,91,6,20141001180000
618,"Suqian College , Suqian",,33.951472,118.298523,70,54,31,13,4,5,17,13,0,75,1,20141001180000
619,"Suqian Middle School , Suqian",,33.95784,118.249505,89,68,20,15,12,5,17,13,0,74,1,20141001180000
620,"Suyu District Environmental Protection Agency , Suqian",,33.94932,118.326569,114,59,28,11,6,0,17,13,0,74,1,20141001180000
621,"City Monitoring Station, Suqian",,33.956982,118.277022,119,56,25,9,11,3,17,13,0,75,1,20141001180000
622,Taizhou,,28.653436,121.425185,99,52,45,7,2,12,18,17,0,93,1,20141001180000
623,Donghu Liyuan,,30.572324,114.377844,158,63,12,9,4,10,20,19,1014,94,2,20141001180000
624,Yuehu Lake,,30.554662,114.256937,155,73,9,15,5,8,20,19,1014,94,2,20141001180000
625,Hankou Huaqiao ,,30.61724,114.287652,161,68,13,10,7,11,20,19,1014,94,2,20141001180000
626,Wuchang Ziyang ,,30.530801,114.309438,155,67,8,18,2,9,20,19,1014,94,2,20141001180000
627,Qingshan Ganghua,,30.622435,114.375599,164,71,15,12,9,11,20,19,1014,94,2,20141001180000
628,Dunkou Xinou,,30.480091,114.162176,151,67,17,7,6,10,20,19,1014,94,2,20141001180000
629,Donghu Gaoxin,,30.48095,114.40724,158,63,27,15,4,9,20,19,1014,94,2,20141001190000
630,Wujianshan,,30.63114,114.135907,164,65,17,6,1,12,20,19,1014,94,2,20141001190000
631,Yuanshun Road,,30.297142,113.858587,168,57,30,6,3,7,20,19,1014,94,2,20141001190000
632,Wuhan,,30.590689,114.310838,164,73,15,18,9,11,20,19,1014,94,2,20141001190000
1190,"Silingsan Factory, Yichang",,30.713288,111.306585,186,114,7,17,20,9,19,18,1015,96,1,20141001190000
633,Yichang,,30.689528,111.292131,200,116,8,22,20,12,19,18,1015,96,1,20141001190000
633,Yichang,,30.689528,111.292131,200,116,8,22,20,12,19,18,1015,96,1,20141001190000
1191,"City Library , Jingzhou",,30.31494,112.260844,154,69,13,15,7,15,20,19,1015,87,2,20141001190000
1192,"City committee communist party school, Jingzhou",,30.35054,112.20743,154,75,15,11,9,13,20,19,1015,87,2,20141001190000
1193,"kerong EPA, Jingzhou",,30.302965,112.29443,158,83,18,7,6,12,20,19,1015,87,2,20141001190000
634,Jingzhou,,30.332608,112.245451,158,83,18,15,9,15,20,19,1015,87,2,20141001190000
634,Jingzhou,,30.332608,112.245451,158,83,18,15,9,15,20,19,1015,87,2,20141001190000
635,Huangshi,,30.19723,115.043908,164,98,16,20,12,27,19,19,1017,96,1,20141001190000
635,Huangshi,,30.19723,115.043908,164,98,16,20,12,27,19,19,1017,96,1,20141001190000
1194,"Chenjiaying, Huangshi",,30.232823,115.067923,152,77,7,13,12,27,19,,1017,96,1,20141001190000
1195,"Chenjiawan , Huangshi",,30.200422,115.082138,117,69,16,12,12,22,19,,1017,96,1,20141001190000
1196,"Xinxialu, Huangshi",,30.17332,114.954357,-,-,-,-,-,-,-,,0,-,-,20141001190000
1197,"Tie montian, Huangshi",,30.203885,114.906439,164,98,10,20,1,16,19,,1017,96,1,20141001190000
1198,"BDA, Huangshi",,30.207491,115.031739,157,75,15,10,6,25,19,,1017,96,1,20141001190000
636,Shiyan,,32.627208,110.803311,95,33,10,11,9,6,10,,1017,94,1,20141001190000
636,Shiyan,,32.627208,110.803311,95,33,10,11,9,6,10,,1017,94,1,20141001190000
1199,"Wudang Mountain , Shiyan",,32.392921,111.047655,93,32,21,2,3,5,10,,,100,1,20141001190000
1200,"Riverside Village , Shiyan",,32.647286,110.785335,95,31,10,11,1,6,10,,,94,1,20141001190000
1201,"Liujiagou , Shiyan",,32.636732,110.731129,82,30,5,3,2,1,10,,,94,1,20141001190000
637,Xiangyang,,32.007029,112.128496,156,54,12,13,6,10,13,,1017,100,2,20141001190000
637,Xiangyang,,32.007029,112.128496,156,54,12,13,6,10,13,,1017,100,2,20141001190000
638,Ezhou,,30.389244,114.899884,158,73,20,15,16,25,21,19,1024,93,4,20141001190000
638,Ezhou,,30.389244,114.899884,158,73,20,15,16,25,21,19,1024,93,4,20141001190000
1203,"City government, Ezhou",,30.391836,114.892822,154,61,18,13,9,19,21,,1024,93,4,20141001190000
1204,"Zhaojiaba, Ezhou",,30.368966,114.90365,158,73,13,6,16,25,21,,1024,93,4,20141001190000
1205,"Fankou BDA, Ezhou",,30.410759,114.818225,153,70,20,15,7,21,21,,1024,93,4,20141001190000
639,Jingmen,,31.033208,112.205093,152,55,13,14,14,7,16,16,1011,97,1,20141001190000
639,Jingmen,,31.033208,112.205093,152,55,13,14,14,7,16,16,1011,97,1,20141001190000
640,Xiaogan,,30.922089,113.922387,124,56,18,1,3,12,20,19,1014,94,2,20141001190000
640,Xiaogan,,30.922089,113.922387,124,56,18,1,3,12,20,19,1014,94,2,20141001190000
1206,"wenhua street, Shenyang , Xiaogan",,30.925856,113.92104,124,56,18,1,3,12,20,19,1014,94,2,20141001190000
1207,"Dongcheng District , Huludao , Xiaogan",,30.917963,113.943904,-,-,-,-,-,-,-,23,0,-,-,20141001190000
641,Huanggang,,30.45124,114.877378,153,90,29,18,9,13,21,19,1024,93,4,20141001190000
641,Huanggang,,30.45124,114.877378,153,90,29,18,9,13,21,19,1024,93,4,20141001190000
1208,"Dazhou Island, Huanggang",,30.446205,114.900323,153,90,25,18,9,11,21,,1024,93,4,20141001190000
1209,"Workers Center , Huanggang",,30.469244,114.912504,149,60,29,6,7,13,21,,1024,93,4,20141001190000
642,Xianning,,29.838978,114.327898,151,65,23,14,8,18,18,19,989,87,1,20141001190000
642,Xianning,,29.838978,114.327898,151,65,23,14,8,18,18,19,989,87,1,20141001190000
1210,"Municipal Development and Reform Commission , Xianning",,29.818645,114.328461,151,64,18,14,6,18,18,,989,87,1,20141001190000
1211,"Xianan District Governement, Xianning",,29.51107,114.181864,155,69,3,7,5,18,20,,998,97,2,20141001190000
1212,"Yangtze River Industrial Park , Xianning",,29.883098,114.32909,127,65,23,14,8,12,18,,989,87,1,20141001190000
1213,"Qianshan Park, Xianning",,29.815351,114.328689,144,64,16,10,3,8,18,,989,87,1,20141001190000
643,Suizhou,,31.688342,113.388675,129,59,25,3,4,11,16,,1011,100,2,20141001190000
643,Suizhou,,31.688342,113.388675,129,59,25,3,4,11,16,,1011,100,2,20141001190000
1338,"City committee communist party school, Suizhou",,31.725316,113.3648,139,64,29,1,1,7,16,,1011,100,2,20141001190000
1339,"Forestry Bureau, Suizhou",,31.690065,113.383157,117,53,25,5,1,10,16,,1011,100,2,20141001190000
645,Xiantao,,30.360228,113.460616,154,69,18,4,2,11,19,19,1025,92,4,20141001190000
645,Xiantao,,30.360228,113.460616,154,69,18,4,2,11,19,19,1025,92,4,20141001190000
1214,"Xiangcheng Yundong Street, Xiangfan",,32.017716,112.16102,154,50,12,6,4,9,13,,1017,94,2,20141001190000
1359,"Fancheng Xinhua Road , Xiangfan",,32.0544,112.145224,158,59,13,20,9,11,13,,1017,94,2,20141001190000
655,"City Environmental Monitoring Station, Baotou",,40.657201,109.886738,70,31,18,13,4,8,,,0,,,20141001190000
656,"Donghe EPB, Baotou",,40.586213,110.002224,42,63,12,27,8,7,,,0,,,20141001190000
657,"Baotou shopping mall, Baotou",,40.508334,109.819085,21,56,20,11,7,12,,,0,,,20141001190000
658,"Huilong logistics, Baotou",,40.633436,109.879821,68,42,21,28,5,3,,,0,,,20141001190000
659,Baotou,,40.658597,109.846051,70,63,21,30,10,12,13,0,0,30,3,20141001190000
660,"Huatai Automobile Mall, Eerduosi",,39.837048,109.972209,78,51,40,6,2,3,13,0,1014,30,3,20141001190000
661,"Olympus Garden, Eerduosi",,39.789171,109.987742,72,52,37,16,1,3,13,0,1014,30,3,20141001190000
662,Eerduosi,,39.609284,109.78704,78,52,41,18,4,6,13,0,1014,30,3,20141001190000
663,"Tianyi Road, Chifeng",,42.275552,118.88507,57,27,13,4,6,8,5,4,1017,88,1,20141001190000
664,"Songshan No.1 Middle School, Chifeng",,42.329307,118.793045,63,32,15,4,3,6,5,4,1017,88,1,20141001190000
665,"Hada Street, Chifeng",,42.280714,118.988235,59,38,7,6,6,4,5,4,1017,88,1,20141001190000
666,"Songshan Road, Chifeng",,42.171487,118.89501,70,27,8,3,8,3,5,4,1017,88,1,20141001190000
667,Chifeng,,42.259752,118.893027,70,38,15,6,8,8,5,4,1017,88,1,20141001190000
674,Fuzhou,,26.071406,119.301294,89,45,42,9,3,5,26,21,1014,74,9,20141001190000
675,"Xidong, Xiamen",,24.815345,118.161848,97,50,47,10,3,6,27,24,1013,84,6,20141001190000
676,"Hongwen, Xiamen",,24.473969,118.156281,65,38,47,9,4,7,27,24,1013,84,6,20141001190000
677,"Gulangyu, Xiamen",,24.443168,118.068571,87,46,42,6,5,6,27,24,1013,84,6,20141001190000
678,"Huli, Xiamen",,24.51235,118.099146,151,66,33,15,8,4,27,24,1013,84,6,20141001190000
679,Xiamen,,24.477187,118.094402,151,66,42,15,8,6,-,-,0,-,-,20141001190000
680,"Qingyuan Montain, Quanzhou",,24.939503,118.598337,59,17,26,5,1,5,27,24,1013,84,6,20141001190000
681,"Tushan Street, Quanzhou",,24.90867,118.586397,59,23,31,4,2,7,27,24,1013,84,6,20141001190000
682,"Wanan, Quanzhou",,24.304154,118.070903,70,25,37,6,2,7,27,24,1013,84,6,20141001190000
683,Quanzhou,,24.87179,118.68001,70,26,37,6,3,7,27,24,1013,84,6,20141001190000
687,"Jiancaoping, Taiyuan",,37.887889,112.528383,163,104,1,15,16,15,14,10,1017,77,3,20141001190000
688,"Jianhe, Taiyuan",,37.910779,112.579258,158,113,2,9,22,16,14,10,1017,77,3,20141001190000
689,"Shanglan, Taiyuan",,38.011589,112.440679,59,57,6,8,6,10,14,10,1017,77,3,20141001190000
690,"Jinyuan, Taiyuan",,37.713164,112.475552,155,97,1,7,16,14,14,10,1017,77,3,20141001190000
691,"Xiaodian, Taiyuan",,37.782137,112.483533,158,95,16,13,39,14,14,10,1017,77,3,20141001190000
692,"Taoyuan, Taiyuan",,37.869752,112.543332,175,105,1,24,28,20,14,10,1017,77,3,20141001190000
693,"Wucheng, Taiyuan",,37.819998,112.576252,169,120,2,16,27,18,14,10,1017,77,3,20141001190000
694,"Nanzhai, Taiyuan",,37.985902,112.555312,132,70,3,9,7,16,14,10,1017,77,3,20141001190000
695,"Jinsheng, Taiyuan",,37.781205,112.494494,157,101,3,9,20,14,14,10,1017,77,3,20141001190000
696,Taiyuan,,37.871115,112.555178,175,105,1,24,28,20,-,-,0,-,-,20141001190000
697,"Monitoring station, Changzhi",,36.194062,113.10389,97,53,6,17,8,14,13,12,0,94,1,20141001190000
698,"Auditing bureau, Changzhi",,36.212787,113.095221,124,52,6,20,6,14,13,12,0,94,1,20141001190000
699,"Qinghua station, Changzhi",,36.154328,113.116385,99,47,10,20,7,14,13,12,0,94,1,20141001190000
700,"No.8 middle school, Changzhi",,36.185451,113.099481,127,53,4,14,17,24,,,0,,,20141001190000
701,Changzhi,,36.195553,113.12292,127,53,22,20,17,24,11,10,0,99,0,20141001190000
702,"Yungang Hotel, Datong",,40.076997,113.278079,65,19,9,10,4,8,9,5,1016,73,1,20141001190000
703,"college of education, Datong",,40.085608,113.27808,82,30,9,12,6,9,8,8,1015,99,3,20141001190000
704,Datong,,40.078016,113.307143,82,37,21,12,11,21,8,8,1015,99,3,20141001190000
705,"Technical Schools, Linfen",,36.07131,111.509046,124,57,11,7,4,18,10,-3,0,36,1,20141001190000
706,"Municipal party committee, Linfen",,36.087425,111.508771,80,40,6,2,7,20,10,-3,0,36,1,20141001190000
1073,"City Monitoring Station, Linfen",,36.097676,111.518739,122,64,15,8,6,21,9,-3,0,37,2,20141001190000
707,"South Airport, Linfen",,36.041614,111.497968,124,57,4,9,4,16,10,-3,0,36,1,20141001190000
708,Linfen,,36.087944,111.525098,124,63,11,9,7,20,10,-3,0,36,1,20141001190000
709,"City center, Yangquan",,37.848012,113.578636,161,102,5,16,18,12,14,10,1017,77,3,20141001190000
710,Yangquan,,37.857475,113.586921,171,107,18,29,50,18,14,10,1017,77,3,20141001190000
711,"Water Company, Jincheng",,35.504787,112.857245,122,59,10,24,7,13,11,10,1017,99,0,20141001190000
712,"Baiyun shopping mall, Jincheng",,35.492858,112.841566,34,50,7,15,8,16,11,10,1017,99,0,20141001190000
713,"City EPA, Jincheng",,35.488422,112.858528,158,82,7,10,29,13,11,10,1017,99,0,20141001190000
714,"Institute of Technology, Jincheng",,35.484844,112.878073,87,78,8,22,44,9,11,10,1017,99,0,20141001190000
715,"No.1 middle school, Jincheng",,35.478725,112.838636,95,50,7,18,32,5,11,10,1017,99,0,20141001190000
716,Jincheng,,35.490287,112.85794,158,82,10,24,44,16,11,10,1017,99,0,20141001190000
718,"District Government, Shuozhou",,39.320857,112.430641,117,81,9,24,18,14,14,12,1014,80,2,20141001190000
719,"City EPA, Shuozhou",,39.331495,112.407997,117,52,9,21,6,14,14,12,1014,80,2,20141001190000
720,"No.2 middle school, Shuozhou",,39.377963,112.432877,155,71,14,23,39,12,14,12,1014,80,2,20141001190000
721,Shuozhou,,39.332756,112.439672,155,75,14,24,39,14,14,12,1014,80,2,20141001190000
722,"Jinlun compound, Jinzhong",,37.697891,112.771017,139,70,5,7,11,14,14,10,1017,77,3,20141001190000
723,"Hydraulic Component Factory, Jinzhong",,37.688355,112.725844,151,71,4,25,12,15,14,10,1017,77,3,20141001190000
724,"Nandu compound, Jinzhong",,37.713148,112.732036,162,82,2,6,5,14,14,10,1017,77,3,20141001190000
725,"Yuci district government, Jinzhong",,37.698228,112.714167,-,-,-,-,-,-,-,-,0,-,-,20141001190000
726,Jinzhong,,37.687705,112.759187,162,82,5,25,12,15,14,10,1017,77,3,20141001190000
727,"Yuncheng Middle School, Yuncheng",,35.012345,111.003215,109,67,21,12,6,11,17,16,1016,90,0,20141001190000
728,"Yudou BDA, Yuncheng",,35.05065,111.029571,-,-,-,-,-,-,-,-,0,-,-,20141001190000
730,"Regional Technical School, Yuncheng",,35.028727,110.974076,152,61,17,11,8,10,17,16,1016,90,0,20141001190000
731,"Airport new district, Yuncheng",,35.084515,111.05339,99,58,18,2,1,16,17,16,1016,90,0,20141001190000
732,Yuncheng,,35.025675,111.013344,152,67,21,12,8,16,-,-,0,-,-,20141001190000
733,"Jiyin, Xinzhou",,38.413292,112.742432,147,78,5,11,60,15,14,10,1017,77,3,20141001190000
734,"BDA, Xinzhou",,38.450069,112.736723,93,50,2,2,4,16,14,10,1017,77,3,20141001190000
735,"Convention Center, Xinzhou",,38.492043,112.709772,160,61,2,6,11,13,14,10,1017,77,3,20141001190000
736,Xinzhou,,38.417244,112.740742,160,78,2,11,60,16,14,10,1017,77,3,20141001190000
737,"City EPA, Luliang",,37.522189,111.144365,76,51,3,11,14,16,12,12,0,98,1,20141001190000
738,"Soybean factory, Luliang",,37.51689,111.135101,87,56,7,48,19,22,12,12,0,98,1,20141001190000
739,"Water Company, Luliang",,37.53394,111.138834,82,1,4,8,4,21,12,12,0,98,1,20141001190000
740,Luliang,,25.027007,103.668566,87,56,3,48,19,22,12,12,0,98,1,20141001190000
741,"City government, Sanmenxia",,34.776251,111.198781,112,69,8,14,8,12,17,16,1016,90,0,20141001190000
743,"BDA, Sanmenxia",,34.800434,111.204332,93,56,3,17,3,5,17,16,1016,90,0,20141001190000
744,Sanmenxia,,34.771506,111.206129,112,69,8,19,8,17,17,16,1016,90,0,20141001190000
745,"Food Factory, Changchun",,43.919094,125.329521,144,96,2,16,4,7,1,-4,1021,70,2,20141001190000
746,"Bus Factory, Changchun",,43.912337,125.293431,155,67,1,18,8,6,1,-4,1021,70,2,20141001190000
747,"Institute of Posts and Telecommunications, Changchun",,43.842368,125.285005,107,61,1,18,2,8,1,-4,1021,70,2,20141001190000
748,"Laodong Park, Changchun",,43.877293,125.371519,80,56,2,21,4,6,1,-4,1021,70,2,20141001190000
749,"Forest area, Changchun",,43.871825,125.331519,132,69,1,18,2,7,1,-4,1021,70,2,20141001190000
750,"Jinyuetan, Changchun",,43.79031,125.460561,65,28,8,7,1,4,1,-4,1021,70,2,20141001190000
751,"Shuaiwanzi, Changchun",,43.552321,125.639086,107,20,14,4,1,4,1,-4,1021,70,2,20141001190000
752,"Economic Development Zone Sanitation Department, Changchun",,43.869221,125.42365,89,31,3,13,2,6,1,-4,1021,70,2,20141001190000
753,"High-tech Zone Administrative Committee, Changchun",,43.819064,125.256375,97,50,3,21,2,6,1,-4,1021,70,2,20141001190000
754,"Daishan Park, Changchun",,43.852365,125.223399,117,68,3,19,4,6,1,-4,1021,70,2,20141001190000
755,Changchun,,43.819415,125.329977,107,61,2,21,4,8,-,-,0,-,-,20141001190000
756,"Hadawan, Jilin",,43.888081,126.545727,65,38,19,13,2,7,3,2,0,96,1,20141001190000
757,"Fengman, Jilin",,43.768169,126.678802,30,9,25,1,2,3,3,2,0,96,1,20141001190000
758,"Electric Power College, Jilin",,43.827403,126.502281,109,46,11,11,4,4,3,2,0,96,1,20141001190000
759,"Jiangnan Park, Jilin",,43.83531,126.556519,70,22,16,15,4,3,3,2,0,96,1,20141001190000
760,"Dongjuzi, Jilin",,43.838597,126.590068,65,29,14,8,3,3,3,2,0,96,1,20141001190000
763,Jilin,,43.840137,126.555262,109,46,33,15,4,7,3,2,0,96,1,20141001190000
764,"Lingbei, Haerbin",,45.756979,126.548008,87,46,25,20,11,7,0,-4,1019,75,2,20141001190000
765,"Songbei Commercial University, Haerbin",,45.818624,126.566963,95,55,3,21,7,4,0,-4,1019,75,2,20141001190000
766,"Acheng huining, Haerbin",,45.544286,126.985183,89,70,24,9,4,5,0,-4,1019,75,2,20141001190000
767,"Nangang College Street, Haerbin",,45.724121,126.604906,122,63,29,27,10,4,0,-4,1019,75,2,20141001190000
768,"Taiping Hongwei Park, Haerbin",,45.775332,126.695101,159,73,22,22,3,5,0,-4,1019,75,2,20141001190000
769,"Daowai Chengde Square, Haerbin",,45.768637,126.640955,85,55,19,25,9,4,0,-4,1019,75,2,20141001190000
770,"Xiangfang Hongqi Street, Haerbin",,45.733936,126.691083,154,109,20,1,5,7,0,-4,1019,75,2,20141001190000
771,"Dongli Heping Road, Haerbin",,45.727765,126.651974,122,62,20,34,7,4,0,-4,1019,75,2,20141001190000
772,"Daoli Jianguo Road, Haerbin",,45.749715,126.59891,85,57,23,35,11,6,0,-4,1019,75,2,20141001190000
773,"Pingfang Light Factory, Haerbin",,45.611951,126.620898,95,42,13,18,3,3,-1,-2,1016,93,0,20141001190000
774,"Hulan Normal College, Haerbin",,45.983745,126.616553,82,25,27,12,3,6,0,-4,1019,75,2,20141001190000
775,"Provincial Academy of Agricultural Sciences, Haerbin",,45.686141,126.626517,93,53,19,20,12,7,0,-4,1019,75,2,20141001190000
776,Haerbin,,45.805757,126.541007,95,55,25,21,7,7,-,-,0,-,-,20141001190000
777,"Anju Compound, Qiqihaer",,47.365672,123.937016,68,46,28,9,5,11,3,2,1016,89,1,20141001190000
778,"Farming Vehicule Factory, Qiqihaer",,47.326793,123.961427,68,33,27,9,7,10,3,2,1016,89,1,20141001190000
779,"Fuqu EPA, Qiqihaer",,47.1853,123.62322,189,134,32,5,11,28,3,2,1016,89,1,20141001190000
780,"City Center Square, Qiqihaer",,47.343096,123.96192,76,29,23,4,3,11,3,2,1016,89,1,20141001190000
1217,"City Environmental Monitoring Station, Qiqihaer",,47.303639,123.957551,53,37,25,5,2,5,3,2,1016,89,1,20141001190000
781,Qiqihaer,,47.356387,123.924736,189,46,32,9,11,28,3,2,1016,89,1,20141001190000
782,"Saertu District, Daqing",,46.582368,125.152904,70,40,25,6,6,2,6,1,1018,60,2,20141001190000
783,"Datong District, Daqing",,46.036786,124.842115,119,28,30,5,5,4,6,1,1018,60,2,20141001190000
784,"Honggang District, Daqing",,46.418381,124.88973,85,41,26,10,7,5,6,1,1018,60,2,20141001190000
785,"Longfeng District, Daqing",,46.535426,125.107043,70,36,26,16,8,5,6,1,1018,60,2,20141001190000
786,"Ranghulu District, Daqing",,46.635123,124.85648,-,-,-,-,-,-,-,-,0,-,-,20141001190000
787,Daqing,,46.591414,125.110838,119,41,31,16,8,5,6,1,1018,60,2,20141001190000
788,"Locomotive Factory, Mudanjiang",,44.610589,129.652672,72,35,24,7,2,3,4,3,1017,89,2,20141001190000
789,"No. 1 hospital, Mudanjiang",,44.567775,129.617043,87,26,24,11,2,1,4,3,1017,89,2,20141001190000
1220,"EPA building, Mudanjiang",,44.567777,129.620658,78,30,21,3,2,2,4,3,1017,89,2,20141001190000
1221,"Cultural Square, Mudanjiang",,44.586388,129.623164,74,22,16,7,4,2,4,3,1017,89,2,20141001190000
790,Mudanjiang,,44.553619,129.640246,87,35,26,11,11,3,4,3,1017,89,2,20141001190000
791,"Mingzhu Plaza, Hefei",,31.782847,117.201512,104,45,46,17,17,8,15,13,1019,88,4,20141001190000
792,"Sanli Street, Hefei",,31.874637,117.312573,137,67,15,38,9,8,15,13,1019,88,4,20141001190000
793,"Hupo Compound, Hefei",,31.868583,117.264491,122,51,38,9,17,6,15,13,1019,88,4,20141001190000
794,"Dongpu Reservoir, Hefei",,31.90319,117.165584,124,65,45,16,3,5,15,13,1019,88,4,20141001190000
795,"Changjiang middle road, Hefei",,31.855185,117.255484,124,54,7,10,19,9,15,13,1019,88,4,20141001190000
796,"Luyang District, Hefei",,31.941771,117.271504,124,112,6,1,15,8,15,13,1019,88,4,20141001190000
797,"Yaohai District, Hefei",,31.856595,117.341644,154,104,46,15,6,20,15,13,1019,88,4,20141001190000
798,"Baohe District, Hefei",,31.793644,117.307554,132,86,4,7,1,8,15,13,1019,88,4,20141001190000
799,"Lake district, Hefei",,31.736619,117.283501,95,56,12,25,4,7,15,13,1019,88,4,20141001190000
800,"High-tech zone, Hefei",,31.849755,117.129624,122,64,13,9,10,7,15,13,1019,88,4,20141001190000
801,Hefei,,31.819449,117.232753,124,54,46,17,19,9,-,-,0,-,-,20141001190000
802,"Hudong Road No.4 Elementary School, Maanshan",,31.684121,118.511017,117,72,36,42,8,8,18,17,1013,94,1,20141001190000
803,"Tianping Garment Factory, Maanshan",,31.64197,118.488043,142,82,80,36,11,14,18,17,1013,94,1,20141001190000
804,"City education base, Maanshan",,31.711216,118.648913,91,44,37,3,3,4,18,17,1013,94,1,20141001190000
805,"Cihu No.2 elementary school, Maanshan",,31.748546,118.515729,158,92,32,33,8,10,18,17,1013,94,1,20141001190000
806,"Maanshan steel factory power plant, Maanshan",,31.690864,118.48528,132,132,20,33,8,10,18,17,1013,94,1,20141001190000
807,Maanshan,,31.668461,118.511939,158,132,80,42,11,14,18,17,1013,94,1,20141001190000
808,"Science Innovation Center, Wuhu",,31.417056,118.375406,102,37,54,17,13,11,18,17,1012,94,1,20141001190000
809,"No.4 Water Plant, Wuhu",,31.315914,118.376231,97,42,14,12,12,13,18,17,1012,94,1,20141001190000
810,"Monitoring station, Wuhu",,31.348955,118.358154,80,67,14,28,4,8,18,17,1012,94,1,20141001190000
811,"Wuqierling Factory, Wuhu",,31.382068,118.407639,102,56,229,17,11,6,18,17,1012,94,1,20141001190000
812,Wuhu,,31.351007,118.438322,112,58,229,25,10,13,18,17,1013,94,1,20141001190000
813,"Jiangxi Foreign Affairs Office, Nanchang",,28.678027,115.903436,156,73,15,11,2,7,22,20,1013,89,1,20141001190000
814,"Provincial forestry company, Nanchang",,28.69065,115.898546,160,76,15,3,2,11,22,20,1013,89,1,20141001190000
815,"Institute of Forestry, Nanchang",,28.731518,115.82478,112,59,15,2,5,10,22,20,1013,89,1,20141001190000
816,"Jingdong town government, Nanchang",,28.680659,115.972736,162,80,21,3,2,8,22,20,1013,89,1,20141001190000
817,"Contruction Industry College, Nanchang",,28.684018,115.865891,159,60,14,25,15,12,22,20,1013,89,1,20141001190000
818,"Xianghu, Nanchang",,28.637831,115.9033,168,87,13,31,13,16,22,20,1013,89,1,20141001190000
819,"Martial Arts School, Nanchang",,28.794538,115.752876,59,26,6,6,5,8,22,20,1013,89,1,20141001190000
820,"Petrifaction Company, Nanchang",,28.608634,115.912999,164,82,15,3,2,12,22,20,1013,89,1,20141001190000
821,"Provincial Station, Nanchang",,28.677155,115.941896,142,92,20,16,2,9,22,20,1013,89,1,20141001190000
822,Nanchang,,28.679883,115.863022,168,92,21,31,15,16,22,20,1013,89,1,20141001190000
939,Sanya,,18.251142,109.515993,72,40,13,10,2,6,26,24,1011,89,2,20141001190000
823,"Lushan Mountain Observatory, Jiujiang",,29.5751,115.998926,46,20,33,75,96,4,15,15,1017,94,1,20141001190000
824,"Shili, Jiujiang",,29.668119,115.992381,107,50,8,18,5,4,15,15,1017,94,1,20141001190000
825,"Maoshantou, Jiujiang",,29.700819,115.967192,104,63,12,14,16,5,16,15,1015,96,1,20141001190000
826,"Xiyuan, Jiujiang",,29.723929,115.998206,114,73,9,15,17,10,15,15,1017,94,1,20141001190000
827,"Wuqierling Factory, Jiujiang",,29.640802,116.022713,80,45,16,6,2,5,15,15,1017,94,1,20141001190000
828,"Water Scientific Research Institute, Jiujiang",,29.679179,116.068081,134,66,8,12,28,10,15,15,1017,94,1,20141001190000
829,"Zonghe Industrial Park, Jiujiang",,29.592047,115.916335,97,56,15,19,21,5,15,15,1017,94,1,20141001190000
830,"Petrochemical General Plant, Jiujiang",,29.738832,116.09463,161,103,9,37,1,8,16,15,1015,96,1,20141001190000
831,Jiujiang,,29.70254,116.007025,161,103,33,75,96,10,16,15,1015,96,1,20141001190000
1332,"Feiyu, Xinyu",,27.844697,115.000136,139,64,20,9,24,,24,,1016,78,1,20141001190000
1333,"Beigang, Xinyu",,27.932491,115.103767,147,67,17,10,26,,24,,1016,78,1,20141001190000
1334,"No.2 water factory, Xinyu",,27.839577,114.933915,153,76,9,7,11,,24,,1016,78,1,20141001190000
1335,"Bureau of Meteorology, Xinyu",,27.81048,114.936507,132,79,18,7,21,,24,,1016,78,1,20141001190000
1336,Xinyu,,27.814351,114.922194,153,79,20,10,26,16,24,20,1016,78,1,20141001190000
832,"Tobacco Factory, Zhengzhou",,34.753419,113.687131,142,51,12,17,9,20,13,12,1020,94,1,20141001190000
833,"Textile Machinery Factory, Zhengzhou",,34.773366,113.647067,134,63,17,19,13,19,13,12,1020,94,1,20141001190000
834,"Banking College, Zhengzhou",,34.800856,113.681126,124,56,6,22,17,15,13,12,1020,94,1,20141001190000
835,"Water Supply Company, Zhengzhou",,34.807188,113.571089,151,53,9,25,28,22,13,12,1020,94,1,20141001190000
836,"Economic Development Zone Management Committee, Zhengzhou",,34.717652,113.733182,149,66,5,3,9,12,13,12,1020,94,1,20141001190000
837,"No. 47 middle school, Zhengzhou",,34.772211,113.74009,144,53,13,20,14,9,13,12,1020,94,1,20141001190000
838,"City Monitoring Station, Zhengzhou",,34.748404,113.60514,119,70,8,14,3,16,13,12,1020,94,1,20141001190000
839,"Henan Medical University, Zhengzhou",,34.752637,113.641658,132,53,15,14,15,11,13,12,1020,94,1,20141001190000
840,"Gangli Reservoir, Zhengzhou",,34.952652,113.64248,151,58,8,16,15,13,13,12,1020,94,1,20141001190000
841,Zhengzhou,,34.745417,113.631415,132,53,15,14,15,16,-,-,0,-,-,20141001190000
842,"Henan University No.1 Hospital, Kaifeng",,34.799302,114.352706,153,70,5,27,13,9,13,13,1013,100,0,20141001190000
843,"Maternity And Child Hospital, Kaifeng",,34.795803,114.386103,132,60,7,17,8,9,13,13,1013,100,0,20141001190000
844,"Cancer Hospital, Kaifeng",,34.775428,114.350292,139,65,4,22,7,10,13,13,1013,100,0,20141001190000
845,"Yellow River Conservancy Institute, Kaifeng",,34.826066,114.324772,165,90,54,9,38,16,13,13,1013,100,0,20141001190000
846,"Shijixing Kindergarden, Kaifeng",,34.793606,114.302744,152,74,3,20,16,10,13,13,1013,100,0,20141001190000
847,Kaifeng,,34.796346,114.313426,153,74,5,27,16,10,13,13,1013,100,0,20141001190000
852,Jiaozuo,,35.215381,113.248188,129,56,6,22,33,10,13,12,1020,94,1,20141001190000
853,"Cotton Research Institute, Anyang",,36.081435,114.486451,72,40,6,12,4,8,13,11,1013,89,1,20141001190000
854,"Hongmiao Street, Anyang",,36.086733,114.326,124,65,5,22,10,13,13,11,1013,89,1,20141001190000
855,"Yinxing Compound, Anyang",,36.056519,114.36495,99,68,7,23,8,11,13,11,1013,89,1,20141001190000
856,"Tiefo Temple, Anyang",,36.110041,114.309309,157,74,3,30,10,16,13,11,1013,89,1,20141001190000
857,Anyang,,36.097767,114.398846,157,74,7,30,10,16,13,11,1013,89,1,20141001190000
858,"City Monitoring Station, Luoyang",,34.669055,112.439633,59,33,1,8,6,4,14,,1018,91,3,20141001190000
859,"BDA Management Committee, Luoyang",,34.622084,112.390759,70,26,4,9,6,7,14,,1018,91,3,20141001190000
860,"New municipal office, Luoyang",,34.623745,112.432973,85,37,14,10,4,8,14,,1018,91,3,20141001190000
861,"City committee communist party school, Luoyang",,34.650169,112.400212,82,33,10,15,3,4,14,,1018,91,3,20141001190000
862,"Henan Forestry College, Luoyang",,34.685566,112.509429,78,40,5,18,7,6,14,,1018,91,3,20141001190000
863,"CITIC No.2 Elementary School, Luoyang",,34.668212,112.36907,82,51,4,14,6,8,14,,1018,91,3,20141001190000
864,"Yuxi Hotel, Luoyang",,34.685949,112.472611,76,46,2,9,9,11,14,,1018,91,3,20141001190000
865,Luoyang,,34.617424,112.46054,85,50,14,18,9,11,14,10,1018,91,3,20141001190000
