locationid,stationname,chinesename,latitude,longitude,pm25,pm10,o3,no2,so2,co,temperature,dewpoint,pressure,humidity,wind,est_time
525,Huzhou,,30.892304,120.091694,154,87,8,31,20,17,25,23,1009,89,3,20140815200000
1,Dongcheng Dongsi,,39.9304,116.423239,70,47,47,10,4,6,23,19,1007,78,3,20140815170000
2,"Temple of Heaven, Dongcheng",,39.887403,116.41324,89,66,44,17,7,5,23,19,1007,78,3,20140815170000
3,West Park officials,,39.930333,116.345162,57,46,45,11,3,5,23,19,1007,78,3,20140815170000
4,West Wanshou Nishinomiya,,39.879354,116.358183,78,85,43,13,8,7,23,19,1007,78,3,20140815170000
5,Chaoyang Olympic Sports Center,,39.983406,116.403253,65,51,42,11,3,4,23,19,1007,78,3,20140815170000
6,Chaoyang Agricultural Exhibition Hall,,39.938331,116.46715,93,62,57,11,5,5,23,19,1007,78,3,20140815170000
7,Haidian Wanliu,,39.988245,116.293062,68,33,34,18,4,5,23,19,1007,78,3,20140815170000
8,The Haidian northern New Area,,40.091313,116.180194,57,39,36,8,4,5,23,19,1007,78,3,20140815170000
9,Haidian Beijing Botanical Garden,,40.003252,116.213097,76,40,48,11,4,10,23,19,1007,78,3,20140815170000
10,Fengtai garden,,39.86423,116.285037,95,82,38,16,3,6,23,19,1007,78,3,20140815170000
11,Fengtai Yungang,,39.82535,116.152237,97,110,39,18,10,5,23,19,1007,78,3,20140815170000
12,Shijingshan city,,39.915286,116.190144,65,53,44,15,2,6,23,19,1007,78,3,20140815170000
13,"Fangshan, Liangxiang",,39.743357,116.14225,163,174,26,21,2,23,23,19,1007,78,3,20140815170000
14,"Huangcunzhen, Daxing",,39.719389,116.410219,149,134,43,17,20,6,23,19,1007,78,3,20140815170000
15,BDA,,39.796197,116.51197,153,142,45,19,23,6,23,19,1007,78,3,20140815170000
16,Tongzhou New Town,,39.887113,116.6689,149,181,43,22,32,5,23,19,1007,78,3,20140815170000
17,Shunyi New Town ,,40.128111,116.660908,95,87,41,10,7,5,23,19,1007,78,3,20140815170000
18,Changping Town,,40.218245,116.236084,55,50,59,7,3,5,23,19,1007,78,3,20140815170000
19,"Mentougou, Longquan Town",,39.938397,116.112323,53,52,33,12,4,4,23,19,1007,78,3,20140815170000
20,Pinggu town,,40.144433,117.106563,181,352,40,21,35,9,23,19,1007,78,3,20140815170000
21,Huairou town,,40.329104,116.63387,91,25,64,4,3,5,23,19,1007,78,3,20140815170000
22,The town of Miyun,,40.371186,116.838053,34,29,82,4,2,5,23,19,1007,78,3,20140815170000
23,Yanqing town,,40.454217,115.978106,74,30,47,5,10,6,23,19,1007,78,3,20140815170000
24,Changping Dingling,,40.293269,116.226108,61,56,49,5,3,4,23,19,1007,78,3,20140815170000
25,Badaling Northwest,,40.36623,115.994146,30,12,45,5,3,6,23,19,1007,78,3,20140815170000
26,Miyun Reservoir,,40.500157,116.91701,50,16,88,2,2,5,23,19,1007,78,3,20140815170000
27,"Donggaocun Zhen, Pinggu",,40.10142,117.126556,180,218,50,30,32,6,23,19,1007,78,3,20140815170000
28,"Yongledianzhen, Tongzhou",,39.713192,116.78905,172,202,27,22,46,7,23,19,1007,78,3,20140815170000
29,"Yufazhen, Daxing",,39.521203,116.306026,179,189,28,15,27,7,23,19,1007,78,3,20140815170000
30,"Liulihezhen, Fangshan",,39.581169,116.006089,168,235,33,27,13,4,23,19,1007,78,3,20140815170000
31,"Qianmen E St, Dongcheng",,39.900402,116.401242,78,57,32,26,8,5,23,19,1007,78,3,20140815170000
32,Yongdingmen Inner St,,39.877401,116.400238,82,80,36,25,9,6,23,19,1007,78,3,20140815170000
33,Xizhimen N St,,39.955352,116.355187,59,58,29,23,6,7,23,19,1007,78,3,20140815170000
34,South Ring Road,,39.857377,116.37421,107,84,16,47,10,8,23,19,1007,78,3,20140815170000
35,East Fourth Ring Road,,39.940273,116.489075,82,75,41,29,2,7,23,19,1007,78,3,20140815170000
36,Beijing,,39.955906,116.474246,93,62,57,11,5,6,23,19,1007,78,2,20140815170000
37,Putuo,,31.232979,121.415378,127,52,20,12,6,6,25,23,1010,89,2,20140815170000
38,Yangpu Sipiao,,31.263795,121.540311,143,56,32,14,6,3,25,23,1010,89,2,20140815170000
39,Shanghai Normal College Primary Division,,31.199031,121.487719,143,54,20,17,4,10,25,23,1010,89,2,20140815170000
40,Dianshan Lake,,31.091338,120.982293,164,68,17,21,4,11,25,23,1010,89,2,20140815170000
41,Hongkou Liangcheng,,31.298906,121.47155,129,52,23,16,7,8,25,23,1010,89,2,20140815170000
42,Jingan,,31.224251,121.429637,151,64,20,17,5,10,25,23,1010,89,2,20140815170000
43,Shanghai Normal University,,31.163531,121.416643,120,46,19,13,4,8,25,23,1010,89,2,20140815170000
44,Chuansha,,31.188626,121.707342,153,61,24,16,4,7,25,23,1010,89,2,20140815170000
45,Zhangjiang,,31.204896,121.581215,137,48,30,13,3,7,25,23,1010,89,2,20140815170000
46,Lingshan Road,,31.226286,121.537317,131,48,30,11,7,7,25,23,1010,89,2,20140815170000
1080,City average,,31.228451,121.478227,138,54,24,14,5,7,25,23,1010,89,2,20140815170000
47,Shanghai,,31.202842,121.453493,151,64,20,17,5,10,25,23,1010,89,2,20140815170000
48,Guangzhou,,23.138517,113.263701,65,30,22,28,4,9,26,25,1009,94,2,20140815170000
49,"Huadu town, Guangzhou",,23.389121,113.220062,80,34,36,18,6,8,27,25,1009,89,0,20140815170000
50,"Luogang Zhenlong, Guangzhou",,23.308027,113.567032,59,25,30,8,3,7,27,25,1009,89,0,20140815170000
51,"LuHu, Guangzhou",,23.151743,113.281842,42,20,22,23,2,8,27,25,1009,89,0,20140815170000
52,"Tianhu, Guangzhou",,23.647433,113.629715,57,20,47,4,3,6,27,25,1009,89,0,20140815170000
53,"Zhudong, Guangzhou",,23.418406,113.078552,76,28,43,20,8,8,27,25,1009,89,0,20140815170000
54,"Modiesha station, Guangzhou",,23.103814,113.338238,55,50,16,24,9,8,27,25,1009,89,0,20140815170000
55,Zhuhai,,22.2677,113.581765,61,31,25,17,4,10,29,26,1009,84,3,20140815170000
1075,"Huicai technical school, Foshan",,23.039667,113.105492,59,20,21,17,21,5,27,25,1009,89,1,20140815170000
56,"Sanshuiyun donghai, Foshan",,23.185788,112.865368,61,23,17,12,11,6,27,25,1009,89,1,20140815170000
57,"Nanhai Bureau of Meteorology, Foshan",,23.046836,113.145764,57,23,23,21,9,6,27,25,1009,89,1,20140815170000
58,"Sanshui Monitoring Station, Foshan",,23.163551,112.890843,68,24,24,11,12,6,27,25,1009,89,1,20140815170000
1087,Foshan,,23.018995,113.126899,59,23,23,21,21,6,27,25,1009,89,1,20140815170000
59,"Ronggui street committee, Shunde",,22.762729,113.258356,57,20,20,9,8,7,27,25,1009,89,0,20140815170000
60,Shunde,,22.80246,113.298701,59,30,20,18,8,7,27,25,1009,89,0,20140815170000
61,"Donghu, Jiangmen",,22.590411,113.087351,65,25,18,13,6,5,28,26,1009,89,3,20140815170000
62,"Taoyuan Atmosphere Premier Station, Jiangmen",,22.72489,112.93404,38,18,22,5,3,7,29,26,1009,84,3,20140815170000
63,Jiangmen,,22.576047,113.087351,65,38,18,13,12,9,28,26,1009,89,3,20140815170000
64,"Kengkouzi station, Zhaoqing",,23.158865,112.570287,50,35,18,14,12,6,27,25,1009,89,0,20140815170000
65,"Mugangzi station, Zhaoqing",,23.067961,112.431934,59,23,8,10,4,8,27,25,1009,89,0,20140815170000
66,"Qixingyanzi station, Zhaoqing",,23.075974,112.477437,-,-,14,-,-,12,-,-,0,-,-,20140815170000
67,Zhaoqing,,23.044571,112.470346,76,32,17,18,15,8,27,25,1009,89,0,20140815170000
68,"Jinguo Bay, Huizhou",,22.937223,114.385567,61,29,36,22,7,6,28,24,1010,79,2,20140815170000
1091,"Xiabu, Huizhou",,23.077493,114.410275,80,34,42,16,6,4,28,24,1010,79,2,20140815170000
69,"Xijiao, Huizhou",,23.338178,114.112867,25,17,0,6,2,0,28,24,1010,79,2,20140815170000
70,"Jiangbei, Huizhou",,23.111706,114.415274,70,55,42,15,4,3,28,24,1010,79,2,20140815170000
71,"Huiyang chuanhu, Huizhou",,22.814485,114.329292,65,30,19,17,6,7,28,24,1010,79,2,20140815170000
72,"Daya bay management committee, Huizhou",,22.739283,114.53631,63,28,11,19,5,5,28,24,1010,79,2,20140815170000
73,Huizhou,,23.109349,114.421164,80,55,42,20,7,4,28,24,1010,79,2,20140815170000
74,"Guancheng No.2 water plant, Dongguan",,23.057294,113.753254,76,38,35,21,14,7,28,24,1010,79,2,20140815170000
75,"Dongcheng Shijing, Dongguan",,23.010039,113.799529,70,32,37,14,7,6,28,24,1010,79,2,20140815170000
76,"Nancheng Xiping, Dongguan",,22.963051,113.743494,74,26,32,23,8,6,28,24,1010,79,2,20140815170000
77,"Nancheng Yuanling, Dongguan",,23.025058,113.751308,74,21,34,12,25,7,28,24,1010,79,2,20140815170000
78,Dongguan,,23.017813,113.756958,97,51,37,23,25,7,28,24,1010,79,2,20140815170000
79,"Zimaling, Zhongshan",,22.505112,113.407183,46,19,18,5,7,9,28,26,1009,89,3,20140815170000
80,"Yangtze River tourist area, Zhongshan",,22.48589,113.439054,46,19,26,1,3,7,28,26,1009,89,3,20140815170000
81,"Huabai Park, Zhongshan",,22.51839,113.374362,59,20,17,5,4,11,28,26,1009,89,3,20140815170000
82,Zhongshan,,22.513997,113.398277,68,26,26,16,11,11,28,26,1009,89,3,20140815170000
83,"No.8 middle school, Shaoguan",,24.767777,113.583537,61,30,19,12,6,7,26,23,1009,83,1,20140815170000
83,"No.8 middle school, Shaoguan",,24.767777,113.583537,61,30,19,12,6,7,26,23,1009,83,1,20140815170000
84,"Forest area, Shaoguan",,24.796106,113.612131,65,29,21,8,10,8,26,23,1009,83,1,20140815170000
84,"Forest area, Shaoguan",,24.796107,113.612131,65,29,21,8,10,8,26,23,1009,83,1,20140815170000
86,"Shaoguan University, Shaoguan",,24.790864,113.646598,63,25,23,11,8,4,26,23,1009,83,1,20140815170000
86,"Shaoguan University, Shaoguan",,24.790864,113.646599,63,25,23,11,8,4,26,23,1009,83,1,20140815170000
88,"Qujiang Monitoring Station, Shaoguan",,24.683042,113.60157,61,26,15,24,7,8,26,23,1009,83,1,20140815170000
88,"Qujiang Monitoring Station, Shaoguan",,24.683042,113.60157,61,26,15,24,7,8,26,23,1009,83,1,20140815170000
89,Shaoguan,,24.807342,113.602712,65,31,23,24,10,8,26,23,1009,83,1,20140815170000
90,"Chaonanzi Station, Shantou",,23.251213,116.406762,78,41,22,7,20,8,27,26,1009,94,0,20140815170000
91,Shantou,,23.350642,116.686306,80,50,26,9,11,11,27,26,1009,94,0,20140815170000
92,"City Environmental Monitoring Station, Zhanjiang",,21.220431,110.397317,68,28,8,17,5,7,26,24,1010,85,1,20140815170000
93,"EPB Dormitory, Zhanjiang",,21.197376,110.406487,63,33,5,17,4,7,26,24,1010,85,1,20140815170000
94,"Xiashan Swimming Park, Zhanjiang",,21.200431,110.415655,55,25,6,17,17,7,26,24,1010,85,1,20140815170000
95,"Zhanjiang Theatre, Zhanjiang",,21.268177,110.366445,70,38,2,12,4,7,26,24,1010,85,1,20140815170000
96,"Mazhang EPA, Zhanjiang",,21.265486,110.335993,68,31,19,14,3,4,26,24,1010,85,1,20140815170000
97,"Potou District EPB, Zhanjiang",,21.247604,110.454508,59,21,9,17,2,7,26,24,1010,85,1,20140815170000
98,Zhanjiang,,21.26832,110.363883,70,38,19,17,17,7,26,24,1010,85,1,20140815170000
99,"Maogang sub-office EPB, Maoming",,21.466435,111.033462,72,20,17,7,3,5,27,25,0,86,2,20140815170000
100,"Petrochemical No. 7 elementaty school, Maoming",,21.648905,110.937861,70,40,10,17,7,9,27,25,0,86,2,20140815170000
101,"Jiankang road, Maoming",,21.662211,110.909482,72,38,11,10,7,11,27,25,0,86,2,20140815170000
102,"Gaoling, Maoming",,21.690558,110.871146,70,39,7,12,22,12,27,25,0,86,2,20140815170000
1094,Maoming,,21.660223,110.929968,72,40,11,17,22,12,27,25,0,86,2,20140815170000
103,"Jiaying University, Meizhou",,24.325415,116.12816,59,40,19,10,3,7,27,26,1009,94,0,20140815170000
104,"Mexian new town, Meizhou",,24.269283,116.084546,65,52,17,12,7,9,27,26,1009,94,0,20140815170000
105,"Environmental Monitoring Center, Meizhou",,24.262778,116.129621,74,88,16,18,5,7,27,26,1009,94,0,20140815170000
1095,Meizhou,,24.285988,116.127065,74,88,19,18,7,9,27,26,1009,94,0,20140815170000
106,"City EPA, Shanwei",,22.772349,115.370227,104,54,228,5,5,8,28,26,1010,91,4,20140815170000
107,"City government, Shanwei",,22.787161,115.375536,57,23,32,4,5,7,28,26,1010,91,4,20140815170000
108,"Xincheng Middle School, Shanwei",,22.789851,115.367124,55,21,29,8,4,5,28,26,1010,91,4,20140815170000
1099,Shanwei,,22.783576,115.38022,104,54,32,5,5,8,28,26,1010,91,4,20140815170000
109,"No.3 elementary school, Heyuan",,23.75435,114.703514,147,59,40,14,8,11,28,25,1010,80,1,20140815170000
109,"No.3 elementary school, Heyuan",,23.755946,114.699091,147,59,40,14,8,11,28,25,1010,80,1,20140815170000
111,"City water company, Heyuan",,23.754246,114.682459,124,58,35,17,8,10,28,25,1010,80,1,20140815170000
111,"City water company, Heyuan",,23.688709,114.954652,124,58,35,17,8,10,28,25,1010,80,1,20140815170000
113,"Heyuan high school, Heyuan",,23.720037,114.699563,129,52,38,11,8,9,28,25,1010,80,1,20140815170000
113,"Heyuan high school, Heyuan",,23.720666,114.693879,129,52,38,11,8,9,28,25,1010,80,1,20140815170000
115,Heyuan,,23.740888,114.705147,147,59,40,17,8,11,28,25,1010,80,1,20140815170000
116,"Yuanyang Lake, Yangjiang",,21.855869,111.983676,65,30,21,5,3,8,27,24,1010,81,2,20140815170000
1100,Yangjiang,,21.855227,111.987308,85,30,21,11,3,10,27,24,1010,81,2,20140815170000
118,"Town governement, Qingyuan",,23.708005,113.026215,57,21,20,12,5,14,27,25,1009,89,1,20140815170000
119,"Fupin district, Qingyuan",,24.185415,113.419369,50,17,12,16,6,7,27,25,1009,89,1,20140815170000
119,"Fupin district, Qingyuan",,23.624781,113.067713,50,17,12,16,6,7,27,25,1009,89,1,20140815170000
121,"Environment protection office, Qingyuan",,23.685931,113.053239,61,26,15,8,8,0,27,25,1009,89,1,20140815170000
121,"Environment protection office, Qingyuan",,23.691109,113.047948,61,26,15,8,8,0,27,25,1009,89,1,20140815170000
123,"Fengcheng Subdistrict, Qingyuan",,23.695447,113.068189,57,21,20,12,5,14,27,25,1009,89,1,20140815170000
124,Qingyuan,,23.679304,113.061513,46,14,20,12,8,14,27,25,1009,89,1,20140815170000
125,"Xiyuan Road, Chaozhou",,23.668654,116.638272,89,44,15,9,8,14,27,27,1009,100,1,20140815170000
126,"Archives Bureau, Chaozhou",,23.667881,116.649104,107,42,17,9,14,15,27,27,1009,100,1,20140815170000
127,"Municipal Corporation, Chaozhou",,23.65035,116.621859,134,52,17,7,13,20,27,27,1009,100,1,20140815170000
1101,Chaozhou,,23.654204,116.626969,134,52,17,9,14,20,27,27,1009,100,1,20140815170000
128,"Donghu Park, Jieyang",,23.532877,116.374427,107,50,13,5,9,15,27,27,1009,100,1,20140815170000
129,"Yuhu Middle School, Jieyang",,23.52682,116.414123,119,72,8,28,17,14,27,27,1009,100,1,20140815170000
130,"Experimental Primary School, Jieyang",,23.571473,116.364137,85,44,15,6,8,14,27,27,1009,100,1,20140815170000
1102,Jieyang,,23.547596,116.37754,122,72,15,28,19,15,27,27,1009,100,1,20140815170000
131,"City Environmental Monitoring Station, Yunfu",,22.936779,112.042248,34,13,9,9,4,9,27,25,1009,89,1,20140815170000
132,"The new city government headquarters, Yunfu",,22.914275,112.044475,53,26,11,2,5,12,27,25,1009,89,1,20140815170000
133,"Muyang police sub-station, Yunfu",,22.951267,112.05923,53,25,12,10,9,8,27,25,1009,89,1,20140815170000
1103,Yunfu,,22.912436,112.049811,53,26,12,2,9,12,27,25,1009,89,1,20140815170000
134,Yantian,,22.587949,114.266899,46,25,28,21,5,6,28,24,1010,79,2,20140815170000
135,Kwai Chung,,22.627947,114.428875,70,26,16,23,5,12,28,24,1010,79,2,20140815170000
135,Kwai Chung,,22.572837,113.867166,70,26,16,23,5,12,28,24,1010,79,2,20140815170000
135,Kwai Chung,,22.354168,114.134558,70,26,16,23,5,12,28,24,1010,79,2,20140815170000
137,Nanyou,,22.513802,113.928051,50,27,32,18,11,5,28,24,1010,79,2,20140815170000
138,Meisha,,22.59611,114.318345,63,30,10,22,5,10,28,24,1010,79,2,20140815170000
139,Xi xiang,,22.717524,114.252304,57,43,16,32,11,9,28,24,1010,79,2,20140815170000
140,Liyuan,,22.54732,114.101205,57,17,10,23,2,7,28,24,1010,79,2,20140815170000
1072,Kwai Chung,,22.627947,114.428875,124,30,14,20,3,12,28,24,1010,79,2,20140815170000
1072,Kwai Chung,,22.354168,114.134558,124,30,14,20,3,12,28,24,1010,79,2,20140815170000
141,OCT,,22.539549,113.992458,53,23,21,9,5,9,28,25,1009,84,2,20140815170000
142,Honghu,,22.559647,114.121976,30,26,17,27,4,4,28,25,1009,84,2,20140815170000
143,Mission Hills,,22.694131,114.050496,65,37,21,16,3,12,28,25,1009,84,2,20140815170000
144,Shenzhen,,22.540382,114.062982,124,43,32,32,11,12,28,24,1010,79,2,20140815170000
145,Chengdu,,30.622581,104.069564,158,85,21,49,5,7,24,21,1009,83,1,20140815170000
146,"Jinquan lianghe, Chengdu",,30.710359,103.974209,159,83,16,41,5,10,24,21,1009,83,1,20140815170000
147,"Shilidian, Chengdu",,30.684718,104.17845,93,43,32,15,3,7,24,21,1009,83,1,20140815170000
148,"Sanwayao, Chengdu",,30.568159,104.081524,104,70,19,48,3,9,24,21,1009,83,1,20140815170000
149,"Shahepu, Chengdu",,30.633685,104.120536,97,67,19,48,3,9,24,21,1009,83,1,20140815170000
150,"Liang Lane, Chengdu",,30.682601,104.076522,132,71,0,49,1,0,24,21,1009,83,1,20140815170000
151,"Caotang Temple, Chengdu",,30.651891,104.0284,158,85,21,42,5,7,24,21,1009,83,1,20140815170000
152,"Lingyansi, Chengdu",,31.025729,103.615022,42,18,32,2,6,3,24,21,1009,83,1,20140815170000
153,"Fuleshan, Mianyang",,31.472493,104.7806,104,45,37,7,5,8,26,20,1006,62,3,20140815170000
154,"High-tech Zone Water Company, Mianyang",,31.463309,104.674293,139,52,37,15,5,5,26,20,1006,62,3,20140815170000
155,"No.3 water company, Mianyang",,31.505002,104.731054,122,52,40,12,8,4,26,20,1006,62,3,20140815170000
156,Mianyang,,31.465174,104.681731,139,54,40,16,8,8,26,20,1006,62,3,20140815170000
157,"Dongshan Park, Deyang",,31.118648,104.424587,70,27,37,11,1,6,24,21,1009,83,1,20140815170000
158,"Xixiaoqu, Deyang",,31.131159,104.390972,87,14,29,-,8,6,24,21,1009,83,1,20140815170000
159,"City Procuratorate, Deyang",,31.114554,104.407986,93,30,33,17,11,11,24,21,1009,83,1,20140815170000
160,"Refractory Factory, Deyang",,31.108606,104.356506,102,44,37,10,12,6,24,21,1009,83,1,20140815170000
161,Deyang,,31.124715,104.400703,102,44,37,17,12,11,24,21,1009,83,1,20140815170000
162,"Nongnongping, Panzhihua",,26.566698,101.695438,178,108,25,29,50,18,21,15,0,60,1,20140815170000
163,"Hemenkou, Panzhihua",,26.589072,101.578312,176,131,21,18,38,16,21,15,0,60,1,20140815170000
164,"Bingcaogang, Panzhihua",,26.58143,101.718473,172,147,14,44,30,22,21,15,0,60,1,20140815170000
165,"Renhe, Panzhihua",,26.498166,101.746887,179,109,11,14,11,28,21,15,0,60,1,20140815170000
166,"Jinjina, Panzhihua",,26.553226,101.84862,163,146,17,16,51,16,21,15,0,60,1,20140815170000
167,Panzhihua,,26.578779,101.720211,179,147,25,44,51,28,21,15,0,60,1,20140815170000
168,"Shima Middle School, Yibin",,28.815979,104.599199,152,68,39,7,13,9,27,23,1006,73,1,20140815170000
169,"Municipal party committee, Yibin",,28.762654,104.624834,153,80,24,7,10,10,27,23,1006,73,1,20140815170000
170,"No. 4 middle school, Yibin",,28.783257,104.608407,155,72,27,9,9,6,27,23,1006,73,1,20140815170000
171,"City government, Yibin",,28.760477,104.644079,161,101,36,11,12,9,27,23,1006,73,1,20140815170000
172,"Huangjinzui, Yibin",,28.712319,104.578389,160,90,40,13,7,10,27,23,1006,73,1,20140815170000
173,"Shaping Middle School, Yibin",,28.795569,104.681393,155,56,29,23,13,7,27,23,1006,73,1,20140815170000
174,Yibin,,28.748384,104.645766,161,101,40,23,13,10,27,23,1006,73,1,20140815170000
175,"Datang Hill, Zigong",,29.359969,104.757388,193,102,23,9,22,16,24,21,1001,79,2,20140815170000
176,"Yanma Road, Zigong",,29.355752,104.724036,172,100,19,3,4,9,24,21,1001,79,2,20140815170000
177,"Tanmulin Street, Zigong",,29.353555,104.777397,167,75,28,7,11,6,24,21,1001,79,2,20140815170000
178,"Chunhua Road, Zigong",,29.33825,104.771895,170,90,24,18,9,8,24,21,1001,79,2,20140815170000
179,Zigong,,29.33617,104.781138,193,102,28,18,22,16,24,21,1001,79,2,20140815170000
180,"Jiushi Hill, Luzhou",,28.955347,105.434207,163,68,118,7,5,3,25,18,1001,64,2,20140815170000
181,"Xiaoshishang Port, Luzhou",,28.899583,105.447192,168,96,118,13,13,8,25,18,1001,64,2,20140815170000
182,"Lantianxian Bridge, Luzhou",,28.852766,105.4358,162,98,116,21,4,6,25,18,1001,64,2,20140815170000
183,"City Environment Monitoring Station, Luzhou",,28.895898,105.435802,165,86,74,25,10,6,25,18,1001,64,2,20140815170000
184,Luzhou,,28.868782,105.445938,168,98,118,25,13,8,25,18,1001,64,2,20140815170000
185,"City Committee, Nanchong",,30.799993,106.082906,153,68,19,12,15,6,28,22,1006,62,1,20140815170000
186,"Refinery Factory, Nanchong",,30.819412,106.10712,171,91,48,14,14,4,29,22,1005,54,1,20140815170000
187,"Gaoping District Monitoring Station, Nanchong",,30.783291,106.110417,153,73,29,8,16,8,28,22,1006,62,1,20140815170000
188,"Jialing District EPB, Nanchong",,30.761255,106.06818,172,90,21,9,2,9,28,22,1006,62,1,20140815170000
189,"City Environmental Monitoring Station, Nanchong",,30.836519,106.11272,163,87,16,6,11,5,28,22,1006,62,1,20140815170000
190,Nanchong,,30.835511,106.114717,163,87,29,12,16,8,28,22,1006,62,1,20140815170000
1249,"City Monitoring Station, Neijiang",,29.592673,105.036234,160,80,33,4,7,7,24,21,1001,82,1,20140815170000
1250,"Dongxing District Government , Neijiang",,29.592148,105.074966,169,94,47,11,6,3,24,21,1001,79,2,20140815170000
1251,"No 2 middle school, Neijiang",,29.579135,105.068548,175,100,42,14,9,7,24,21,1001,82,1,20140815170000
1252,Neijiang,,29.577653,105.06166,175,100,42,14,10,7,24,21,1001,82,1,20140815170000
1253,"City Monitoring Station, Suining",,30.610641,105.683583,127,92,45,7,3,0,24,21,0,82,1,20140815170000
1254,"Administrative center , Suining",,30.63206,105.819747,89,60,39,3,1,0,24,21,0,82,1,20140815170000
1255,Suining,,30.530053,105.596307,127,92,45,18,3,6,24,21,0,82,1,20140815170000
1256,"City Monitoring Station, Leshan",,29.560651,103.759211,178,108,28,31,14,15,22,19,0,82,2,20140815180000
1257,"Leshan Giant Buddha Scenic Area , Leshan",,29.543938,103.772706,165,97,30,26,15,13,22,19,0,82,2,20140815180000
1258,Leshan,,29.54935,103.767777,186,122,33,37,15,15,22,19,0,82,2,20140815180000
1259,"Heilongtan , Meishan",,30.047726,103.900649,-,53,47,4,1,5,24,21,1009,83,1,20140815180000
1260,"Bureau of Meteorology, Meishan",,30.084591,103.843715,167,76,35,10,8,4,24,21,1009,83,1,20140815180000
1261,"Xuguang Community , Meishan",,30.066277,103.8516,170,82,35,9,5,6,24,21,1009,83,1,20140815180000
1262,"City Monitoring Station, Meishan",,30.059205,103.836229,171,84,36,8,8,5,24,21,1009,83,1,20140815180000
1263,Meishan,,30.072618,103.85064,171,84,47,10,8,6,24,21,1009,83,1,20140815180000
1264,"Ziyang middle school, Ziyang",,30.147763,104.638024,151,55,41,6,9,2,24,21,1001,82,1,20140815180000
1265,Ziyang,,30.126054,104.63004,151,61,48,10,43,6,24,21,1001,82,1,20140815180000
191,Shenyang US Consulate,,41.785668,123.432865,160,69,20,24,52,8,20,18,1008,88,1,20140815180000
192,"Huishan, Shenyang",,41.835421,123.647773,137,59,20,12,3,8,20,18,1008,88,1,20140815180000
193,"Hunnan, Shenyang",,41.758263,123.540809,137,64,26,32,13,11,20,18,1008,88,1,20140815180000
194,"Zhangshi, Shenyang",,41.771679,123.289859,167,88,18,29,30,11,20,18,1008,88,1,20140815180000
195,"Artillery College, Shenyang",,41.835749,123.547799,68,59,40,20,6,8,20,18,1008,88,1,20140815180000
196,"Beiling, Shenyang",,41.849633,123.434146,151,73,35,20,36,10,20,18,1008,88,1,20140815180000
197,"Wenyi Road, Shenyang",,41.767444,123.416144,153,69,43,24,52,10,20,18,1008,88,1,20140815180000
198,"Xiaoheyan, Shenyang",,41.779828,123.484015,144,71,36,21,26,10,20,18,1008,88,1,20140815180000
199,"Taiyuan Street, Shenyang",,41.799646,123.406146,157,70,19,25,16,10,20,18,1008,88,1,20140815180000
200,"Ermao, Shenyang",,41.783011,123.366679,165,92,49,31,54,11,20,18,1008,88,1,20140815180000
201,"Liaoning University, Shenyang",,41.830704,123.361071,137,68,27,18,13,9,20,18,1008,88,1,20140815180000
202,Shenyang,,41.808126,123.437611,160,69,41,29,52,10,20,18,1008,88,1,20140815180000
1104,"wenhua street, Shenyang , Shenyang",,41.774139,123.441839,159,76,38,23,56,11,20,18,1008,88,1,20140815180000
1105,"Tanglin Road , Shenyang , Shenyang",,41.823665,123.562317,68,54,33,24,9,9,20,18,1008,88,1,20140815180000
203,"Ganjingzi, Dalian",,38.9747,121.616893,210,112,46,12,1,8,23,21,1009,88,2,20140815180000
204,"Zhoushuizi, Dalian",,38.951928,121.569981,154,64,51,7,2,11,23,21,1009,88,2,20140815180000
205,"Xinghai No 3 station, Dalian",,38.885779,121.568864,163,77,137,8,5,7,23,21,1009,88,2,20140815180000
206,"Qingniwa Bridge, Dalian",,38.91274,121.638018,151,60,95,7,3,9,23,21,1009,88,2,20140815180000
207,"Fujiazhuang, Dalian",,38.864647,121.629947,132,67,92,5,6,11,23,21,1009,88,2,20140815180000
208,"Qixianling, Dalian",,38.856978,121.523169,152,63,108,9,5,11,23,21,1009,88,2,20140815180000
209,"Lushun, Dalian",,38.808946,121.264063,190,89,34,3,4,8,23,21,1009,88,2,20140815180000
210,"Jinzhou, Dalian",,39.132192,121.753259,156,73,26,10,2,4,23,21,1009,88,2,20140815180000
211,"BDA, Dalian",,39.05213,121.782022,154,68,18,14,4,10,23,21,1009,88,2,20140815180000
212,"D&D Port, Dalian",,39.064087,121.981874,119,52,29,12,1,13,23,21,1009,88,2,20140815180000
213,Dalian,,38.91478,121.619625,151,67,95,7,6,11,24,21,1009,83,1,20140815180000
214,"Bearing Factory, Dandong",,40.068929,124.345703,93,55,23,11,10,9,21,20,1009,94,2,20140815180000
215,"Financial school, Dandong",,40.158723,124.432593,102,42,31,6,6,5,21,20,1009,94,2,20140815180000
216,"Yuanbaoshan water, Dandong",,40.149431,124.391698,95,40,28,8,11,15,21,20,1009,94,2,20140815180000
217,"Experimental Primary School, Dandong",,39.887343,124.158056,127,65,25,13,6,22,21,20,1009,94,2,20140815180000
218,Dandong,,40.002046,124.360479,112,62,26,14,11,23,21,20,1009,94,2,20140815180000
1106,"minzhu bridge, Dandong , Dandong",,40.112974,124.373604,112,62,22,14,6,23,21,20,1009,94,2,20140815180000
1107,"yuanbaoshan, Dandong , Dandong",,40.146298,124.399081,97,44,26,7,11,15,21,20,1009,94,2,20140815180000
1108,"linjiang houjie, Dandong , Dandong",,40.152757,124.431745,95,40,28,5,6,5,21,20,1009,94,2,20140815180000
219,"BDA, Panjin",,41.157144,122.06645,102,39,32,19,6,18,18,17,0,94,2,20140815180000
220,"Xinglongtai, Panjin",,41.140948,122.111343,97,36,27,12,16,11,18,17,0,94,2,20140815180000
221,"Dingxiang, Panjin",,41.16139,121.928781,82,27,30,5,9,8,18,17,0,94,2,20140815180000
222,Panjin,,41.122089,122.076206,102,39,32,19,16,18,18,17,0,94,2,20140815180000
223,"No.3 water company, Yingkou",,40.682052,122.385352,80,29,92,3,5,23,25,20,1008,70,3,20140815180000
224,"Yingkou University, Yingkou",,40.683689,122.388285,46,31,85,15,3,9,25,20,1008,70,3,20140815180000
225,"Botanical garden, Yingkou",,40.711674,122.281568,74,28,45,20,6,10,25,20,1008,70,3,20140815180000
226,Yingkou,,40.668578,122.24059,80,29,116,20,6,23,25,20,1008,70,3,20140815180000
1109,"jinghu west street, Yingkou , Yingkou",,40.653831,122.221943,80,29,92,3,5,23,25,20,1008,70,3,20140815180000
1110,"Daqing Road , Yingkou , Yingkou",,40.709181,122.28243,74,28,45,20,6,10,25,20,1008,70,3,20140815180000
227,"Xishanpo, Huludao",,40.724078,120.921974,70,35,40,12,7,5,18,17,0,94,2,20140815180000
228,"Huagong hospital, Huludao",,40.755662,120.848435,117,43,25,32,1,19,18,17,0,94,2,20140815180000
229,"New district park, Huludao",,40.723415,120.853801,53,31,32,23,1,7,18,17,0,94,2,20140815180000
230,"Lianshan district governement, Huludao",,40.775488,120.872292,68,40,32,39,6,4,18,17,0,94,2,20140815180000
231,Huludao,,40.712501,120.842107,117,43,31,39,6,19,21,15,0,56,1,20140815180000
1111,"Dongcheng District , Huludao , Huludao",,40.775362,120.871706,68,40,31,39,6,4,,,0,,,20140815180000
1112,"huagong street, Huludao , Huludao",,40.758901,120.842935,117,43,25,32,1,19,,,0,,,20140815180000
232,Anshan,,41.110466,123.000147,170,99,43,26,15,20,20,18,1008,88,1,20140815180000
233,"Qianshan Park, Anshan",,41.033486,123.143897,109,40,33,4,11,5,20,18,1008,88,2,20140815180000
234,"Tiexi, Anshan",,41.121636,122.97506,170,99,38,26,6,15,20,18,1008,88,2,20140815180000
235,"Taiping Station, Anshan",,41.153322,123.052433,162,82,27,13,13,20,20,18,1008,88,2,20140815180000
236,"Central Station, Anshan",,41.106731,123.002736,142,74,36,10,15,18,20,18,1008,88,2,20140815180000
237,"Shengou Temple, Anshan",,41.137157,123.031901,155,69,41,7,6,12,20,18,1008,88,1,20140815180000
1113,"Qianshan , Anshan , Anshan",,41.014521,123.122538,109,40,33,4,11,5,20,18,1008,88,1,20140815180000
1114,"Tiexi Sandao jie, Anshan",,41.103264,122.978613,170,99,38,26,6,15,20,18,1008,88,1,20140815180000
1115,"Taiyang, Anshan",,41.094946,123.019037,142,74,36,10,15,18,20,18,1008,88,1,20140815180000
238,Fushun,,41.883028,123.962984,114,66,34,25,12,21,20,18,1008,88,1,20140815180000
239,"Shenfu new town, Fushun",,41.804638,123.631684,114,62,34,13,6,10,20,18,1008,88,1,20140815180000
240,"Reservoir, Fushun",,41.8464,123.802857,42,24,0,5,12,0,20,18,1008,88,2,20140815180000
241,"Train Station, Fushun",,41.89726,124.017604,109,51,25,12,11,7,20,18,1008,88,2,20140815180000
242,"Dongzhou, Fushun",,41.855578,124.044738,68,20,38,1,1,5,20,18,1008,88,2,20140815180000
243,"Xinhua, Fushun",,41.888598,123.932932,99,63,19,24,11,8,20,18,1008,88,2,20140815180000
244,"Wanghua, Fushun",,41.888825,123.093723,104,66,30,25,10,21,20,18,1008,88,2,20140815180000
245,Benxi,,41.296267,123.772371,132,76,10,14,1,21,20,18,1008,88,1,20140815180000
246,"Weining, Benxi",,41.349663,123.826071,85,72,12,21,3,36,20,18,1008,88,2,20140815180000
247,"Occupational disease hospital, Benxi",,41.305432,123.74645,124,53,15,15,5,5,20,18,1008,88,2,20140815180000
248,"Dongming, Benxi",,41.292369,123.765058,99,40,9,22,7,10,20,18,1008,88,1,20140815180000
249,"Caitun, Benxi",,41.301591,123.746039,132,76,10,14,1,21,20,18,1008,88,1,20140815180000
250,"Xihu, Benxi",,41.331332,123.773537,119,60,9,23,1,12,20,18,1008,88,1,20140815180000
251,"Dayu, Benxi",,41.308091,123.818442,107,36,14,11,9,6,20,18,1008,88,1,20140815180000
1116,"Xinlitun , Benxi , Benxi",,41.264104,123.811523,124,53,15,15,5,5,20,18,1008,88,1,20140815180000
252,Jinzhou,,41.097169,121.132647,153,72,29,38,28,9,21,15,1008,56,1,20140815180000
253,"Beihu Park, Jinzhou",,41.141447,121.137339,93,65,29,13,11,8,21,15,1008,56,1,20140815180000
254,"Monitoring station, Jinzhou",,41.113441,121.140911,112,68,25,24,11,9,21,15,1008,56,1,20140815180000
255,"Nanshan, Jinzhou",,41.570689,122.046753,153,61,21,38,8,9,21,15,1008,56,1,20140815180000
1118,"BDA, Jinzhou",,40.853915,121.061756,104,58,17,33,28,9,21,15,1008,56,1,20140815180000
1119,"tianan street, Jinzhou , Jinzhou",,41.124468,121.126119,112,68,25,24,11,9,21,15,1008,56,1,20140815180000
1120,"baigu street, Jinzhou, Jinzhou",,41.12214,121.21027,99,72,19,30,7,7,21,15,1008,56,1,20140815180000
1121,Chaoyang,,41.576022,120.456053,112,53,29,18,10,48,-,-,0,-,-,20140815180000
472,"Fukang road, Tianjin",,39.098136,117.157621,170,136,42,40,23,11,27,18,1007,58,1,20140815180000
1122,"Agricultural Area, Chaoyang",,43.93968,125.247371,70,33,5,7,10,24,24,15,1007,52,3,20140815180000
1123,Tieling,,42.225197,123.732174,144,60,33,11,9,19,20,18,1008,88,1,20140815180000
260,"Waterpark, Tieling",,42.297031,123.880748,122,52,12,15,11,8,20,18,1008,88,1,20140815180000
1124,"Huigong Street West , Tieling , Tieling",,42.311115,123.845614,132,60,29,11,9,9,20,18,1008,88,1,20140815180000
1125,Liaoyang,,41.269312,123.24268,151,78,44,12,25,21,20,18,1008,88,1,20140815180000
1126,"Riverside Road , Liaoyang , Liaoyang",,41.176884,123.419859,151,72,39,8,5,11,20,18,1008,88,2,20140815180000
1127,Fuxin,,42.02373,121.675733,109,68,28,28,10,9,-,-,0,-,-,20140815180000
266,"Agricultural Area, Fuxin",,42.071291,121.696445,102,68,24,24,10,7,16,14,0,86,1,20140815180000
267,"Industrial Area, Fuxin",,42.041052,121.715554,109,56,22,28,3,7,16,14,0,86,1,20140815180000
1128,"Yulong Metro , Fuxin , Fuxin",,42.035091,121.666531,95,50,25,24,4,7,16,14,0,86,1,20140815180000
1129,"Dongyuan , Fuxin , Fuxin",,42.029119,121.681553,-,-,-,-,-,-,-,-,0,-,-,20140815180000
268,"City Monitoring Station, Jinan",,36.662614,117.054645,164,90,131,6,15,6,25,20,1008,66,1,20140815180000
269,"Shandong Institute of Economics, Jinan",,36.63819,117.074975,161,76,114,2,14,6,25,20,1008,66,1,20140815180000
270,"Quancheng Plaza, Jinan",,36.661711,117.027043,158,82,94,15,35,7,25,20,1008,66,1,20140815180000
271,"Kegansuo, Jinan",,36.611582,116.99384,153,76,133,12,10,4,25,20,1008,66,1,20140815180000
272,"Agriculture Science Institute, Jinan",,36.663115,116.95063,156,94,69,18,10,10,25,20,1008,66,1,20140815180000
273,"Lanxiang technical school, Jinan",,36.700421,116.95342,157,78,179,9,26,7,25,20,1008,66,1,20140815180000
274,"Chemical factory, Jinan",,36.687463,116.994406,132,85,75,21,11,6,25,20,1008,66,1,20140815180000
275,"Provincial Seed Warehouse, Jinan",,36.685706,117.066348,161,76,141,8,11,9,25,20,1008,66,1,20140815180000
276,"Shandong Architecture University, Jinan",,36.681732,117.191868,160,84,49,5,9,9,25,20,1008,66,1,20140815180000
277,"Baosheng cable company, Jinan",,36.724638,117.130855,158,98,88,10,5,6,25,20,1008,66,1,20140815180000
278,"Paomaling, Jinan",,36.47869,117.219027,163,75,159,5,17,11,25,20,1008,66,1,20140815180000
279,"Changqing District Communist Party School, Jinan",,36.548797,116.770859,153,78,92,13,20,11,25,20,1008,66,1,20140815180000
280,"BDA, Jinan",,36.685835,117.130851,160,78,119,21,7,8,25,20,1008,66,1,20140815180000
281,Jinan,,36.651426,117.126625,164,100,179,21,35,10,25,20,1008,66,1,20140815180000
282,"Shinan district No. 1, Qingdao",,36.065534,120.40839,162,77,168,5,11,10,24,22,1009,89,3,20140815180000
283,"Shibei district No. 1, Qingdao",,36.069919,120.341264,160,116,121,2,10,11,24,22,1009,89,3,20140815180000
284,"Shibei district No. 2, Qingdao",,36.104146,120.36637,152,73,195,1,11,15,24,22,1009,89,3,20140815180000
285,"Huangdao District No. 1, Qingdao",,35.958935,120.191041,160,108,121,6,12,10,24,22,1009,89,3,20140815180000
286,"Huangdao District No. 2, Qingdao",,35.970487,120.160339,167,140,0,11,11,13,24,22,1009,89,3,20140815180000
287,"Laoshan District No. 1, Qingdao",,36.085881,120.451839,174,93,43,11,20,15,24,22,1009,89,3,20140815180000
288,"Laoshan District No. 2, Qingdao",,36.091075,120.490388,163,120,178,7,12,11,24,22,1009,89,3,20140815180000
289,"Licang District No. 1, Qingdao",,36.184872,120.38533,167,156,43,2,15,11,24,22,1009,89,3,20140815180000
290,"Licang District No. 2, Qingdao",,36.154369,120.432287,169,78,100,9,7,11,24,22,1009,89,3,20140815180000
291,"Chengyang District No. 1, Qingdao",,36.308502,120.40008,179,104,79,13,12,11,24,22,1009,89,3,20140815180000
292,"Chengyang District No. 2, Qingdao",,36.308429,120.465806,175,89,134,14,16,10,24,22,1009,89,3,20140815180000
293,Qingdao,,36.067358,120.387773,174,140,170,11,20,15,24,22,1009,89,3,20140815180000
294,"Zichuan Meteo. Stations, Zibo",,36.637916,117.960222,169,158,57,48,77,8,21,15,0,69,3,20140815180000
295,"Dongfeng Chemical factory, Zibo",,36.838576,118.050785,165,112,44,44,75,16,21,15,0,69,3,20140815180000
296,"Boshan shuangshan, Zibo",,36.497278,117.853581,162,82,100,26,33,10,21,15,0,69,3,20140815180000
297,"Linzi Putian Park, Zibo",,36.820171,118.315022,170,142,75,68,57,27,21,15,0,69,3,20140815180000
298,"Qilu Petrochemical, Zibo",,36.765907,118.254967,97,146,92,44,38,21,21,15,0,69,3,20140815180000
299,"Zhoucun sanjin Group, Zibo",,36.8044,117.85694,167,88,43,28,93,16,21,15,0,69,3,20140815180000
300,"Vocational College, Zibo",,36.825208,117.926305,164,105,62,27,82,20,21,15,0,69,3,20140815180000
301,"BDA, Zibo",,36.905214,118.021824,168,98,30,40,63,12,21,15,0,69,3,20140815180000
302,Zibo,,36.813618,118.060948,178,158,100,68,77,19,21,15,0,69,3,20140815180000
303,"Shizhong District Government, Zaozhuang",,34.850397,117.569545,168,140,49,33,63,10,24,21,1009,81,1,20140815180000
304,"Sewage treatment plant, Zaozhuang",,34.818951,117.595345,175,89,39,42,25,7,24,21,1009,81,1,20140815180000
305,"Xuecheng EPA, Zaozhuang",,34.790214,117.272455,177,108,29,29,47,11,22,21,1009,93,0,20140815180000
306,"Yicheng District government, Zaozhuang",,34.772806,117.57647,175,108,52,17,18,6,24,21,1009,81,1,20140815180000
307,"Taierzhuang EPA, Zaozhuang",,34.579462,117.741067,157,85,37,13,7,9,24,21,1009,81,1,20140815180000
308,"Shanting EPA, Zaozhuang",,35.070373,117.457691,137,54,46,11,10,8,24,21,1009,81,1,20140815180000
309,"City EPA, Zaozhuang",,34.809466,117.320608,162,100,56,13,45,6,24,21,1009,81,1,20140815180000
310,"High-tech zone, Zaozhuang",,34.821779,117.363495,172,89,36,15,48,6,24,21,1009,81,1,20140815180000
311,Zaozhuang,,34.809693,117.329634,175,142,52,33,63,10,24,21,1009,81,1,20140815180000
312,"City EPA, Dongying",,37.432052,118.672871,169,108,129,27,27,12,23,17,0,64,4,20140815180000
313,"Vocational College, Dongying",,37.438653,118.630567,180,176,80,61,24,11,23,17,0,64,4,20140815180000
314,"Xianhe Oil Production Plant, Dongying",,37.442419,118.510222,173,172,41,65,25,9,23,17,0,65,4,20140815180000
315,"Gengjin village, Dongying",,37.445072,118.55839,184,151,32,47,24,10,23,17,0,65,4,20140815180000
316,"City environmental company, Dongying",,37.466599,118.508012,169,145,50,60,24,9,23,17,0,65,4,20140815180000
317,"Hekou  district, Dongying",,37.883786,118.522171,170,103,95,17,36,8,23,17,0,65,4,20140815180000
318,"BDA, Dongying",,37.435162,118.701827,172,111,141,31,17,13,23,17,0,65,4,20140815180000
319,Dongying,,37.435429,118.680434,184,172,104,65,36,13,23,17,0,65,4,20140815180000
320,"Bearing Factory, Yantai",,37.544126,121.376956,178,81,27,18,9,9,,,0,,,20140815180000
321,"Xijiao Chemical Station, Yantai",,37.547148,121.323695,164,92,48,27,15,12,,,0,,,20140815180000
322,"Fushan Monitoring Stations, Yantai",,37.472245,121.260116,137,89,26,5,2,12,,,0,,,20140815180000
323,"Mouping EPA, Yantai",,37.376681,121.586509,187,79,45,7,4,9,,,0,,,20140815180000
324,"Laishan EPA, Yantai",,37.478422,121.44829,168,80,41,5,8,8,,,0,,,20140815180000
325,"Laishan Shengquan Industrial Park, Yantai",,37.4271,121.408386,164,92,48,9,5,8,,,0,,,20140815180000
326,"China Agricultural University, Yantai",,37.423568,121.511838,154,79,50,5,7,7,,,0,,,20140815180000
327,"BDA EPA, Yantai",,37.560827,121.257954,162,75,83,15,4,8,,,0,,,20140815180000
329,"Dajijia, Yantai",,37.673849,121.071465,159,70,113,12,7,7,,,0,,,20140815180000
330,Yantai,,37.464793,121.453142,187,92,95,27,15,12,23,20,0,86,4,20140815180000
331,"BDA, Weifang",,36.720022,119.054064,165,102,43,23,15,6,,,0,,,20140815180000
332,"Business School, Weifang",,36.682442,119.105909,157,86,44,33,11,6,,,0,,,20140815180000
333,"Hanting District, Weifang",,36.773484,119.199705,163,100,54,17,19,9,,,0,,,20140815180000
334,"Gongda Company, Weifang",,36.657635,119.167266,165,96,84,20,39,8,,,0,,,20140815180000
335,"City EPA, Weifang",,36.701272,119.16838,160,90,69,11,12,5,,,0,,,20140815180000
336,"City Arbitration Committee, Weifang",,36.702422,119.145927,161,83,76,13,11,5,,,0,,,20140815180000
337,"Xinhui Group, Weifang",,36.641581,119.11679,164,92,101,13,16,6,,,0,,,20140815180000
338,"Jincheng Middle School, Weifang",,36.773611,119.115539,169,107,90,21,14,7,,,0,,,20140815180000
339,Weifang,,36.707217,119.167638,169,107,101,33,39,9,23,17,0,65,4,20140815180000
340,"City Monitoring Station, Jining",,35.408443,116.623917,144,70,46,7,11,8,24,22,1008,89,1,20140815180000
1090,"Shengdi Hollidays Resort, Jining",,35.424746,116.699093,137,85,32,21,14,13,24,22,1008,89,1,20140815180000
341,"Sewage treatment plant, Jining",,35.364286,116.609177,154,65,40,7,9,5,24,22,1008,89,1,20140815180000
342,"Electrochemical Factory, Jining",,35.390473,116.552956,122,63,47,8,10,8,24,22,1008,89,1,20140815180000
343,"Rencheng BDA, Jining",,35.390484,116.662995,162,73,34,14,23,13,24,22,1008,89,1,20140815180000
344,"Agricultural School, Jining",,35.44235,116.601682,124,67,46,17,7,6,24,22,1008,89,1,20140815180000
345,"BDA Huojucheng, Jining",,35.436377,116.642953,155,74,39,12,8,11,24,22,1008,89,1,20140815180000
346,Jining,,35.414473,116.59239,162,85,47,21,23,13,24,22,1008,89,1,20140815180000
347,"Taishan monitoring station, Taian",,36.194362,117.159648,158,85,40,14,18,14,16,16,0,97,5,20140815180000
348,"Shandong Electric Power School, Taian",,36.176071,117.12413,160,75,47,21,14,10,16,16,0,97,5,20140815180000
349,"Population Education school, Taian",,36.194417,117.104131,156,104,58,14,14,13,16,16,0,97,5,20140815180000
350,"Houfeng company, Taian",,36.204863,117.19015,161,78,37,15,6,13,16,16,0,97,5,20140815180000
351,"Nongda new campus, Taian",,36.170179,117.165191,159,109,20,53,19,15,16,16,0,97,5,20140815180000
352,"Transportation technical school, Taian",,36.202126,117.047068,132,66,43,7,8,13,16,16,0,97,5,20140815180000
353,"ICT Technology, Taian",,36.116621,117.107458,155,99,29,24,11,13,16,16,0,97,5,20140815180000
354,Taian,,36.200502,117.093682,161,109,58,53,19,15,16,16,0,97,5,20140815180000
355,"City Environmental Monitoring Station, Weihai",,37.513939,122.067058,162,73,82,4,10,8,23,20,0,86,4,20140815180000
356,"Woodworking Factory, Weihai",,37.325455,122.160777,152,61,57,4,7,5,23,20,0,86,4,20140815190000
357,"Lantian Hotel, Weihai",,37.514641,122.146276,161,68,82,4,9,3,23,20,0,86,4,20140815190000
358,"Zhang village government, Weihai",,37.485561,122.049436,156,54,43,6,4,7,23,20,0,86,4,20140815190000
359,"Gao District Bank, Weihai",,37.534919,122.056294,159,71,85,3,11,6,23,20,0,86,4,20140815190000
360,"Huxia technical school, Weihai",,37.427951,122.130811,152,61,49,3,9,7,23,20,0,86,4,20140815190000
361,Weihai,,37.5141,122.125477,162,73,85,6,11,8,23,20,0,86,4,20140815190000
362,"City governement square, Rizhao",,35.4075,119.526008,164,88,50,12,12,9,25,22,1010,82,1,20140815190000
363,"Port Authority, Rizhao",,35.381297,119.55396,159,86,40,15,8,9,25,22,1010,82,1,20140815190000
364,"City Monitoring Station, Rizhao",,35.388683,119.496405,173,91,43,25,8,7,25,22,1010,82,1,20140815190000
365,"Professor Garden, Rizhao",,35.462161,119.574193,164,111,50,18,12,12,25,22,1010,82,1,20140815190000
366,"Vocational and Technical College, Rizhao",,35.441939,119.538187,171,103,43,21,11,8,25,22,1010,82,1,20140815190000
367,"Lanshan EPA branch, Rizhao",,35.293405,119.345716,158,90,25,27,11,13,25,22,1010,82,1,20140815190000
368,"Jinma Industrial Park, Rizhao",,35.373339,119.514108,160,94,50,19,16,8,25,22,1010,82,1,20140815190000
369,Rizhao,,35.416089,119.532316,171,111,50,27,16,13,25,22,1010,82,1,20140815190000
370,"Vegetable oil factory, Laiwu",,36.205028,117.700917,182,123,40,34,57,13,24,18,1010,64,1,20140815190000
371,"Nursing home, Laiwu",,36.266067,117.652769,166,126,43,28,21,17,24,18,1010,64,1,20140815190000
372,"Xinyi middle school, Laiwu",,36.245086,117.739025,158,91,30,22,52,21,24,18,1010,64,1,20140815190000
373,"Risheng International School, Laiwu",,36.208125,117.730959,175,121,31,15,26,11,24,18,1010,64,1,20140815190000
374,"Gangcheng EPA, Laiwu",,36.066836,117.871823,164,104,43,47,54,15,24,18,1010,64,1,20140815190000
375,"City EPA, Laiwu",,36.228913,117.694797,167,104,37,48,50,14,24,18,1010,64,1,20140815190000
376,Laiwu,,36.213688,117.682612,182,126,43,47,57,21,-,-,0,-,-,20140815190000
377,"Lunan Pharmaceutical Factory, Linyi",,35.061671,118.299527,162,138,22,43,40,20,20,19,0,96,2,20140815190000
378,"Yihe compound, Linyi",,35.056752,118.34739,173,130,21,60,51,26,20,19,0,96,2,20140815190000
379,"Linyi University, Linyi",,35.114777,118.293414,162,112,25,34,24,15,20,19,0,96,2,20140815190000
380,City EPA,Nanfang,35.104871,118.353518,163,140,37,33,49,19,20,19,0,96,2,20140815190000
381,"Xinguang woolen factory, Linyi",,34.981004,118.282,169,143,21,49,60,14,20,19,0,96,2,20140815190000
382,"Hongfu Baijiu Factory, Linyi",,34.998788,118.257275,169,144,20,47,42,20,20,19,0,96,2,20140815190000
384,"Hedong insurance company, Linyi",,35.089354,118.40812,172,154,29,43,40,32,20,19,0,96,2,20140815190000
385,"Jianghua vehicule center, Linyi",,35.010082,118.435749,162,91,21,30,11,9,20,19,0,96,2,20140815190000
386,Linyi,,35.10428,118.362202,173,154,37,60,60,32,20,19,0,96,2,20140815190000
387,"Heima group, Dezhou",,37.466063,116.314134,184,144,49,22,14,18,21,16,1007,70,3,20140815190000
388,"Monitoring station, Dezhou",,37.433107,116.377312,182,164,33,41,10,19,21,16,1007,70,3,20140815190000
389,"Supervision Station, Dezhou",,37.449689,116.324709,182,176,45,16,17,19,21,16,1007,70,3,20140815190000
390,"Huayu technical school, Dezhou",,37.462809,116.357559,169,52,88,15,14,13,21,16,1007,70,3,20140815190000
391,"Shuangyi group, Dezhou",,37.478848,116.316362,189,142,45,32,7,18,21,16,1007,70,3,20140815190000
392,Dezhou,,37.434959,116.363366,189,176,88,41,20,19,21,16,1007,70,3,20140815190000
393,"Dongchang District Government, Liaocheng",,36.444473,115.971733,154,73,39,18,11,17,27,23,1007,77,1,20140815190000
394,"Light Machinery Factory No. 2, Liaocheng",,36.456788,116.002383,161,100,49,16,10,10,27,23,1007,77,1,20140815190000
395,"City committee communist party school, Liaocheng",,36.479537,115.989288,159,88,38,12,10,16,27,23,1007,77,1,20140815190000
396,"Customs, Liaocheng",,36.431933,115.956974,161,89,34,14,6,15,27,23,1007,77,1,20140815190000
397,"Hongshun Garden, Liaocheng",,36.471124,115.960319,152,87,40,16,9,17,27,23,1007,77,1,20140815190000
398,"BDA, Liaocheng",,36.459407,116.043621,167,108,32,17,10,14,27,23,1007,77,1,20140815190000
399,Liaocheng,,36.456792,115.991051,161,100,49,18,11,17,27,23,1007,77,1,20140815190000
400,"City EPA, Binzhou",,37.38024,118.026895,172,97,30,18,22,13,25,21,1008,71,1,20140815190000
401,"Beizhong new school, Binzhou",,37.38374,117.988996,172,99,22,21,3,15,25,21,1008,71,1,20140815190000
402,"No.2 water factory, Binzhou",,37.36155,118.002648,181,110,27,16,7,10,25,21,1008,71,1,20140815190000
403,"Keling Chemical factory, Binzhou",,37.396138,117.943609,171,102,18,22,39,13,25,21,1008,71,1,20140815190000
404,"Yinhe logistics company, Binzhou",,37.356122,117.943326,170,110,9,15,25,10,25,21,1008,71,1,20140815190000
405,"Bilin compond, Binzhou",,37.36815,117.978964,175,112,23,19,9,11,25,21,1008,71,1,20140815190000
406,Binzhou,,37.382639,117.976606,181,112,30,22,39,15,25,21,1008,71,1,20140815190000
407,"Bureau of Meteorology, Heze",,35.248625,115.428775,152,70,39,10,7,11,21,15,0,67,3,20140815190000
408,"Sewage treatment plant, Heze",,35.222517,115.531511,147,85,29,7,13,9,21,15,0,67,3,20140815190000
409,"Municipal CPPCC, Heze",,35.237125,115.480591,156,69,43,8,4,9,21,15,0,67,3,20140815190000
410,"Huarun Pharmaceutical Company, Heze",,35.261463,115.524873,144,65,36,12,19,13,21,15,0,67,3,20140815190000
411,"Heze University, Heze",,35.269706,115.460934,95,70,47,8,9,20,21,15,0,67,3,20140815190000
412,Heze,,35.233354,115.486503,156,70,47,12,19,20,21,15,0,67,3,20140815190000
413,"Shiji Park, Shijiazhuang",,38.03155,114.547873,173,117,26,32,14,4,22,20,1007,88,2,20140815190000
414,"Xinan College, Shijiazhuang",,38.012764,114.473163,149,91,17,24,21,4,22,20,1007,88,2,20140815190000
415,"Chemical College, Shijiazhuang",,38.055503,114.569816,188,150,19,39,20,2,22,20,1007,88,2,20140815190000
416,"Worker hospital, Shijiazhuang",,38.051784,114.461209,159,114,23,31,16,4,22,20,1007,88,2,20140815190000
417,"Northwest Water Company, Shijiazhuang",,38.140638,114.508038,163,115,18,35,20,7,22,20,1007,88,2,20140815190000
418,"High-tech zone, Shijiazhuang",,38.040482,114.610775,182,149,18,33,25,5,22,20,1007,88,2,20140815190000
419,"Fenglong Montain, Shijiazhuang",,37.910829,114.360264,144,80,71,18,34,7,22,20,1007,88,2,20140815190000
1130,"Zhengding Unicom, Shijiazhuang",,38.159458,114.59879,192,157,40,46,26,6,22,20,1007,88,0,20140815190000
1131,"Luancheng Communications, Shijiazhuang",,37.906534,114.638785,155,105,43,22,43,5,22,20,1007,88,0,20140815190000
1132,"Gaocheng Experimental School, Shijiazhuang",,38.039518,114.867812,194,162,25,57,52,10,22,20,1007,88,0,20140815190000
1133,"Wuji EPA, Shijiazhuang",,38.17862,114.997012,182,112,69,20,16,6,22,20,1007,88,0,20140815190000
1134,"Shenze Power Supply Bureau, Shijiazhuang",,38.197674,115.219126,173,123,60,38,20,7,22,20,1007,88,0,20140815190000
1135,"Zhaoxian EPA, Shijiazhuang",,37.77171,114.775957,147,98,81,49,36,7,22,20,1007,88,0,20140815190000
1136,"Gaoyi County City Hall, Shijiazhuang",,37.623535,114.612729,170,123,52,22,19,8,22,20,1007,88,0,20140815190000
1137,"Zanhuang County City Hall, Shijiazhuang",,37.672898,114.398269,144,104,45,33,9,4,22,20,1007,88,0,20140815190000
1138,"Jingxing Bureau of Meteorology, Shijiazhuang",,38.038788,114.158406,134,97,44,43,19,8,22,20,1007,88,0,20140815190000
1139,"Pingshan Ye River, Shijiazhuang",,38.266657,114.210275,149,72,42,23,12,6,22,20,1007,88,0,20140815190000
420,Shijiazhuang,,38.042926,114.520834,188,150,29,39,25,5,22,20,1007,88,2,20140815190000
421,"No. 12 middle school, Tangshan",,39.659306,118.190271,152,92,20,29,21,19,-,-,0,-,-,20140815190000
422,"Ceramics Company, Tangshan",,39.669255,118.225185,262,167,41,16,16,5,24,18,1007,69,0,20140815190000
423,"Commodities Bureau, Tangshan",,39.642301,118.191265,212,161,36,17,22,9,24,18,1007,69,0,20140815190000
424,"Leidazhanzi Station, Tangshan",,39.644375,118.150383,252,164,51,8,17,11,24,18,1007,69,0,20140815190000
425,"Supply and marketing cooperatives, Tangshan",,39.632334,118.17232,295,180,73,15,30,8,24,18,1007,69,0,20140815190000
1140,"Guye District City Hall, Tangshan",,39.741379,118.460246,319,205,102,20,25,22,26,18,1007,61,1,20140815190000
1141,"Kaiping Stations, Tangshan",,39.675246,118.275149,313,333,77,27,16,11,26,18,1007,61,1,20140815190000
1142,"Fengnan District City Hall, Tangshan",,39.5834,118.097454,294,169,128,28,18,25,26,18,1007,61,1,20140815190000
1143,"Fengrun City Hall, Tangshan",,39.840355,118.175338,170,178,44,48,15,9,26,18,1007,61,1,20140815190000
1144,"Qianxi EPA, Tangshan",,40.153339,118.317265,104,63,41,22,7,14,26,18,1007,61,1,20140815190000
1145,"Caofeidian Xinli  Primary School, Tangshan",,39.291232,118.462182,263,149,191,6,12,8,26,18,1007,61,1,20140815190000
1146,"Zunhua EPA, Tangshan",,40.206249,117.997315,155,65,46,16,17,14,26,18,1007,61,1,20140815190000
1147,"Qianan No.1 middle school, Tangshan",,40.004248,118.717055,273,163,103,20,22,16,26,18,1007,61,1,20140815190000
1266,"Luannan County , Tangshan",,39.511132,118.686928,276,143,164,17,18,10,26,18,1007,61,1,20140815190000
1267,"Yutian County , Tangshan",,39.908249,117.751417,184,147,40,69,17,10,26,18,1007,61,1,20140815190000
426,Tangshan,,39.632175,118.186472,295,189,73,22,30,11,24,18,1007,69,0,20140815190000
427,"City Monitoring Station, Qinhuangdao",,39.958109,119.607773,107,11,136,15,3,13,,,0,,,20140815190000
428,"Beidaihe, Qinhuangdao",,39.829209,119.53194,167,88,41,10,14,7,,,0,,,20140815190000
429,"Shanhai Pass, Qinhuangdao",,40.019298,119.767898,107,35,14,23,14,6,,,0,,,20140815190000
430,"Contruction Plazz, Qinhuangdao",,39.943187,119.542912,107,66,12,38,6,10,,,0,,,20140815190000
431,"City government, Qinhuangdao",,39.93711,119.612769,119,51,124,16,10,6,,,0,,,20140815190000
1148,"Qinglong EPA, Qinhuangdao",,40.419223,118.958002,122,55,47,11,2,8,26,18,0,61,1,20140815190000
1149,"Changli EPA, Qinhuangdao",,39.714369,119.173237,348,226,133,19,16,8,,,0,,,20140815190000
1268,"Lulong County Bureau of Meteorology , Qinhuangdao",,39.901091,118.904857,348,186,138,17,17,20,26,18,0,61,1,20140815190000
432,Qinhuangdao,,39.936485,119.606263,119,51,124,16,10,6,24,18,0,69,0,20140815190000
433,"CongTai Park, Handan",,36.620197,114.501891,34,72,13,1,8,2,24,20,0,72,1,20140815190000
434,"City EPA, Handan",,36.618145,114.518822,211,76,38,21,4,10,24,20,0,72,1,20140815190000
435,"East Sewage Factory, Handan",,36.616064,114.548714,190,99,34,3,8,5,24,20,0,72,1,20140815190000
436,"Mine Hospital, Handan",,36.578149,114.509854,21,79,30,5,2,5,28,19,0,51,1,20140815190000
1150,"Fengfeng mine Inland Revenue Department, Handan",,36.423085,114.245994,234,168,49,24,16,12,27,21,0,60,2,20140815190000
1151,"Shexian EPA, Handan",,36.589084,113.692341,178,93,47,7,12,13,,,0,,,20140815190000
1152,"Ci County Vocational Education Center, Handan",,36.380247,114.390119,185,124,88,44,40,5,,,0,,,20140815190000
1153,"Yongnian government guesthouse, Handan",,36.783297,114.502905,212,178,49,49,34,6,28,19,0,51,1,20140815190000
1154,"Wuan BDA, Handan",,36.686223,114.269009,223,279,68,1,14,20,,,0,,,20140815190000
1085,Handan,,36.625683,114.544812,211,99,38,4,8,10,24,20,0,72,1,20140815190000
437,"Road and Bridge Corporation, Xingtai",,37.096415,114.538799,197,135,24,44,14,8,24,20,1006,72,1,20140815190000
438,"Dahuo fontain, Xingtai",,37.097563,114.488001,181,125,13,35,13,9,24,20,1006,72,1,20140815190000
439,"Xingtai Normal College, Xingtai",,37.053404,114.531819,171,112,20,40,16,9,24,20,1006,72,1,20140815190000
440,"Environment protection office, Xingtai",,37.06253,114.490985,180,156,16,35,37,9,24,20,1006,72,1,20140815190000
1155,"Cultural centers within the mound, Xingtai",,37.293569,114.524873,157,94,49,25,27,8,28,19,1007,51,1,20140815190000
383,Xingtai,,37.071066,114.510749,197,156,24,44,37,9,24,20,1006,72,1,20140815190000
441,"City Monitoring Station, Baoding",,38.871737,115.527103,122,81,34,32,12,4,20,18,1007,91,0,20140815190000
442,"Surface water Company, Baoding",,38.842891,115.467326,171,153,46,37,30,6,26,19,1007,58,2,20140815190000
443,"Huadian II, Baoding",,38.896748,115.528102,152,83,36,12,7,3,20,18,1007,91,0,20140815190000
444,"Reception Center, Baoding",,38.911905,115.477301,127,104,25,42,4,7,20,18,1007,91,0,20140815190000
445,"Film Factory, Baoding",,38.876949,115.448383,155,122,33,32,7,7,20,18,1007,91,0,20140815190000
446,"Natatorium, Baoding",,38.863815,115.499212,134,109,26,38,25,6,20,18,1007,91,0,20140815190000
1156,"Qingyuan City Hall, Baoding",,38.771758,115.502189,179,108,48,41,9,3,26,19,1007,58,2,20140815190000
1157,"Xushui EPA, Baoding",,39.025781,115.668023,144,80,73,9,15,5,26,19,1007,58,2,20140815190000
1158,"Zhouzhou Monitoring Stations, Baoding",,39.493241,116.040187,114,58,58,14,8,1,26,19,1007,58,2,20140815190000
1159,"Gaobeidian EPA, Baoding",,39.3329,115.885891,134,76,79,13,26,2,26,19,1007,58,2,20140815190000
447,Baoding,,38.874791,115.471124,155,122,36,42,32,7,20,18,1007,91,0,20140815190000
448,"Century Compound, Zhangjiakou",,40.770279,114.909106,147,22,8,2,6,3,16,11,1009,62,0,20140815190000
449,"North Pumping Station, Zhangjiakou",,40.874362,114.910119,99,19,27,4,16,8,16,11,1009,62,0,20140815190000
450,"Hardware Warehouse, Zhangjiakou",,40.81232,114.887119,30,25,22,9,13,11,16,11,1009,62,0,20140815190000
451,"Tanji Chang, Zhangjiakou",,40.796301,114.89811,38,27,25,3,11,5,16,11,1009,62,0,20140815190000
1160,"Xiahuayuan EPA, Zhangjiakou",,40.509345,115.302442,80,33,23,22,27,1,16,11,1009,62,0,20140815190000
1161,"Huaian EPA, Zhangjiakou",,40.68157,114.398646,80,32,25,8,17,0,16,11,1009,62,0,20140815190000
1162,"Huailai Fuqian Primary School, Zhangjiakou",,40.422204,115.530285,76,53,19,25,13,3,16,11,1009,62,0,20140815190000
1269,"Zhangbei EPA , Zhangjiakou",,41.166775,114.732369,99,69,16,21,3,2,16,11,1009,62,0,20140815190000
1270,"Kangbao County Environmental Protection Agency , Zhangjiakou",,41.837866,114.591246,53,35,11,2,3,3,16,11,1009,62,0,20140815190000
1271,"Guyuan County welfare , Zhangjiakou",,41.669984,115.687401,74,27,5,4,16,4,16,11,1009,62,0,20140815190000
1272,"Shangyi County Environmental Protection Bureau , Zhangjiakou",,41.086638,113.984688,80,104,15,2,4,4,16,11,1009,62,0,20140815190000
1273,"Yuxian Secondary School , Zhangjiakou",,39.84699,114.601986,124,64,27,12,41,5,16,11,1009,62,0,20140815190000
1274,"Yang County Vocational Education Center , Zhangjiakou",,40.106343,114.134732,91,51,33,4,3,6,16,11,1009,62,0,20140815190000
1275,"Wan county Environmental Protection Agency , Zhangjiakou",,40.770459,114.75033,80,33,30,9,2,4,16,11,1009,62,0,20140815190000
473,"Nankou road, Tianjin",,39.174022,117.199688,158,86,24,35,10,10,24,18,1007,69,0,20140815190000
1276,"Zhuolu County Environmental Protection Agency , Zhangjiakou",,40.374273,115.221393,63,30,31,1,3,1,16,11,1009,62,0,20140815190000
452,Zhangjiakou,,40.825744,114.893659,147,42,28,9,22,11,16,11,1009,62,0,20140815190000
453,"Railway, Chengde",,40.917557,117.972331,65,45,6,17,4,3,17,14,1009,73,2,20140815190000
454,"Cultural Center, Chengde",,40.974625,117.824437,68,51,8,16,2,3,17,14,1009,73,2,20140815190000
455,"Bank of China, Chengde",,40.985582,117.958304,80,35,4,22,24,4,17,14,1009,73,2,20140815190000
456,"BDA, Chengde",,40.937567,117.969325,65,44,9,21,16,4,17,14,1009,73,2,20140815190000
457,"Ligong, Chengde",,41.012579,117.94428,107,23,6,13,1,3,17,14,1009,73,2,20140815190000
1163,"Chengde County EPA, Chengde",,40.776643,118.17646,93,58,11,20,3,8,17,14,1009,73,2,20140815190000
1164,"Xinglong County City Hall, Chengde",,40.424301,117.513488,158,54,33,10,5,9,17,14,1009,73,2,20140815190000
1165,"Luanping EPA, Chengde",,40.950792,117.350715,55,29,7,14,18,7,17,14,1009,73,2,20140815190000
1166,"Fengning County City Hall, Chengde",,41.216739,116.658037,59,25,14,8,1,6,17,14,1009,73,2,20140815190000
1277,"Longhua EPA , Chengde",,41.311956,117.739605,85,32,9,8,13,5,17,14,1009,73,2,20140815190000
458,Chengde,,40.955652,117.968737,107,45,9,22,24,4,17,14,1009,73,2,20140815190000
459,"Municipal EPB, Cangzhou",,38.323507,116.876746,114,96,134,16,9,8,29,16,1006,45,2,20140815190000
460,"Cangxian Urban Construction Bureau, Cangzhou",,38.299495,116.890734,181,120,34,14,5,6,24,19,1007,73,1,20140815190000
461,"TV Broadcast Station, Cangzhou",,38.325525,116.863761,181,127,37,8,12,8,24,19,1007,73,1,20140815190000
1167,"Qing County City Hall, Cangzhou",,38.589643,116.815876,196,107,20,35,12,5,24,19,1007,73,1,20140815190000
1168,"Poyoushi City Hall, Cangzhou",,38.089516,116.590575,223,151,1,31,25,9,24,19,1007,73,1,20140815190000
1169,"Huanghua Finance Bureau Training Center, Cangzhou",,38.377793,117.343356,237,19,46,6,38,3,24,19,1007,73,1,20140815190000
462,Cangzhou,,38.305035,116.844625,181,127,37,14,12,8,24,19,1007,73,1,20140815190000
463,"Environmental Monitoring Supervision Center, Langfang",,39.558157,116.720995,137,70,21,33,11,7,24,19,1007,73,2,20140815190000
464,"TCM Medical Material Company, Langfang",,39.519096,116.689914,152,90,19,26,5,6,24,19,1007,73,2,20140815190000
465,"BDA, Langfang",,39.576175,116.779041,172,105,13,54,12,7,24,19,1007,73,2,20140815200000
466,"North China Institute of Aerospace, Langfang",,39.53517,116.743027,151,81,21,32,8,8,24,19,1007,73,2,20140815200000
1170,"Guan Party School, Langfang",,39.446185,116.311026,167,80,43,30,5,4,24,19,1007,73,2,20140815200000
1171,"Xianghe EPA, Langfang",,39.76725,117.015252,189,100,50,24,14,6,24,19,1007,73,2,20140815200000
1172,"Wenan County EPA, Langfang",,38.880927,116.47001,163,85,111,12,10,5,26,18,1007,61,1,20140815200000
1173,"Three Rivers Department of Transportation, Langfang",,39.989419,117.091528,161,93,32,46,6,6,24,19,1007,73,2,20140815200000
1278,"Yongqing EPA , Langfang",,39.329071,116.510917,206,170,20,43,26,8,24,19,1007,73,2,20140815200000
1279,"Dacheng EPA, Langfang",,38.712628,116.665751,197,124,60,25,28,16,24,19,1007,73,2,20140815200000
467,Langfang,,39.539148,116.689668,172,105,21,54,12,8,24,19,1007,73,2,20140815200000
468,"Hengshui City EPB, Hengshui",,37.739679,115.695929,-,-,-,-,-,-,-,-,0,-,-,20140815200000
469,"Environmental Monitoring Station, Hengshui",,37.738593,115.648837,192,139,38,24,5,7,21,16,0,71,3,20140815200000
470,"Electrical Machine North Factory, Hengshui",,37.758686,115.70094,182,114,51,10,2,9,21,16,0,71,3,20140815200000
1174,"Anping EPA, Hengshui",,38.238559,115.537988,200,123,38,23,15,11,21,16,0,71,3,20140815200000
1175,"Jizhou EPA, Hengshui",,37.548552,115.58679,221,130,63,15,12,13,21,16,0,71,3,20140815200000
1280,"Zaoqiang EPA, Hengshui",,37.520698,115.714936,259,155,110,10,11,16,21,16,0,71,3,20140815200000
1281,"Wuyi EPA, Hengshui",,37.801554,115.898697,232,154,60,12,13,11,21,16,0,71,3,20140815200000
1282,"Wuqiang EPA , Hengshui",,38.03557,115.959767,221,159,38,24,13,11,21,16,0,71,3,20140815200000
1283,"Raoyang EPA , Hengshui",,38.230652,115.741041,199,126,40,21,17,8,21,16,0,71,3,20140815200000
1284,"Gucheng County , Hengshui",,37.347569,115.966707,253,144,75,-,10,11,21,16,0,71,3,20140815200000
471,Hengshui,,37.739562,115.676066,192,139,51,24,5,9,21,16,0,71,3,20140815200000
1176,"Xinji City Hall, Xinji",,37.949711,115.230084,211,128,48,17,26,10,21,16,0,71,3,20140815200000
474,"Qinjian street, Tianjin",,39.166588,117.15104,177,124,28,39,31,12,24,19,1007,73,1,20140815200000
475,"Nanjing Road, Tianjin",,39.120958,117.195112,178,112,36,31,25,12,24,19,1007,73,1,20140815200000
476,"Dazhigu No.8 road, Tianjin",,39.111811,117.25147,162,109,35,36,13,10,24,19,1007,73,1,20140815200000
477,"Qianjin street, Tianjin",,39.09371,117.207981,166,109,34,38,24,12,24,19,1007,73,1,20140815200000
478,"Huaihe street, Tianjin",,39.227167,117.191293,170,343,16,73,8,14,24,19,1007,73,1,20140815200000
479,"Xiangshan street, Tianjin",,39.134752,117.275125,183,111,29,33,14,16,24,19,1007,73,1,20140815200000
480,"Yuejin Road, Tianjin",,39.088177,117.320884,179,164,30,58,25,15,24,19,1007,73,1,20140815200000
482,"No.4 street, Tianjin",,39.035228,117.713424,168,131,27,66,21,12,24,19,1007,73,1,20140815200000
483,"Yongming road, Tianjin",,38.840392,117.463805,169,101,43,28,14,13,24,19,1007,73,1,20140815200000
484,"Xinhua street, Tianjin",,39.138671,117.010083,167,117,33,30,21,7,24,19,1007,73,1,20140815200000
485,"Jingu Road, Tianjin",,38.985659,117.381254,173,131,29,18,20,11,24,19,1007,73,1,20140815200000
486,"Tanggu Yingkou street, Tianjin",,39.021768,117.656454,161,88,50,22,15,8,24,19,1007,73,1,20140815200000
487,"Hexi Yijing road, Tianjin",,39.248392,117.798043,170,92,41,30,11,14,24,19,1007,73,1,20140815200000
488,"Jianshe Road, Tianjin",,39.720075,117.310588,152,107,34,37,6,7,24,19,1007,73,1,20140815200000
489,"Quanzhou South road, Tianjin",,39.373857,117.050329,153,118,17,55,3,11,24,19,1007,73,1,20140815200000
490,"Donghuan road, Tianjin",,40.043144,117.451062,114,45,37,18,3,7,24,19,1007,73,1,20140815200000
491,"Tuanpowa, Tianjin",,38.920418,117.16299,244,193,35,31,41,41,24,19,1007,73,1,20140815200000
493,"Beiwei No.2 road, Tianjin",,38.943857,116.920624,178,116,50,46,25,12,24,19,1007,73,1,20140815200000
494,"Haitai fazhan No.2 road, Tianjin",,39.079608,117.096583,213,106,26,33,11,16,24,19,1007,73,1,20140815200000
495,"Hangtian road, Tianjin",,39.152244,117.381309,181,107,27,38,19,17,24,19,1007,73,1,20140815200000
496,"Hanbei road, Tianjin",,39.159768,117.770477,164,99,36,38,12,18,24,19,1007,73,1,20140815200000
497,"Baobai highway, Tianjin",,39.51757,117.349635,165,329,0,7,3,0,24,19,1007,73,1,20140815200000
498,Tianjin,,39.085164,117.207281,178,112,36,31,25,12,24,19,1007,73,1,20140815200000
499,"Wolong bridge, Hangzhou",,30.24371,120.132762,153,68,3,16,4,11,25,22,1009,83,1,20140815200000
500,"Hemu primary school, Hangzhou",,30.309669,120.124507,162,76,19,41,19,16,25,22,1009,83,1,20140815200000
501,"Zhejiang Agricultural University, Hangzhou",,30.265601,120.197583,167,104,11,37,22,13,25,22,1009,83,1,20140815200000
502,"Xiasha, Hangzhou",,30.303516,120.352618,169,70,6,28,20,11,25,22,1009,83,1,20140815200000
503,"Yunqi, Hangzhou",,30.178555,120.093142,147,64,3,6,4,8,25,22,1009,83,1,20140815200000
504,"Xixi, Hangzhou",,30.272425,120.068144,147,63,7,21,7,14,25,22,1009,83,1,20140815200000
505,"Chengxiang town, Hangzhou",,30.179493,120.274184,160,110,3,29,22,13,25,21,1009,78,1,20140815200000
506,"Qiandao lake, Hangzhou",,29.638139,119.031092,65,32,24,5,4,6,25,22,1009,83,1,20140815200000
507,"Linping town, Hangzhou",,30.415948,120.305059,165,62,10,27,5,13,25,22,1009,83,1,20140815200000
509,"No.2 Middle School, Hangzhou",,30.044303,119.956356,114,64,5,18,5,13,25,22,1009,83,1,20140815200000
510,"City Hall, Hangzhou",,30.234185,119.723503,97,61,28,11,4,10,25,22,1009,83,1,20140815200000
511,"No. 4 middle school, Hangzhou",,30.229428,119.699591,91,50,18,9,5,11,25,22,1009,83,1,20140815200000
512,Hangzhou,,30.271756,120.159765,170,104,19,44,22,16,25,22,1009,83,1,20140815200000
513,"City Station, Wenzhou",,28.009715,120.679129,61,20,28,9,2,14,24,23,0,96,1,20140815200000
514,"Ouhai, Wenzhou",,28.001846,120.641982,68,21,21,12,1,14,24,23,0,96,1,20140815200000
515,"Longwan, Wenzhou",,27.968122,120.768393,63,24,33,19,1,6,24,23,0,96,1,20140815200000
516,"Nanpu, Wenzhou",,27.981763,120.683685,63,26,23,6,2,16,24,23,0,96,1,20140815200000
517,Wenzhou,,27.990985,120.703425,68,24,33,19,2,14,24,23,0,96,1,20140815200000
518,"Monitoring station, Jiaxing",,30.75437,120.767373,95,42,18,17,5,11,25,23,1009,89,3,20140815200000
519,"Jiaxing University, Jiaxing",,30.745099,120.735004,102,53,21,11,4,9,25,23,1009,89,3,20140815200000
520,"Qinghe Primary School, Jiaxing",,30.775685,120.747969,87,49,20,15,5,9,25,23,1009,89,3,20140815200000
521,Jiaxing,,30.751627,120.762862,102,53,21,17,5,11,25,23,1009,89,3,20140815200000
522,"Chengbei water plant, Huzhou",,30.891155,120.096593,154,69,8,28,19,15,25,23,1009,89,3,20140815200000
523,"Jishan new village, Huzhou",,30.859939,120.120168,151,63,8,31,12,17,25,23,1009,89,3,20140815200000
524,"Town west water plant, Huzhou",,30.862371,120.084577,152,87,8,26,20,14,25,23,1009,89,3,20140815200000
526,"Donghu middle school, Shaoxing",,29.990447,120.647547,139,59,14,12,12,8,25,22,1010,83,1,20140815200000
527,"City EPA station, Shaoxing",,30.001695,120.584318,163,88,18,17,12,6,25,21,1009,78,1,20140815200000
528,"Chengdong BDA committee, Shaoxing",,29.986643,120.613578,153,63,13,12,12,5,25,21,1009,78,1,20140815200000
529,"Paojiang station, Shaoxing",,30.07574,120.62154,144,60,18,22,12,9,25,22,1010,83,1,20140815200000
530,"Shaoxing technical school, Shaoxing",,29.930983,120.577131,142,64,10,8,4,9,25,22,1010,83,1,20140815200000
531,"Library, Shaoxing",,29.706266,120.253183,107,58,15,4,2,11,25,22,1010,83,1,20140815200000
532,"Transporation management station, Shaoxing",,29.726405,120.221602,144,102,13,9,7,10,25,22,1010,83,1,20140815200000
533,"Dongpu Town Governement, Shaoxing",,30.049601,120.539893,137,58,13,21,9,9,25,22,1010,83,1,20140815200000
534,Shaoxing,,29.993122,120.590182,163,63,18,17,12,6,25,21,1009,78,1,20140815200000
535,"City Monitoring Station, Jinhua",,29.100031,119.690373,109,0,20,19,8,8,22,22,0,97,1,20140815200000
536,"No.15 middle school, Jinhua",,29.074022,119.652121,127,53,19,11,9,10,22,22,0,97,1,20140815200000
537,"No.4 middle school, Jinhua",,29.110109,119.653654,124,50,20,20,11,9,22,22,0,97,1,20140815200000
538,"Beiyuan, Jinhua",,29.332898,120.083351,93,51,10,12,9,12,22,22,0,97,1,20140815200000
539,"Jiangdong, Jinhua",,29.302486,120.095291,102,52,13,14,18,13,22,22,0,97,1,20140815200000
540,Jinhua,,29.076083,119.65215,137,50,20,22,13,10,22,22,0,97,1,20140815200000
541,"EPA building, Quzhou",,28.937291,118.876081,151,54,24,16,9,12,24,24,1009,98,2,20140815200000
542,"Experimental school, Quzhou",,28.961502,118.880916,151,52,16,8,8,7,24,24,1009,98,2,20140815200000
543,"Quzhou University, Quzhou",,28.971452,118.860052,129,55,5,5,4,10,24,24,1009,98,2,20140815200000
544,Quzhou,,28.966994,118.864252,151,54,24,16,9,12,24,24,1009,98,2,20140815200000
545,"Putuo east port, Zhoushan",,29.951412,122.317679,57,20,64,1,3,9,25,24,1009,94,0,20140815200000
546,"Dinghai tanfeng, Zhoushan",,30.018014,122.126566,57,41,32,3,2,6,25,24,1009,94,1,20140815200000
547,Zhoushan,,29.983049,122.210763,87,41,64,8,3,9,25,24,1009,94,1,20140815200000
548,"Taizhou EPA building, Taizhou",,28.651216,121.42331,99,42,38,6,2,7,24,23,0,95,1,20140815200000
549,"Luqiao Tian Yang Wang, Taizhou",,28.574364,121.381194,91,44,34,8,2,6,24,23,0,95,1,20140815200000
550,"Huangyan EPA building, Taizhou",,28.656151,121.285064,85,27,29,12,2,18,24,23,0,95,1,20140815200000
551,"Yu Zhuang Qian, Lishui",,28.419638,119.883884,93,45,15,21,9,12,25,23,1010,92,0,20140815200000
552,"Monitoring station building, Lishui",,28.444379,119.923103,152,56,9,9,2,8,25,23,1010,92,0,20140815200000
553,"Liandu primary school, Lishui",,28.450912,119.939332,109,59,10,10,2,10,25,23,1010,92,0,20140815200000
554,Lishui,,28.464224,119.927201,152,60,15,22,9,12,25,23,1010,92,0,20140815200000
1248,Jingningxian,,27.977454,119.634837,68,44,2,9,2,6,25,23,1010,92,0,20140815200000
555,Taigu Primary School,,29.858177,121.593738,85,45,11,13,5,9,25,24,1009,94,1,20140815200000
556,Qianhu shuihan,,29.862459,121.5328,149,58,12,20,3,10,25,24,1009,94,1,20140815200000
557,Sanjiang secondary schools,,29.884687,121.562713,149,59,32,35,11,10,25,24,1009,94,1,20140815200000
558,Longsai Hospital,,29.949294,121.720671,109,52,12,15,9,16,25,24,1009,94,1,20140815200000
559,Beilun District EPB,,29.899544,121.827597,70,37,12,22,2,7,25,24,1009,94,1,20140815200000
560,Wanli University,,29.896155,121.541154,152,78,17,12,4,8,25,24,1009,94,1,20140815200000
561,Qianhu water plant,,29.788156,121.652415,59,21,14,5,4,7,25,24,1009,94,1,20140815200000
562,Municipal management station,,29.893743,121.620269,102,49,9,20,4,10,25,24,1009,94,1,20140815200000
1177,Daxie Literary Museum,,29.891281,121.952741,63,30,10,13,2,6,25,24,1009,94,1,20140815200000
1178,Cixi EPB,,30.159852,121.242331,122,64,29,15,10,11,25,24,1009,94,1,20140815200000
1179,Cixi Experimently Primary School,,30.174341,121.262169,119,60,32,12,8,10,25,24,1009,94,1,20140815200000
1180,"Yongsan Park, Yuyao",,30.045532,121.157602,-,-,-,-,-,-,-,-,0,-,-,20140815200000
1181,"Qilupu Water Company, Yuyao",,30.039112,121.133416,-,-,-,-,-,-,-,-,0,-,-,20140815200000
1182,Fenghua EPB,,29.660537,121.414074,93,65,26,9,6,7,25,24,1009,94,1,20140815200000
1183,"Yuelong station, Ninghai",,29.290223,121.439263,87,36,25,7,5,9,25,24,1009,94,1,20140815200000
1184,"Wenfeng Primary School, Xiangshan",,29.470841,121.895054,82,18,26,4,3,6,25,24,1009,94,1,20140815200000
1185,"Chengnan Primary School, Ninghai",,29.282647,121.428839,78,26,28,4,5,7,25,24,1009,94,1,20140815200000
1186,"Xingang Primary School, Xiangshan",,29.199718,121.935879,46,10,41,3,3,6,25,24,1009,94,1,20140815200000
1294,Ningbo,,29.865766,121.548164,152,78,17,20,11,16,25,24,1009,94,1,20140815200000
1187,Fuyang,,30.046157,119.96468,112,62,5,16,6,13,25,21,1009,78,1,20140815200000
1188,Yiwu,,29.304353,120.079794,102,52,13,14,18,13,-,-,0,-,-,20140815200000
1189,Zhuji,,29.711185,120.240748,147,89,13,9,7,10,25,21,1009,78,0,20140815200000
563,"Shanxi Road , Nanjing",,32.06795,118.779216,139,40,16,12,11,11,23,22,1009,94,1,20140815200000
564,"Ruijin Road , Nanjing",,32.029321,118.80817,139,54,9,13,7,8,23,22,1009,94,1,20140815200000
565,"Xuanwu Lake, Nanjing",,32.075423,118.800188,139,51,19,6,6,5,23,22,1009,94,1,20140815200000
566,"Olympic Center, Nanjing",,32.007171,118.742217,107,50,7,9,3,8,23,22,1009,94,1,20140815200000
567,"Xianlin University Town , Nanjing",,32.106958,118.919882,112,49,12,8,4,8,23,22,1009,94,1,20140815200000
568,Nanjing,,32.058179,118.802061,127,77,13,18,10,8,23,22,1009,94,1,20140815200000
569,"Shangfang hill , Suzhou",,31.24502,120.565211,155,70,15,16,6,11,25,23,1009,89,1,20140815200000
570,"Wuzhong District , Suzhou",,31.268105,120.61717,154,54,16,28,3,11,25,23,1009,89,1,20140815200000
571,"Suzhou New District , Suzhou",,31.297277,120.547262,162,80,8,17,13,12,25,23,1009,89,1,20140815200000
572,"Suzhou Industrial Area, Suzhou",,31.307603,120.673257,155,84,15,8,4,17,25,23,1009,89,1,20140815200000
573,"Xiangcheng district, Suzhou",,31.368674,120.645209,159,72,11,21,6,13,25,23,1009,89,1,20140815200000
574,Suzhou,,31.296701,120.589493,170,54,16,31,13,17,25,23,1009,89,1,20140815200000
575,"South suburb , Nantong",,31.957836,120.917218,102,46,21,9,10,6,21,21,1003,96,1,20140815200000
576,"Xinghu park, Nantong",,31.927873,120.944254,124,44,27,18,11,6,21,21,1003,96,1,20140815200000
577,"Zilang school, Nantong",,32.039638,120.814358,107,60,21,27,12,0,21,21,1003,96,1,20140815200000
578,Nantong,,31.978005,120.898555,139,60,27,27,23,6,21,21,1003,96,1,20140815200000
579,Lianyungang,,34.595509,119.226814,152,84,21,27,10,7,8,8,1016,96,0,20140815200000
580,"Hongmen police substation, Lianyungang",,34.588692,119.146693,154,65,26,16,7,11,24,23,1010,92,1,20140815200000
581,"Xugou Nuclear Expert Village , Lianyungang",,34.749957,119.373707,137,66,24,11,5,8,24,23,1010,92,1,20140815200000
582,"Hengrui pharmaceutical company, BDA, Lianyungang",,34.697574,119.353668,144,70,30,18,9,6,24,23,1010,92,1,20140815200000
583,"City Monitoring Station, Lianyungang",,34.586791,119.186929,149,61,25,17,4,7,24,23,1010,92,1,20140815200000
584,"Yellow river new village , Xuzhou",,34.271542,117.177241,149,53,32,13,13,9,22,21,1009,93,0,20140815200000
585,"Tongshan Veterinary Hospital , Xuzhou",,34.307086,117.197766,97,43,29,28,9,10,22,21,1009,93,0,20140815200000
586,"New Town , Xuzhou",,34.213992,117.261718,119,55,31,15,4,11,22,21,1009,93,0,20140815200000
587,"Taoyuan road, Xuzhou",,34.289822,117.249721,102,60,24,11,5,10,22,21,1009,93,0,20140815200000
588,"Agricultural Science Academy , Xuzhou",,34.27655,117.299079,34,71,22,16,16,7,22,21,1009,93,0,20140815200000
589,"Tongshan EPA, Xuzhou",,34.179384,117.171798,78,66,15,17,11,8,22,21,1009,93,0,20140815200000
590,Xuzhou,,34.20346,117.289825,149,70,32,28,16,13,22,21,1009,93,0,20140815200000
591,Yangzhou,,32.39233,119.418446,159,69,10,19,10,5,11,9,0,90,6,20140815200000
592,"Hanjiang Monitoring Station, Yangzhou",,32.374218,119.394484,169,96,22,10,7,9,21,21,0,98,2,20140815200000
593,"No. 4 Hospital, Yangzhou",,32.401394,119.44444,172,102,17,12,9,7,21,21,0,98,2,20140815200000
594,"City Monitoring Station, Yangzhou",,32.406588,119.41591,163,79,6,16,30,10,21,21,0,98,2,20140815200000
595,"University Town , Wuxi",,31.484752,120.273571,161,68,41,8,7,11,25,23,1009,89,3,20140815200000
596,"Shibei High School , Wuxi",,31.619969,120.279584,163,83,29,12,7,9,25,23,1009,89,3,20140815200000
597,"Yuhong Elementary School , Wuxi",,31.561155,120.249588,160,79,32,13,10,10,25,23,1009,89,3,20140815200000
598,Wuxi,,31.488746,120.31575,166,83,41,31,18,20,25,23,1009,89,3,20140815200000
599,Changzhou,,31.808037,119.979205,172,86,6,22,36,13,11,9,0,88,5,20140815200000
600,"Chengjian School, Changzhou",,31.776476,119.937681,61,16,27,12,10,10,22,22,1003,97,2,20140815200000
601,"Changzhou Engineering Institute , Changzhou",,31.806828,119.966724,55,29,32,15,19,8,22,22,1003,97,2,20140815200000
602,"Wujin Monitoring Station, Changzhou",,31.701788,119.939676,158,59,32,10,11,11,22,22,1003,97,2,20140815200000
603,"City Monitoring Station, Changzhou",,31.777201,119.979426,74,31,31,12,21,7,22,22,1003,97,2,20140815200000
604,Zhenjiang,,32.18597,119.431281,170,79,4,39,15,13,9,8,0,93,5,20140815200000
605,"New District Administrative office , Zhenjiang",,32.186174,119.685021,159,60,34,13,8,15,23,22,1009,94,1,20140815200000
606,"Vocational Education Center , Zhenjiang",,32.212973,119.496253,160,66,31,22,6,15,23,22,1009,94,1,20140815200000
607,"Dantu Monitoring Station , Zhenjiang",,32.130026,119.435432,164,79,30,15,9,12,23,22,1009,94,1,20140815200000
608,"City Monitoring Station, Zhenjiang",,32.202178,119.439766,160,71,21,20,12,11,23,22,1009,94,1,20140815200000
609,"Gaogang Adminstrative office , Taizhoushi",,32.300768,119.886757,168,74,63,13,12,10,21,21,0,98,2,20140815200000
610,"Students Innovation Park , Taizhoushi",,32.461672,119.892761,173,80,22,7,10,10,21,21,0,98,2,20140815200000
611,Taizhoushi,,32.453555,119.927852,173,82,63,15,22,14,21,21,0,98,2,20140815200000
612,"Yancheng power station , Yancheng",,33.400859,120.123067,107,52,26,9,10,5,-,-,0,-,-,20140815200000
613,Yancheng,,33.345939,120.168504,144,52,30,5,3,7,11,10,1016,95,4,20140815200000
614,"Wenfeng Middle School , Yancheng",,33.370531,120.134041,99,50,18,12,11,6,-,-,0,-,-,20140815200000
615,"BDA Management Committe, Yancheng",,33.393191,120.22978,107,32,28,2,8,6,-,-,0,-,-,20140815200000
616,"City Monitoring Station, Yancheng",,33.390623,120.164423,144,70,22,14,7,6,21,21,0,98,2,20140815200000
617,Suqian,,33.960666,118.281004,160,87,24,7,5,7,11,10,0,91,6,20140815200000
618,"Suqian College , Suqian",,33.951472,118.298523,158,67,28,37,7,7,21,21,0,96,2,20140815200000
619,"Suqian Middle School , Suqian",,33.95784,118.249505,154,77,16,17,6,9,21,21,0,96,2,20140815200000
620,"Suyu District Environmental Protection Agency , Suqian",,33.94932,118.326569,155,96,24,19,6,9,21,21,0,96,2,20140815200000
621,"City Monitoring Station, Suqian",,33.956982,118.277022,158,71,37,12,4,7,21,21,0,96,2,20140815200000
622,Taizhou,,28.653436,121.425185,97,40,36,12,2,18,24,23,0,95,1,20140815200000
623,Donghu Liyuan,,30.572324,114.377844,154,67,31,12,8,10,25,24,1008,94,2,20140815200000
624,Yuehu Lake,,30.554662,114.256937,157,92,14,64,0,12,25,24,1008,94,2,20140815200000
625,Hankou Huaqiao ,,30.61724,114.287652,166,73,22,43,0,13,25,24,1008,94,2,20140815200000
626,Wuchang Ziyang ,,30.530801,114.309438,153,78,23,32,0,10,25,24,1008,94,2,20140815200000
627,Qingshan Ganghua,,30.622435,114.375599,176,101,20,43,0,12,25,24,1008,94,2,20140815200000
628,Dunkou Xinou,,30.480091,114.162176,152,84,32,33,0,10,25,24,1008,94,2,20140815200000
629,Donghu Gaoxin,,30.48095,114.40724,152,62,26,16,6,11,25,24,1008,94,2,20140815200000
630,Wujianshan,,30.63114,114.135907,180,146,16,55,0,17,25,24,1008,94,2,20140815200000
631,Yuanshun Road,,30.297142,113.858587,155,57,24,18,0,8,25,24,1008,94,2,20140815200000
632,Wuhan,,30.590689,114.310838,176,101,31,12,8,13,25,24,1008,94,2,20140815200000
1190,"Silingsan Factory, Yichang",,30.713288,111.306585,1,1,10,0,0,7,25,22,1008,84,2,20140815200000
633,Yichang,,30.689528,111.292131,1,1,13,0,0,9,25,22,1008,84,2,20140815200000
633,Yichang,,30.689528,111.292131,1,1,13,0,0,9,25,22,1008,84,2,20140815200000
1191,"City Library , Jingzhou",,30.31494,112.260844,152,57,5,7,5,10,26,24,1008,88,1,20140815200000
1192,"City committee communist party school, Jingzhou",,30.35054,112.20743,151,70,24,10,7,9,26,24,1008,88,1,20140815200000
1193,"kerong EPA, Jingzhou",,30.302965,112.29443,152,74,29,12,9,7,26,24,1008,88,1,20140815200000
634,Jingzhou,,30.332608,112.245451,152,74,29,12,9,10,26,24,1008,88,1,20140815200000
634,Jingzhou,,30.332608,112.245451,152,74,29,12,9,10,26,24,1008,88,1,20140815200000
635,Huangshi,,30.19723,115.043908,144,58,15,12,11,13,24,24,1012,98,1,20140815200000
635,Huangshi,,30.19723,115.043908,144,58,15,12,11,13,24,24,1012,98,1,20140815200000
1194,"Chenjiaying, Huangshi",,30.232823,115.067923,129,58,5,11,6,13,24,,1011,97,1,20140815200000
1195,"Chenjiawan , Huangshi",,30.200422,115.082138,144,58,13,12,11,12,24,,1011,97,1,20140815200000
1196,"Xinxialu, Huangshi",,30.17332,114.954357,124,63,9,22,1,11,24,,1011,97,1,20140815200000
1197,"Tie montian, Huangshi",,30.203885,114.906439,137,53,7,8,1,9,24,,1011,97,1,20140815200000
1198,"BDA, Huangshi",,30.207491,115.031739,109,58,13,8,3,11,24,,1011,97,1,20140815200000
636,Shiyan,,32.627208,110.803311,159,75,15,13,6,7,20,,943,97,1,20140815200000
636,Shiyan,,32.627208,110.803311,159,75,15,13,6,7,20,,943,97,1,20140815200000
1199,"Wudang Mountain , Shiyan",,32.392921,111.047655,68,20,10,1,2,4,20,,943,93,1,20140815200000
1200,"Riverside Village , Shiyan",,32.647286,110.785335,159,74,15,4,1,4,20,,943,97,1,20140815200000
1201,"Liujiagou , Shiyan",,32.636732,110.731129,157,75,12,13,6,7,20,,943,97,1,20140815200000
1202,"Yunyang County District automatic air station , Shiyan",,32.833065,110.816809,137,62,5,2,3,8,20,,943,97,1,20140815200000
637,Xiangyang,,32.007029,112.128496,91,69,12,1,-,8,26,,1009,83,3,20140815200000
637,Xiangyang,,32.007029,112.128496,91,69,12,1,-,8,26,,1009,83,3,20140815200000
638,Ezhou,,30.389244,114.899884,158,74,10,6,19,21,25,24,1018,93,2,20140815200000
638,Ezhou,,30.389244,114.899884,158,74,10,6,19,21,25,24,1018,93,2,20140815200000
1203,"City government, Ezhou",,30.391836,114.892822,109,55,8,6,4,10,25,,1018,93,2,20140815200000
1204,"Zhaojiaba, Ezhou",,30.368966,114.90365,158,74,7,6,4,7,25,,1018,93,2,20140815200000
1205,"Fankou BDA, Ezhou",,30.410759,114.818225,124,65,10,1,19,21,25,,1018,91,2,20140815200000
639,Jingmen,,31.033208,112.205093,163,-,15,-,-,13,-,22,0,-,-,20140815200000
639,Jingmen,,31.033208,112.205093,163,-,15,-,-,13,-,22,0,-,-,20140815200000
640,Xiaogan,,30.922089,113.922387,170,99,12,7,1,13,26,24,1007,88,4,20140815200000
640,Xiaogan,,30.922089,113.922387,170,99,12,7,1,13,26,24,1007,88,4,20140815200000
1206,"wenhua street, Shenyang , Xiaogan",,30.925856,113.92104,170,99,12,7,1,13,26,24,1007,88,4,20140815210000
1207,"Dongcheng District , Huludao , Xiaogan",,30.917963,113.943904,-,-,-,-,-,-,-,22,0,-,-,20140815210000
641,Huanggang,,30.45124,114.877378,127,54,10,6,1,15,25,24,1018,93,2,20140815210000
641,Huanggang,,30.45124,114.877378,127,54,10,6,1,15,25,24,1018,93,2,20140815210000
1208,"Dazhou Island, Huanggang",,30.446205,114.900323,127,53,6,6,1,15,25,,1018,93,2,20140815210000
1209,"Workers Center , Huanggang",,30.469244,114.912504,109,54,10,4,-,14,25,,1018,93,2,20140815210000
642,Xianning,,29.838978,114.327898,139,61,8,6,3,13,22,24,984,96,1,20140815210000
642,Xianning,,29.838978,114.327898,139,61,8,6,3,13,22,24,984,96,1,20140815210000
1210,"Municipal Development and Reform Commission , Xianning",,29.818645,114.328461,139,61,5,6,3,10,22,,984,96,1,20140815210000
1211,"Xianan District Governement, Xianning",,29.51107,114.181864,124,57,5,4,6,14,23,,992,95,1,20140815210000
1212,"Yangtze River Industrial Park , Xianning",,29.883098,114.32909,107,56,10,1,4,6,22,,984,96,1,20140815210000
1213,"Qianshan Park, Xianning",,29.815351,114.328689,102,55,8,3,1,13,22,,984,96,1,20140815210000
644,Enshi,,30.292138,109.484562,160,-,126,-,-,19,-,20,0,-,-,20140815210000
644,Enshi,,30.269587,109.493042,160,-,126,-,-,19,-,20,0,-,-,20140815210000
645,Xiantao,,30.360228,113.460616,132,-,7,-,-,10,-,21,0,-,-,20140815210000
645,Xiantao,,30.360228,113.460616,132,-,7,-,-,10,-,21,0,-,-,20140815210000
646,Qianjiang,,30.399387,112.905661,159,-,18,-,-,10,-,22,0,-,-,20140815210000
646,Qianjiang,,30.399387,112.905661,159,-,18,-,-,10,-,22,0,-,-,20140815210000
647,Tianmen,,30.661027,113.172549,132,-,7,-,-,10,-,22,0,-,-,20140815210000
647,Tianmen,,30.661027,113.172549,132,-,7,-,-,10,-,22,0,-,-,20140815210000
1088,Shennongjia,,31.741307,110.685554,124,-,5,-,-,4,-,20,0,-,-,20140815210000
1088,Shennongjia,,31.741307,110.685554,124,-,5,-,-,4,-,20,0,-,-,20140815210000
1214,"Xiangcheng Yundong Street, Xiangfan",,32.017716,112.16102,91,69,12,1,-,8,24,,1008,83,3,20140815210000
655,"City Environmental Monitoring Station, Baotou",,40.657201,109.886738,142,87,12,38,19,17,,,0,,,20140815210000
656,"Donghe EPB, Baotou",,40.586213,110.002224,153,98,9,37,18,34,,,0,,,20140815210000
657,"Baotou shopping mall, Baotou",,40.508334,109.819085,107,60,23,14,8,7,,,0,,,20140815210000
658,"Huilong logistics, Baotou",,40.633436,109.879821,134,104,18,30,19,21,,,0,,,20140815210000
659,Baotou,,40.658597,109.846051,153,104,23,38,19,34,17,8,0,42,2,20140815210000
660,"Huatai Automobile Mall, Eerduosi",,39.837048,109.972209,104,74,105,25,10,6,17,8,1007,42,2,20140815210000
661,"Olympus Garden, Eerduosi",,39.789171,109.987742,85,52,73,13,12,6,17,8,1007,42,2,20140815210000
662,Eerduosi,,39.609284,109.78704,104,74,105,25,15,6,17,8,1007,42,2,20140815210000
663,"Tianyi Road, Chifeng",,42.275552,118.88507,50,41,35,13,21,9,13,8,1011,68,1,20140815210000
664,"Songshan No.1 Middle School, Chifeng",,42.329307,118.793045,59,57,30,12,3,17,13,8,1011,68,1,20140815210000
665,"Hada Street, Chifeng",,42.280714,118.988235,53,42,10,7,9,8,13,8,1011,68,1,20140815210000
666,"Songshan Road, Chifeng",,42.171487,118.89501,61,41,44,8,8,4,13,8,1011,68,1,20140815210000
667,Chifeng,,42.259752,118.893027,61,42,44,13,21,9,13,8,1011,68,1,20140815210000
674,Fuzhou,,26.071406,119.301294,91,58,89,10,3,8,27,26,1008,94,1,20140815210000
675,"Xidong, Xiamen",,24.815345,118.161848,97,45,51,7,3,6,28,28,1008,100,2,20140815210000
676,"Hongwen, Xiamen",,24.473969,118.156281,72,54,47,21,7,5,28,28,1008,100,2,20140815210000
677,"Gulangyu, Xiamen",,24.443168,118.068571,99,51,49,12,6,7,28,28,1008,100,2,20140815210000
678,"Huli, Xiamen",,24.51235,118.099146,97,61,40,25,7,5,28,28,1008,100,2,20140815210000
679,Xiamen,,24.477187,118.094402,99,61,49,25,7,7,28,28,1008,100,2,20140815210000
680,"Qingyuan Montain, Quanzhou",,24.939503,118.598337,97,70,17,8,3,0,28,28,1008,100,2,20140815210000
681,"Tushan Street, Quanzhou",,24.90867,118.586397,134,54,21,4,4,5,28,28,1008,100,2,20140815210000
682,"Wanan, Quanzhou",,24.304154,118.070903,152,52,36,10,2,5,28,28,1008,100,2,20140815210000
683,Quanzhou,,24.87179,118.68001,152,58,50,13,9,5,28,28,1008,100,2,20140815210000
687,"Jiancaoping, Taiyuan",,37.887889,112.528383,112,70,6,33,11,8,16,11,1012,72,1,20140815210000
688,"Jianhe, Taiyuan",,37.910779,112.579258,160,133,7,26,10,8,16,11,1012,72,1,20140815210000
689,"Shanglan, Taiyuan",,38.011589,112.440679,61,46,27,7,12,5,16,11,1012,72,1,20140815210000
690,"Jinyuan, Taiyuan",,37.713164,112.475552,87,58,12,22,25,11,16,11,1012,72,1,20140815210000
691,"Xiaodian, Taiyuan",,37.782137,112.483533,155,74,10,28,51,9,16,11,1012,72,1,20140815210000
692,"Taoyuan, Taiyuan",,37.869752,112.543332,99,71,10,31,11,10,16,11,1012,72,1,20140815210000
693,"Wucheng, Taiyuan",,37.819998,112.576252,153,123,6,32,8,14,16,11,1012,72,1,20140815210000
694,"Nanzhai, Taiyuan",,37.985902,112.555312,89,48,13,12,5,12,16,11,1012,72,1,20140815210000
695,"Jinsheng, Taiyuan",,37.781205,112.494494,139,85,13,30,44,11,16,11,1012,72,1,20140815210000
696,Taiyuan,,37.871115,112.555178,112,71,6,33,11,10,16,11,1012,72,1,20140815210000
697,"Monitoring station, Changzhi",,36.194062,113.10389,119,70,19,44,16,7,23,23,0,100,2,20140815210000
698,"Auditing bureau, Changzhi",,36.212787,113.095221,134,61,23,46,4,8,23,23,0,100,2,20140815210000
699,"Qinghua station, Changzhi",,36.154328,113.116385,129,62,19,34,15,11,24,23,0,94,2,20140815210000
700,"No.8 middle school, Changzhi",,36.185451,113.099481,122,60,24,42,23,11,,,0,,,20140815210000
701,Changzhi,,36.195553,113.12292,134,70,24,46,23,11,20,16,0,70,1,20140815210000
702,"Yungang Hotel, Datong",,40.076997,113.278079,102,56,5,15,10,32,10,10,1010,93,0,20140815210000
703,"college of education, Datong",,40.085608,113.27808,124,45,6,12,18,55,10,10,1010,93,0,20140815210000
704,Datong,,40.078016,113.307143,124,56,11,15,18,55,10,10,1010,93,0,20140815210000
705,"Technical Schools, Linfen",,36.07131,111.509046,151,57,23,14,9,26,17,8,0,53,2,20140815210000
706,"Municipal party committee, Linfen",,36.087425,111.508771,132,56,16,19,14,17,17,8,0,53,2,20140815210000
1073,"City Monitoring Station, Linfen",,36.097676,111.518739,152,68,15,28,6,20,17,8,0,53,2,20140815210000
707,"South Airport, Linfen",,36.041614,111.497968,144,65,7,10,5,18,17,8,0,53,2,20140815210000
708,Linfen,,36.087944,111.525098,151,65,23,24,10,26,17,8,0,53,2,20140815210000
709,"City center, Yangquan",,37.848012,113.578636,63,68,5,29,38,8,15,11,1012,77,1,20140815210000
710,Yangquan,,37.857475,113.586921,91,93,12,69,38,10,15,11,1012,77,1,20140815210000
711,"Water Company, Jincheng",,35.504787,112.857245,151,82,12,33,53,15,20,16,1008,70,1,20140815210000
712,"Baiyun shopping mall, Jincheng",,35.492858,112.841566,25,56,5,38,34,14,20,16,1008,70,1,20140815210000
713,"City EPA, Jincheng",,35.488422,112.858528,109,50,8,40,14,16,20,16,1008,70,1,20140815210000
714,"Institute of Technology, Jincheng",,35.484844,112.878073,25,67,11,33,20,10,20,16,1008,70,1,20140815210000
715,"No.1 middle school, Jincheng",,35.478725,112.838636,65,71,6,30,6,8,20,16,1008,70,1,20140815210000
716,Jincheng,,35.490287,112.85794,151,82,12,40,53,16,20,16,1008,70,1,20140815210000
718,"District Government, Shuozhou",,39.320857,112.430641,89,65,16,29,13,11,19,10,1008,49,1,20140815210000
719,"City EPA, Shuozhou",,39.331495,112.407997,89,66,16,18,8,11,19,10,1008,49,1,20140815210000
720,"No.2 middle school, Shuozhou",,39.377963,112.432877,95,66,6,32,15,10,19,10,1008,49,1,20140815210000
721,Shuozhou,,39.332756,112.439672,104,68,16,32,21,11,19,10,1008,49,1,20140815210000
722,"Jinlun compound, Jinzhong",,37.697891,112.771017,61,34,10,11,2,3,15,11,1012,77,1,20140815210000
723,"Hydraulic Component Factory, Jinzhong",,37.688355,112.725844,74,43,32,22,8,5,15,11,1012,77,1,20140815210000
724,"Nandu compound, Jinzhong",,37.713148,112.732036,63,41,3,7,6,7,15,11,1012,77,1,20140815210000
725,"Yuci district government, Jinzhong",,37.698228,112.714167,68,46,5,18,6,5,15,11,1012,77,1,20140815210000
726,Jinzhong,,37.687705,112.759187,72,46,32,21,11,7,16,11,1012,72,1,20140815210000
727,"Yuncheng Middle School, Yuncheng",,35.012345,111.003215,70,47,28,4,29,30,23,15,1005,48,2,20140815210000
728,"Yudou BDA, Yuncheng",,35.05065,111.029571,76,61,23,15,34,20,23,15,1005,48,2,20140815210000
730,"Regional Technical School, Yuncheng",,35.028727,110.974076,104,54,24,8,18,36,23,15,1005,48,2,20140815210000
731,"Airport new district, Yuncheng",,35.084515,111.05339,95,66,13,1,1,21,23,15,1005,48,2,20140815210000
732,Yuncheng,,35.025675,111.013344,104,66,28,15,29,36,23,15,1005,48,2,20140815210000
733,"Jiyin, Xinzhou",,38.413292,112.742432,-,-,-,-,-,-,-,-,0,-,-,20140815210000
734,"BDA, Xinzhou",,38.450069,112.736723,38,34,5,9,9,19,15,11,1012,77,1,20140815210000
735,"Convention Center, Xinzhou",,38.492043,112.709772,93,47,7,9,15,5,15,11,1012,77,1,20140815210000
736,Xinzhou,,38.417244,112.740742,89,46,5,10,15,20,16,11,1012,72,1,20140815210000
737,"City EPA, Luliang",,37.522189,111.144365,68,34,8,22,13,9,18,16,0,79,1,20140815210000
738,"Soybean factory, Luliang",,37.51689,111.135101,70,33,7,21,33,8,18,16,0,79,1,20140815210000
739,"Water Company, Luliang",,37.53394,111.138834,87,75,7,19,14,10,18,16,0,79,1,20140815210000
740,Luliang,,25.027007,103.668566,87,72,8,22,34,11,18,16,0,79,1,20140815210000
741,"City government, Sanmenxia",,34.776251,111.198781,107,72,12,23,23,6,23,15,1005,48,2,20140815210000
743,"BDA, Sanmenxia",,34.800434,111.204332,109,87,16,13,7,5,23,15,1005,48,2,20140815210000
744,Sanmenxia,,34.771506,111.206129,122,89,28,23,23,10,23,15,1005,48,2,20140815210000
745,"Food Factory, Changchun",,43.919094,125.329521,112,70,18,23,4,8,16,14,1009,88,2,20140815210000
746,"Bus Factory, Changchun",,43.912337,125.293431,129,69,15,23,3,7,16,14,1009,88,2,20140815210000
747,"Institute of Posts and Telecommunications, Changchun",,43.842368,125.285005,149,73,3,22,2,9,16,14,1009,88,2,20140815210000
748,"Laodong Park, Changchun",,43.877293,125.371519,104,52,16,21,3,9,16,14,1009,88,2,20140815210000
749,"Forest area, Changchun",,43.871825,125.331519,134,70,13,17,1,9,16,14,1009,88,2,20140815210000
750,"Jinyuetan, Changchun",,43.79031,125.460561,65,35,22,3,1,6,16,14,1009,88,2,20140815210000
751,"Shuaiwanzi, Changchun",,43.552321,125.639086,72,33,26,9,2,5,16,14,1009,88,2,20140815210000
752,"Economic Development Zone Sanitation Department, Changchun",,43.869221,125.42365,112,45,19,12,3,7,16,14,1009,88,2,20140815210000
753,"High-tech Zone Administrative Committee, Changchun",,43.819064,125.256375,102,56,24,14,2,6,16,14,1009,88,2,20140815210000
754,"Daishan Park, Changchun",,43.852365,125.223399,119,82,6,26,2,7,16,14,1009,88,2,20140815210000
755,Changchun,,43.819415,125.329977,149,73,16,22,3,9,16,14,1009,88,2,20140815210000
756,"Hadawan, Jilin",,43.888081,126.545727,85,65,15,23,6,8,16,15,0,93,2,20140815210000
757,"Fengman, Jilin",,43.768169,126.678802,59,16,34,2,2,6,16,15,0,93,2,20140815210000
758,"Electric Power College, Jilin",,43.827403,126.502281,78,30,29,11,2,5,16,15,0,93,2,20140815210000
759,"Jiangnan Park, Jilin",,43.83531,126.556519,65,31,23,6,3,5,16,15,0,93,2,20140815210000
760,"Dongjuzi, Jilin",,43.838597,126.590068,68,41,16,20,3,6,16,15,0,93,2,20140815210000
763,Jilin,,43.840137,126.555262,85,65,48,23,6,8,16,15,0,93,2,20140815210000
764,"Lingbei, Haerbin",,45.756979,126.548008,80,35,34,10,8,5,16,16,1008,100,3,20140815210000
765,"Songbei Commercial University, Haerbin",,45.818624,126.566963,76,32,25,7,5,5,16,16,1008,100,3,20140815210000
766,"Acheng huining, Haerbin",,45.544286,126.985183,68,26,48,3,1,4,16,16,1008,100,3,20140815210000
767,"Nangang College Street, Haerbin",,45.724121,126.604906,91,53,43,5,4,3,16,16,1008,100,3,20140815210000
768,"Taiping Hongwei Park, Haerbin",,45.775332,126.695101,155,53,39,12,2,9,16,16,1008,100,3,20140815210000
769,"Daowai Chengde Square, Haerbin",,45.768637,126.640955,82,44,36,17,4,5,16,16,1008,100,3,20140815210000
770,"Xiangfang Hongqi Street, Haerbin",,45.733936,126.691083,76,30,41,12,4,8,16,16,1008,100,3,20140815210000
771,"Dongli Heping Road, Haerbin",,45.727765,126.651974,124,54,42,17,8,4,16,16,1008,100,3,20140815210000
772,"Daoli Jianguo Road, Haerbin",,45.749715,126.59891,82,37,39,16,2,6,16,16,1008,100,3,20140815210000
773,"Pingfang Light Factory, Haerbin",,45.611951,126.620898,72,24,38,6,3,5,16,16,1008,100,3,20140815210000
774,"Hulan Normal College, Haerbin",,45.983745,126.616553,122,41,32,7,4,5,16,16,1008,100,3,20140815210000
775,"Provincial Academy of Agricultural Sciences, Haerbin",,45.686141,126.626517,72,29,37,17,4,7,16,16,1008,100,3,20140815210000
776,Haerbin,,45.805757,126.541007,80,35,34,10,8,5,16,16,1008,100,3,20140815210000
777,"Anju Compound, Qiqihaer",,47.365672,123.937016,38,15,18,9,5,3,17,16,1006,98,1,20140815210000
778,"Farming Vehicule Factory, Qiqihaer",,47.326793,123.961427,34,11,18,6,1,6,17,16,1006,98,1,20140815210000
779,"Fuqu EPA, Qiqihaer",,47.1853,123.62322,53,35,28,3,1,6,17,16,1006,95,1,20140815210000
780,"City Center Square, Qiqihaer",,47.343096,123.96192,34,9,43,2,3,4,17,16,1006,98,1,20140815210000
1217,"City Environmental Monitoring Station, Qiqihaer",,47.303639,123.957551,55,25,18,1,3,5,17,16,1006,98,1,20140815210000
781,Qiqihaer,,47.356387,123.924736,55,25,41,9,5,6,17,16,1006,98,1,20140815210000
782,"Saertu District, Daqing",,46.582368,125.152904,53,31,25,14,11,3,15,15,1006,94,1,20140815210000
783,"Datong District, Daqing",,46.036786,124.842115,34,802,43,3,5,3,15,15,1006,94,1,20140815210000
784,"Honggang District, Daqing",,46.418381,124.88973,59,23,38,9,4,3,15,15,1006,94,1,20140815210000
785,"Longfeng District, Daqing",,46.535426,125.107043,30,19,29,8,3,5,16,16,1007,100,2,20140815210000
786,"Ranghulu District, Daqing",,46.635123,124.85648,70,31,37,6,7,4,15,15,1006,94,1,20140815210000
787,Daqing,,46.591414,125.110838,70,31,43,14,11,4,15,15,1006,94,1,20140815210000
788,"Locomotive Factory, Mudanjiang",,44.610589,129.652672,87,42,56,11,3,3,17,16,1009,90,1,20140815210000
789,"No. 1 hospital, Mudanjiang",,44.567775,129.617043,95,35,39,5,8,4,17,16,1009,90,1,20140815210000
1220,"EPA building, Mudanjiang",,44.567777,129.620658,85,39,11,12,5,3,17,16,1009,90,1,20140815210000
1221,"Cultural Square, Mudanjiang",,44.586388,129.623164,78,37,11,10,8,2,17,16,1009,90,1,20140815210000
790,Mudanjiang,,44.553619,129.640246,95,42,56,12,11,4,17,16,1009,90,1,20140815210000
791,"Mingzhu Plaza, Hefei",,31.782847,117.201512,151,-,-,37,51,12,24,22,1009,89,3,20140815210000
792,"Sanli Street, Hefei",,31.874637,117.312573,152,76,80,31,6,14,24,22,1009,89,3,20140815210000
793,"Hupo Compound, Hefei",,31.868583,117.264491,157,66,97,10,1,0,24,22,1009,89,3,20140815210000
794,"Dongpu Reservoir, Hefei",,31.90319,117.165584,163,71,156,26,13,11,24,22,1009,89,3,20140815210000
795,"Changjiang middle road, Hefei",,31.855185,117.255484,164,104,10,17,19,15,24,22,1009,89,3,20140815210000
796,"Luyang District, Hefei",,31.941771,117.271504,156,62,7,1,14,9,24,22,1009,89,3,20140815210000
797,"Yaohai District, Hefei",,31.856595,117.341644,157,-,16,4,6,9,24,22,1009,89,3,20140815210000
798,"Baohe District, Hefei",,31.793644,117.307554,175,30,4,2,1,9,24,22,1009,89,3,20140815210000
799,"Lake district, Hefei",,31.736619,117.283501,157,69,29,6,2,7,24,22,1009,89,3,20140815210000
800,"High-tech zone, Hefei",,31.849755,117.129624,158,83,31,14,14,6,24,22,1009,89,3,20140815210000
801,Hefei,,31.819449,117.232753,164,104,10,37,51,15,24,22,1009,89,3,20140815210000
802,"Hudong Road No.4 Elementary School, Maanshan",,31.684121,118.511017,152,57,103,13,8,11,22,22,1009,100,1,20140815210000
803,"Tianping Garment Factory, Maanshan",,31.64197,118.488043,147,54,122,6,6,8,22,22,1009,100,1,20140815210000
804,"City education base, Maanshan",,31.711216,118.648913,93,51,12,3,1,5,22,22,1009,100,1,20140815210000
805,"Cihu No.2 elementary school, Maanshan",,31.748546,118.515729,144,88,22,44,7,12,22,22,1009,100,1,20140815210000
806,"Maanshan steel factory power plant, Maanshan",,31.690864,118.48528,158,76,2,1,3,12,22,22,1009,100,1,20140815210000
807,Maanshan,,31.668461,118.511939,158,88,122,44,8,12,22,22,1009,100,1,20140815210000
808,"Science Innovation Center, Wuhu",,31.417056,118.375406,153,60,30,7,4,13,22,22,1009,100,1,20140815210000
809,"No.4 Water Plant, Wuhu",,31.315914,118.376231,102,50,76,12,8,6,22,22,1009,100,1,20140815210000
810,"Monitoring station, Wuhu",,31.348955,118.358154,102,57,17,2,13,6,22,22,1009,100,1,20140815210000
811,"Wuqierling Factory, Wuhu",,31.382068,118.407639,99,50,20,4,4,9,22,22,1009,100,1,20140815210000
812,Wuhu,,31.351007,118.438322,153,60,76,12,13,13,22,22,1009,100,1,20140815210000
1331,Chuzhou,,32.299549,118.322508,-,-,-,-,-,-,-,24,0,-,-,20140815210000
813,"Jiangxi Foreign Affairs Office, Nanchang",,28.678027,115.903436,109,45,17,10,2,9,25,24,1008,94,1,20140815210000
814,"Provincial forestry company, Nanchang",,28.69065,115.898546,144,55,16,12,4,9,25,24,1008,94,1,20140815210000
815,"Institute of Forestry, Nanchang",,28.731518,115.82478,112,61,10,12,6,17,25,24,1008,94,1,20140815210000
816,"Jingdong town government, Nanchang",,28.680659,115.972736,68,31,27,5,1,9,25,24,1008,94,1,20140815210000
817,"Contruction Industry College, Nanchang",,28.684018,115.865891,134,60,9,19,9,9,25,24,1008,94,1,20140815210000
818,"Xianghu, Nanchang",,28.637831,115.9033,132,64,10,27,7,12,25,24,1008,94,1,20140815210000
819,"Martial Arts School, Nanchang",,28.794538,115.752876,34,23,5,3,5,10,25,24,1008,94,1,20140815210000
820,"Petrifaction Company, Nanchang",,28.608634,115.912999,151,66,17,16,7,11,25,23,1008,91,1,20140815210000
821,"Provincial Station, Nanchang",,28.677155,115.941896,65,48,25,10,2,10,25,23,1008,91,1,20140815210000
822,Nanchang,,28.679883,115.863022,151,66,27,27,9,17,25,23,1008,91,1,20140815210000
823,"Lushan Mountain Observatory, Jiujiang",,29.5751,115.998926,50,20,33,2,2,4,19,17,1010,82,0,20140815210000
824,"Shili, Jiujiang",,29.668119,115.992381,158,67,14,8,7,4,19,17,1010,82,0,20140815210000
825,"Maoshantou, Jiujiang",,29.700819,115.967192,144,66,17,10,6,8,19,17,1010,82,0,20140815220000
826,"Xiyuan, Jiujiang",,29.723929,115.998206,151,80,16,17,7,7,19,17,1010,82,0,20140815220000
827,"Wuqierling Factory, Jiujiang",,29.640802,116.022713,93,59,0,5,1,4,19,17,1010,82,0,20140815220000
828,"Water Scientific Research Institute, Jiujiang",,29.679179,116.068081,127,69,12,9,17,6,19,17,1010,82,0,20140815220000
829,"Zonghe Industrial Park, Jiujiang",,29.592047,115.916335,109,47,16,7,9,3,19,17,1010,82,0,20140815220000
830,"Petrochemical General Plant, Jiujiang",,29.738832,116.09463,42,55,13,8,1,6,19,17,1010,82,0,20140815220000
831,Jiujiang,,29.70254,116.007025,158,80,33,17,17,8,19,17,1010,82,0,20140815220000
1332,"Feiyu, Xinyu",,27.844697,115.000136,-,55,8,10,10,,25,,1008,96,1,20140815220000
1333,"Beigang, Xinyu",,27.932491,115.103767,99,57,12,1,2,,25,,1008,96,1,20140815220000
1334,"No.2 water factory, Xinyu",,27.839577,114.933915,95,35,3,16,7,,25,,1008,96,1,20140815220000
1335,"Bureau of Meteorology, Xinyu",,27.81048,114.936507,112,65,9,4,7,,25,,1008,96,1,20140815220000
1336,Xinyu,,27.814351,114.922194,114,65,12,16,18,17,25,23,1008,96,1,20140815220000
832,"Tobacco Factory, Zhengzhou",,34.753419,113.687131,160,94,21,11,4,14,23,23,1008,100,1,20140815220000
833,"Textile Machinery Factory, Zhengzhou",,34.773366,113.647067,164,107,13,20,11,10,23,23,1008,100,1,20140815220000
834,"Banking College, Zhengzhou",,34.800856,113.681126,161,102,17,26,10,7,23,23,1008,100,1,20140815220000
996,"Tibet University, Lhasa",,29.641683,91.127951,-,-,-,-,-,-,-,-,0,-,-,20140815230000
835,"Water Supply Company, Zhengzhou",,34.807188,113.571089,174,94,28,21,15,11,23,23,1008,100,1,20140815220000
836,"Economic Development Zone Management Committee, Zhengzhou",,34.717652,113.733182,164,92,23,14,5,9,23,23,1008,100,1,20140815220000
837,"No. 47 middle school, Zhengzhou",,34.772211,113.74009,152,99,0,12,6,0,24,23,1008,94,2,20140815220000
838,"City Monitoring Station, Zhengzhou",,34.748404,113.60514,164,85,27,21,9,9,23,23,1008,100,1,20140815220000
839,"Henan Medical University, Zhengzhou",,34.752637,113.641658,168,109,15,20,11,9,23,23,1008,100,1,20140815220000
840,"Gangli Reservoir, Zhengzhou",,34.952652,113.64248,155,72,12,10,11,9,23,23,1008,100,1,20140815220000
841,Zhengzhou,,34.745417,113.631415,168,109,27,21,11,9,23,23,1008,100,1,20140815220000
842,"Henan University No.1 Hospital, Kaifeng",,34.799302,114.352706,163,66,4,7,8,8,23,23,1008,100,1,20140815220000
843,"Maternity And Child Hospital, Kaifeng",,34.795803,114.386103,160,66,24,7,9,9,23,23,1008,100,1,20140815220000
844,"Cancer Hospital, Kaifeng",,34.775428,114.350292,159,71,27,8,8,10,23,23,1008,100,1,20140815220000
845,"Yellow River Conservancy Institute, Kaifeng",,34.826066,114.324772,162,67,20,9,3,29,23,23,1008,100,1,20140815220000
846,"Shijixing Kindergarden, Kaifeng",,34.793606,114.302744,13,6,20,9,3,29,23,23,1008,100,1,20140815220000
847,Kaifeng,,34.796346,114.313426,163,71,27,8,8,10,23,23,1008,100,1,20140815220000
852,Jiaozuo,,35.215381,113.248188,154,104,77,22,30,15,23,23,1008,100,2,20140815220000
853,"Cotton Research Institute, Anyang",,36.081435,114.486451,154,60,19,6,5,3,22,19,1007,79,2,20140815220000
854,"Hongmiao Street, Anyang",,36.086733,114.326,151,69,20,17,21,14,22,19,1007,79,2,20140815220000
855,"Yinxing Compound, Anyang",,36.056519,114.36495,154,70,18,12,11,13,22,19,1007,79,2,20140815220000
856,"Tiefo Temple, Anyang",,36.110041,114.309309,156,96,17,30,11,13,22,19,1007,79,2,20140815220000
857,Anyang,,36.097767,114.398846,156,96,22,30,21,14,22,19,1007,79,2,20140815220000
858,"City Monitoring Station, Luoyang",,34.669055,112.439633,107,69,4,22,13,11,25,,1006,64,3,20140815220000
859,"BDA Management Committee, Luoyang",,34.622084,112.390759,124,67,20,31,18,10,25,,1006,64,3,20140815220000
