locationid,stationname,chinesename,latitude,longitude,pm25,pm10,o3,no2,so2,co,temperature,dewpoint,pressure,humidity,wind,est_time
1,Dongcheng Dongsi,,39.9304,116.423239,131,50,37,20,3,6,24,22,1007,89,1,20140805170000
2,"Temple of Heaven, Dongcheng",,39.887403,116.41324,104,50,38,23,2,6,24,22,1007,89,1,20140805170000
3,West Park officials,,39.930333,116.345162,94,56,37,29,2,6,24,22,1007,89,1,20140805170000
4,West Wanshou Nishinomiya,,39.879354,116.358183,125,62,35,33,2,7,24,22,1007,89,1,20140805170000
5,Chaoyang Olympic Sports Center,,39.983406,116.403253,112,66,32,34,2,4,24,22,1007,89,1,20140805170000
6,Chaoyang Agricultural Exhibition Hall,,39.938331,116.46715,93,48,43,11,3,7,24,22,1007,89,1,20140805170000
7,Haidian Wanliu,,39.988245,116.293062,106,60,28,32,3,5,24,22,1007,89,1,20140805170000
8,The Haidian northern New Area,,40.091313,116.180194,133,60,29,25,3,6,24,22,1007,89,1,20140805170000
9,Haidian Beijing Botanical Garden,,40.003252,116.213097,106,49,39,15,2,7,24,22,1007,89,1,20140805170000
10,Fengtai garden,,39.86423,116.285037,151,68,28,32,3,6,24,22,1007,89,1,20140805170000
11,Fengtai Yungang,,39.82535,116.152237,118,61,32,16,2,6,24,22,1007,89,1,20140805170000
12,Shijingshan city,,39.915286,116.190144,132,81,32,30,2,6,24,22,1007,89,1,20140805170000
13,"Fangshan, Liangxiang",,39.743357,116.14225,128,61,23,22,2,6,24,22,1007,89,1,20140805170000
14,"Huangcunzhen, Daxing",,39.719389,116.410219,152,60,37,16,3,6,24,22,1007,89,1,20140805170000
15,BDA,,39.796197,116.51197,156,60,42,16,2,6,24,22,1007,89,1,20140805170000
16,Tongzhou New Town,,39.887113,116.6689,157,77,33,35,2,5,24,22,1007,89,1,20140805170000
17,Shunyi New Town ,,40.128111,116.660908,156,80,40,30,2,6,24,22,1007,89,1,20140805170000
18,Changping Town,,40.218245,116.236084,88,56,50,14,2,6,24,22,1007,89,1,20140805170000
19,"Mentougou, Longquan Town",,39.938397,116.112323,113,81,22,30,2,6,24,22,1007,89,1,20140805170000
20,Pinggu town,,40.144433,117.106563,73,13,37,15,2,4,24,22,1007,89,1,20140805170000
21,Huairou town,,40.329104,116.63387,129,75,42,5,3,5,24,22,1007,89,1,20140805170000
22,The town of Miyun,,40.371186,116.838053,103,13,53,10,4,5,24,22,1007,89,1,20140805170000
23,Yanqing town,,40.454217,115.978106,136,-,51,10,5,6,24,22,1007,89,1,20140805170000
24,Changping Dingling,,40.293269,116.226108,95,44,60,12,2,5,24,22,1007,89,1,20140805170000
25,Badaling Northwest,,40.36623,115.994146,99,-,42,18,25,7,24,22,1007,89,1,20140805170000
26,Miyun Reservoir,,40.500157,116.91701,72,13,68,3,2,1,24,22,1007,89,1,20140805170000
27,"Donggaocun Zhen, Pinggu",,40.10142,117.126556,108,69,42,14,4,2,24,22,1007,89,1,20140805170000
28,"Yongledianzhen, Tongzhou",,39.713192,116.78905,142,50,24,13,2,4,24,22,1007,89,1,20140805170000
29,"Yufazhen, Daxing",,39.521203,116.306026,116,60,21,7,2,5,24,22,1007,89,1,20140805170000
30,"Liulihezhen, Fangshan",,39.581169,116.006089,126,-,27,13,11,3,24,22,1007,89,1,20140805170000
31,"Qianmen E St, Dongcheng",,39.900402,116.401242,151,50,17,29,2,7,24,22,1007,89,1,20140805170000
32,Yongdingmen Inner St,,39.877401,116.400238,120,50,32,31,4,6,24,22,1007,89,1,20140805170000
33,Xizhimen N St,,39.955352,116.355187,-,66,23,30,8,7,24,22,1007,89,1,20140805170000
34,South Ring Road,,39.857377,116.37421,144,82,16,47,4,7,24,22,1007,89,1,20140805170000
35,East Fourth Ring Road,,39.940273,116.489075,102,-,38,42,2,6,24,22,1007,89,1,20140805170000
36,Beijing,,39.955906,116.474246,93,48,50,19,4,7,24,22,1007,89,1,20140805170000
37,Putuo,,31.232979,121.415378,52,27,36,7,6,2,29,25,1004,79,5,20140805170000
38,Yangpu Sipiao,,31.263795,121.540311,68,20,36,10,5,12,29,25,1004,79,5,20140805170000
39,Shanghai Normal College Primary Division,,31.199031,121.487719,52,14,31,10,4,6,29,25,1004,79,5,20140805170000
40,Dianshan Lake,,31.091338,120.982293,58,37,48,11,4,6,29,25,1004,79,5,20140805170000
41,Hongkou Liangcheng,,31.298906,121.47155,56,22,33,10,6,5,29,25,1004,79,5,20140805170000
42,Jingan,,31.224251,121.429637,56,33,32,8,4,9,29,25,1004,79,5,20140805170000
43,Shanghai Normal University,,31.163531,121.416643,65,24,35,12,4,5,29,25,1004,79,5,20140805170000
44,Chuansha,,31.188626,121.707342,48,16,23,7,4,4,29,25,1004,79,5,20140805170000
45,Zhangjiang,,31.204896,121.581215,81,27,32,9,3,5,29,25,1004,79,5,20140805170000
46,Lingshan Road,,31.226286,121.537317,70,22,32,10,5,4,29,25,1004,79,5,20140805170000
1080,City average,,31.228451,121.478227,61,23,32,9,4,5,29,25,1004,79,5,20140805170000
47,Shanghai,,31.202842,121.453493,56,33,32,10,4,9,29,25,1004,79,5,20140805170000
48,Guangzhou,,23.138517,113.263701,72,39,39,22,6,8,29,25,1004,79,1,20140805170000
49,"Huadu town, Guangzhou",,23.389121,113.220062,102,43,95,26,11,9,29,25,1004,79,1,20140805170000
50,"Luogang Zhenlong, Guangzhou",,23.308027,113.567032,95,41,47,21,4,9,29,25,1004,79,1,20140805170000
51,"LuHu, Guangzhou",,23.151743,113.281842,78,39,38,20,6,6,29,25,1004,79,1,20140805170000
52,"Tianhu, Guangzhou",,23.647433,113.629715,74,27,106,5,4,5,29,25,1004,79,1,20140805170000
53,"Zhudong, Guangzhou",,23.418406,113.078552,102,43,97,26,11,10,29,25,1004,79,1,20140805170000
54,"Modiesha station, Guangzhou",,23.103814,113.338238,42,36,36,14,4,8,29,25,1004,79,1,20140805170000
55,Zhuhai,,22.225269,113.304202,61,26,34,11,4,10,29,26,1004,84,5,20140805170000
1075,"Huicai technical school, Foshan",,23.039667,113.105492,68,27,34,18,9,7,30,25,1004,74,2,20140805170000
56,"Sanshuiyun donghai, Foshan",,23.185788,112.865368,93,45,46,19,15,8,30,25,1004,74,2,20140805170000
57,"Nanhai Bureau of Meteorology, Foshan",,23.046836,113.145764,74,26,28,22,4,9,30,25,1004,74,2,20140805170000
58,"Sanshui Monitoring Station, Foshan",,23.163551,112.890843,93,44,47,16,10,9,30,25,1004,74,2,20140805170000
1087,Foshan,,22.999349,113.110189,74,28,34,22,9,9,30,25,1004,74,2,20140805170000
59,"Ronggui street committee, Shunde",,22.762729,113.258356,72,31,30,12,7,11,30,25,1004,74,2,20140805170000
60,Shunde,,22.806658,113.293112,72,31,31,12,12,11,30,25,1004,74,2,20140805170000
61,"Donghu, Jiangmen",,22.590411,113.087351,55,15,33,6,4,4,29,26,1004,84,5,20140805170000
62,"Taoyuan Atmosphere Premier Station, Jiangmen",,22.72489,112.93404,55,26,30,8,5,7,29,26,1004,84,5,20140805170000
63,Jiangmen,,22.604218,113.109062,55,27,33,6,6,10,29,26,1004,84,5,20140805170000
64,"Kengkouzi station, Zhaoqing",,23.158865,112.570287,68,38,48,12,10,7,29,25,1004,79,1,20140805170000
65,"Mugangzi station, Zhaoqing",,23.067961,112.431934,119,53,34,22,13,10,29,25,1004,79,1,20140805170000
66,"Qixingyanzi station, Zhaoqing",,23.075974,112.477437,-,-,11,-,-,13,-,-,0,-,-,20140805170000
67,Zhaoqing,,23.050167,112.476039,119,53,42,22,14,10,29,25,1004,79,1,20140805170000
68,"Jinguo Bay, Huizhou",,22.937223,114.385567,65,36,31,6,3,5,30,26,1004,79,3,20140805170000
1091,"Xiabu, Huizhou",,23.077493,114.410275,87,40,21,9,4,4,30,26,1004,79,3,20140805170000
69,"Xijiao, Huizhou",,23.338178,114.112867,74,25,29,5,2,3,30,26,1004,79,3,20140805170000
70,"Jiangbei, Huizhou",,23.111706,114.415274,72,53,28,12,4,2,30,26,1004,79,3,20140805170000
71,"Huiyang chuanhu, Huizhou",,22.814485,114.329292,68,27,24,9,5,7,30,26,1004,79,3,20140805170000
72,"Daya bay management committee, Huizhou",,22.739283,114.53631,63,17,24,8,5,3,30,26,1004,79,3,20140805170000
73,Huizhou,,23.079716,114.410253,87,53,28,12,4,5,30,26,1004,79,3,20140805170000
74,"Guancheng No.2 water plant, Dongguan",,23.057294,113.753254,97,40,38,18,8,7,30,26,1004,79,3,20140805170000
75,"Dongcheng Shijing, Dongguan",,23.010039,113.799529,93,31,39,13,5,6,30,26,1004,79,3,20140805170000
76,"Nancheng Xiping, Dongguan",,22.963051,113.743494,99,40,34,18,6,5,30,26,1004,79,3,20140805170000
77,"Nancheng Yuanling, Dongguan",,23.025058,113.751308,93,38,38,11,9,7,30,26,1004,79,3,20140805170000
78,Dongguan,,23.050873,113.787057,112,46,39,18,9,7,30,26,1004,79,3,20140805170000
79,"Zimaling, Zhongshan",,22.505112,113.407183,55,20,25,5,7,7,29,26,1004,84,5,20140805170000
80,"Yangtze River tourist area, Zhongshan",,22.48589,113.439054,46,19,28,4,2,5,29,26,1004,84,5,20140805170000
81,"Huabai Park, Zhongshan",,22.51839,113.374362,65,23,18,9,4,10,29,26,1004,84,5,20140805170000
82,Zhongshan,,22.545387,113.370459,65,23,28,9,7,10,29,26,1004,84,5,20140805170000
83,"No.8 middle school, Shaoguan",,24.767777,113.583537,122,63,31,24,49,12,27,26,1004,93,2,20140805170000
83,"No.8 middle school, Shaoguan",,24.767777,113.583537,122,63,31,24,49,12,27,26,1004,93,2,20140805170000
84,"Forest area, Shaoguan",,24.796106,113.612131,112,42,64,16,8,14,27,26,1004,93,2,20140805170000
84,"Forest area, Shaoguan",,24.796107,113.612131,112,42,64,16,8,14,27,26,1004,93,2,20140805170000
86,"Shaoguan University, Shaoguan",,24.790864,113.646599,99,43,40,6,14,15,27,26,1004,93,2,20140805170000
86,"Shaoguan University, Shaoguan",,24.790864,113.646598,99,43,40,6,14,15,27,26,1004,93,2,20140805170000
88,"Qujiang Monitoring Station, Shaoguan",,24.683042,113.60157,117,62,35,26,16,10,27,26,1004,93,2,20140805170000
88,"Qujiang Monitoring Station, Shaoguan",,24.683042,113.60157,117,62,35,26,16,10,27,26,1004,93,2,20140805170000
89,Shaoguan,,24.807342,113.602712,122,63,77,26,49,15,27,26,1004,93,2,20140805170000
90,"Chaonanzi Station, Shantou",,23.251213,116.406762,55,50,17,6,7,9,29,26,1004,84,4,20140805170000
91,Shantou,,23.350642,116.686306,42,17,20,5,4,9,29,26,1004,84,4,20140805170000
92,"City Environmental Monitoring Station, Zhanjiang",,21.220431,110.397317,34,17,5,-,7,5,28,26,1003,84,3,20140805170000
93,"EPB Dormitory, Zhanjiang",,21.197376,110.406487,59,15,7,5,2,9,28,26,1003,84,3,20140805170000
94,"Xiashan Swimming Park, Zhanjiang",,21.200431,110.415655,30,14,17,-,6,9,28,26,1003,84,3,20140805170000
95,"Zhanjiang Theatre, Zhanjiang",,21.268177,110.366445,42,20,8,5,4,3,28,26,1003,84,3,20140805170000
96,"Mazhang EPA, Zhanjiang",,21.265486,110.335993,21,19,25,4,4,11,28,26,1003,84,3,20140805170000
97,"Potou District EPB, Zhanjiang",,21.247604,110.454508,38,9,9,4,2,17,28,26,1003,84,3,20140805170000
98,Zhanjiang,,21.26832,110.363883,59,20,25,5,7,17,28,26,1003,84,3,20140805170000
99,"Maogang sub-office EPB, Maoming",,21.466435,111.033462,13,16,21,1,2,3,28,25,0,84,2,20140805170000
100,"Petrochemical No. 7 elementaty school, Maoming",,21.648905,110.937861,25,18,18,3,5,7,28,25,0,84,2,20140805170000
101,"Jiankang road, Maoming",,21.662211,110.909482,50,23,13,6,3,9,28,25,0,84,2,20140805170000
102,"Gaoling, Maoming",,21.690558,110.871146,57,24,17,6,8,9,28,25,0,84,2,20140805170000
1094,Maoming,,21.660223,110.929968,57,24,18,6,8,9,28,25,0,84,2,20140805170000
103,"Jiaying University, Meizhou",,24.325415,116.12816,59,25,21,2,5,4,29,26,1004,84,4,20140805170000
104,"Mexian new town, Meizhou",,24.269283,116.084546,61,40,23,8,9,6,29,26,1004,84,4,20140805170000
105,"Environmental Monitoring Center, Meizhou",,24.262778,116.129621,57,28,18,6,4,6,29,26,1004,84,4,20140805170000
1095,Meizhou,,24.285988,116.127065,61,40,23,8,9,6,29,26,1004,84,4,20140805170000
106,"City EPA, Shanwei",,22.772349,115.370227,46,14,23,2,4,7,29,26,1005,82,3,20140805170000
107,"City government, Shanwei",,22.787161,115.375536,55,15,22,5,5,7,29,26,1005,82,3,20140805170000
161,Deyang,,31.124715,104.400703,117,54,39,17,16,13,28,23,1003,74,1,20140805170000
108,"Xincheng Middle School, Shanwei",,22.789851,115.367124,46,10,22,1,3,5,29,26,1005,82,3,20140805170000
1099,Shanwei,,22.783576,115.38022,55,15,23,5,5,7,29,26,1005,82,3,20140805170000
109,"No.3 elementary school, Heyuan",,23.755946,114.699091,82,31,21,8,5,9,29,24,1005,73,1,20140805170000
109,"No.3 elementary school, Heyuan",,23.75435,114.703514,82,31,21,8,5,9,29,24,1005,73,1,20140805170000
111,"City water company, Heyuan",,23.754246,114.682459,93,37,23,10,9,7,29,24,1005,73,1,20140805170000
111,"City water company, Heyuan",,23.688709,114.954652,93,37,23,10,9,7,29,24,1005,73,1,20140805170000
113,"Heyuan high school, Heyuan",,23.720666,114.693879,102,31,21,6,7,7,29,24,1005,73,1,20140805170000
113,"Heyuan high school, Heyuan",,23.720037,114.699563,102,31,21,6,7,7,29,24,1005,73,1,20140805170000
115,Heyuan,,23.740888,114.705147,102,37,23,10,9,9,29,24,1005,73,1,20140805170000
116,"Yuanyang Lake, Yangjiang",,21.855869,111.983676,25,15,22,1,1,8,29,25,1004,74,2,20140805170000
1100,Yangjiang,,21.855227,111.987308,30,17,22,2,1,10,29,25,1004,74,2,20140805170000
118,"Town governement, Qingyuan",,23.708005,113.026215,46,39,32,11,8,17,30,25,1003,74,2,20140805170000
119,"Fupin district, Qingyuan",,24.185415,113.419369,61,28,33,22,7,9,30,25,1003,74,2,20140805170000
119,"Fupin district, Qingyuan",,23.624781,113.067713,61,28,33,22,7,9,30,25,1003,74,2,20140805170000
121,"Environment protection office, Qingyuan",,23.685931,113.053239,117,79,39,11,10,11,30,25,1003,74,2,20140805170000
121,"Environment protection office, Qingyuan",,23.691109,113.047948,117,79,39,11,10,11,30,25,1003,74,2,20140805170000
123,"Fengcheng Subdistrict, Qingyuan",,23.695447,113.068189,50,52,36,11,7,17,29,25,1004,79,1,20140805170000
124,Qingyuan,,23.679304,113.061513,117,79,39,22,10,17,30,25,1003,74,2,20140805170000
125,"Xiyuan Road, Chaozhou",,23.668654,116.638272,63,21,18,3,8,11,29,26,1004,84,4,20140805170000
126,"Archives Bureau, Chaozhou",,23.667881,116.649104,93,19,20,3,9,10,29,26,1004,84,4,20140805170000
127,"Municipal Corporation, Chaozhou",,23.65035,116.621859,50,18,19,3,6,13,29,26,1004,84,4,20140805170000
1101,Chaozhou,,23.654204,116.626969,93,21,20,3,9,13,29,26,1004,84,4,20140805170000
128,"Donghu Park, Jieyang",,23.532877,116.374427,59,16,19,1,6,8,29,26,1004,84,4,20140805170000
129,"Yuhu Middle School, Jieyang",,23.52682,116.414123,46,51,20,1,7,9,29,26,1004,84,4,20140805170000
130,"Experimental Primary School, Jieyang",,23.571473,116.364137,53,13,21,5,7,7,29,26,1004,84,4,20140805170000
1102,Jieyang,,23.547596,116.37754,59,26,22,5,7,9,29,26,1004,84,4,20140805170000
131,"City Environmental Monitoring Station, Yunfu",,22.936779,112.042248,99,67,22,15,5,13,30,25,1003,74,2,20140805170000
132,"The new city government headquarters, Yunfu",,22.914275,112.044475,78,32,27,6,4,11,30,25,1003,74,2,20140805170000
133,"Muyang police sub-station, Yunfu",,22.951267,112.05923,158,60,23,17,7,7,30,25,1003,74,2,20140805170000
1103,Yunfu,,22.912436,112.049811,158,67,27,17,7,13,30,25,1003,74,2,20140805170000
134,Yantian,,22.587949,114.266899,65,20,36,8,6,6,30,26,1004,79,3,20140805170000
135,Kwai Chung,,22.572837,113.867166,93,30,17,17,2,11,30,26,1004,79,3,20140805170000
135,Kwai Chung,,22.354168,114.134558,93,30,17,17,2,11,30,26,1004,79,3,20140805170000
135,Kwai Chung,,22.627947,114.428875,93,30,17,17,2,11,30,26,1004,79,3,20140805170000
137,Nanyou,,22.513802,113.928051,74,30,30,15,8,19,30,26,1004,79,3,20140805170000
138,Meisha,,22.59611,114.318345,70,28,19,12,2,10,30,26,1004,79,3,20140805170000
139,Xi xiang,,22.717524,114.252304,63,18,23,10,4,7,30,26,1003,79,3,20140805170000
140,Liyuan,,22.54732,114.101205,61,22,18,8,3,5,30,26,1003,79,3,20140805170000
1072,Kwai Chung,,22.354168,114.134558,59,21,20,7,3,11,30,26,1003,79,3,20140805170000
1072,Kwai Chung,,22.627947,114.428875,59,21,20,7,3,11,30,26,1003,79,3,20140805170000
141,OCT,,22.539549,113.992458,78,35,17,10,3,14,30,26,1003,79,3,20140805170000
142,Honghu,,22.559647,114.121976,74,30,27,10,4,4,30,26,1003,79,3,20140805170000
143,Mission Hills,,22.694131,114.050496,85,52,21,16,3,10,30,26,1003,79,3,20140805170000
144,Shenzhen,,22.540382,114.062982,85,52,35,27,16,19,30,26,1003,79,3,20140805170000
145,Chengdu,,30.622581,104.069564,165,67,59,30,32,7,28,22,1002,70,1,20140805170000
146,"Jinquan lianghe, Chengdu",,30.710359,103.974209,158,73,38,27,15,8,28,22,1002,70,1,20140805170000
147,"Shilidian, Chengdu",,30.684718,104.17845,151,73,28,39,28,8,28,22,1002,70,1,20140805170000
148,"Sanwayao, Chengdu",,30.568159,104.081524,155,75,26,46,24,12,28,22,1002,70,1,20140805170000
149,"Shahepu, Chengdu",,30.633685,104.120536,151,70,26,46,24,12,28,22,1002,70,1,20140805170000
150,"Liang Lane, Chengdu",,30.682601,104.076522,142,67,30,30,32,7,28,22,1002,70,1,20140805170000
151,"Caotang Temple, Chengdu",,30.651891,104.0284,129,63,59,13,11,7,28,22,1002,70,1,20140805170000
152,"Lingyansi, Chengdu",,31.025729,103.615022,132,53,102,3,3,3,32,23,1001,59,1,20140805170000
153,"Fuleshan, Mianyang",,31.472493,104.7806,112,51,39,7,5,7,29,22,999,55,2,20140805170000
154,"High-tech Zone Water Company, Mianyang",,31.463309,104.674293,151,59,24,16,7,5,29,22,999,55,2,20140805170000
155,"No.3 water company, Mianyang",,31.505002,104.731054,152,65,37,20,5,4,29,22,999,55,2,20140805170000
156,Mianyang,,31.465174,104.681731,152,65,39,20,7,8,29,22,999,55,2,20140805170000
157,"Dongshan Park, Deyang",,31.118648,104.424587,85,45,39,6,6,7,28,23,1003,74,1,20140805170000
158,"Xixiaoqu, Deyang",,31.131159,104.390972,117,54,26,14,7,10,28,23,1003,74,1,20140805170000
159,"City Procuratorate, Deyang",,31.114554,104.407986,87,42,31,17,16,13,28,23,1003,74,1,20140805170000
160,"Refractory Factory, Deyang",,31.108606,104.356506,107,43,34,7,12,4,28,23,1003,74,1,20140805170000
162,"Nongnongping, Panzhihua",,26.566698,101.695438,95,58,18,16,14,15,22,18,0,71,1,20140805170000
163,"Hemenkou, Panzhihua",,26.589072,101.578312,137,68,14,17,12,21,22,18,0,71,1,20140805170000
164,"Bingcaogang, Panzhihua",,26.58143,101.718473,91,88,13,23,8,11,22,18,0,71,1,20140805170000
165,"Renhe, Panzhihua",,26.498166,101.746887,76,51,23,7,5,16,22,18,0,71,1,20140805170000
166,"Jinjina, Panzhihua",,26.553226,101.84862,70,39,23,6,128,9,22,18,0,71,1,20140805170000
167,Panzhihua,,26.578779,101.720211,137,88,23,23,128,21,22,18,0,71,1,20140805170000
168,"Shima Middle School, Yibin",,28.815979,104.599199,117,61,45,14,8,6,29,24,1000,64,1,20140805170000
169,"Municipal party committee, Yibin",,28.762654,104.624834,147,60,34,18,21,8,29,24,1000,64,1,20140805170000
170,"No. 4 middle school, Yibin",,28.783257,104.608407,139,59,34,12,6,5,29,24,1000,64,1,20140805170000
171,"City government, Yibin",,28.760477,104.644079,119,79,46,17,20,7,29,24,1000,64,1,20140805170000
172,"Huangjinzui, Yibin",,28.712319,104.578389,134,70,73,17,7,8,29,24,1000,64,1,20140805170000
173,"Shaping Middle School, Yibin",,28.795569,104.681393,114,41,43,18,9,6,29,24,1000,64,1,20140805170000
174,Yibin,,28.748384,104.645766,147,79,73,18,21,8,29,24,1000,64,1,20140805170000
175,"Datang Hill, Zigong",,29.359969,104.757388,159,78,26,7,8,13,28,22,1001,69,1,20140805170000
176,"Yanma Road, Zigong",,29.355752,104.724036,137,75,147,13,5,5,28,22,1001,69,1,20140805170000
177,"Tanmulin Street, Zigong",,29.353555,104.777397,107,40,27,11,7,4,28,22,1001,69,1,20140805170000
178,"Chunhua Road, Zigong",,29.33825,104.771895,114,62,24,25,8,7,28,22,1001,69,1,20140805170000
179,Zigong,,29.33617,104.781138,159,78,147,25,8,13,28,22,1001,69,1,20140805170000
180,"Jiushi Hill, Luzhou",,28.955347,105.434207,129,21,122,7,5,6,28,22,1001,70,2,20140805170000
181,"Xiaoshishang Port, Luzhou",,28.899583,105.447192,151,63,149,18,6,9,28,22,1001,70,2,20140805170000
182,"Lantianxian Bridge, Luzhou",,28.852766,105.4358,152,75,207,12,1,3,28,22,1001,70,2,20140805170000
183,"City Environment Monitoring Station, Luzhou",,28.895898,105.435802,122,62,143,13,4,6,28,22,1001,70,2,20140805170000
184,Luzhou,,28.868782,105.445938,152,75,207,18,6,9,28,22,1001,70,2,20140805170000
185,"City Committee, Nanchong",,30.799993,106.082906,164,79,17,25,16,6,33,23,999,49,1,20140805170000
186,"Refinery Factory, Nanchong",,30.819412,106.10712,162,73,30,32,11,4,33,23,999,49,1,20140805170000
187,"Gaoping District Monitoring Station, Nanchong",,30.783291,106.110417,175,102,37,20,27,7,33,23,999,49,1,20140805170000
188,"Jialing District EPB, Nanchong",,30.761255,106.06818,165,106,21,30,2,9,35,21,998,35,1,20140805170000
189,"City Environmental Monitoring Station, Nanchong",,30.836519,106.11272,156,80,22,8,31,4,33,23,999,49,1,20140805170000
190,Nanchong,,30.835511,106.114717,175,102,37,32,31,9,33,23,999,49,1,20140805170000
191,Shenyang US Consulate,,41.785668,123.432865,152,80,20,45,8,4,20,18,1005,88,1,20140805170000
192,"Huishan, Shenyang",,41.835421,123.647773,68,54,18,7,1,4,20,18,1005,88,2,20140805170000
193,"Hunnan, Shenyang",,41.758263,123.540809,117,96,23,37,8,6,20,18,1005,88,1,20140805170000
194,"Zhangshi, Shenyang",,41.771679,123.289859,154,100,9,38,10,7,20,18,1005,88,2,20140805170000
195,"Artillery College, Shenyang",,41.835749,123.547799,34,47,30,23,3,4,20,18,1005,88,1,20140805170000
196,"Beiling, Shenyang",,41.849633,123.434146,152,95,16,32,6,6,20,18,1005,88,2,20140805170000
197,"Wenyi Road, Shenyang",,41.767444,123.416144,142,80,24,45,8,6,20,18,1005,88,1,20140805170000
198,"Xiaoheyan, Shenyang",,41.779828,123.484015,91,71,21,37,5,7,20,18,1005,88,2,20140805170000
199,"Taiyuan Street, Shenyang",,41.799646,123.406146,156,85,7,48,4,6,20,18,1005,88,1,20140805170000
200,"Ermao, Shenyang",,41.783011,123.366679,127,76,37,47,12,6,20,18,1005,88,1,20140805170000
201,"Liaoning University, Shenyang",,41.830704,123.361071,78,64,20,29,2,4,20,18,1005,88,1,20140805170000
202,Shenyang,,41.808126,123.437611,152,95,21,48,8,6,20,18,1005,88,1,20140805170000
1104,"wenhua street, Shenyang , Shenyang",,41.774139,123.441839,124,86,30,46,10,6,22,19,1005,83,1,20140805170000
1105,"Tanglin Road , Shenyang , Shenyang",,41.823665,123.562317,42,36,26,19,3,5,20,18,1005,88,2,20140805170000
203,"Ganjingzi, Dalian",,38.9747,121.616893,107,48,39,6,1,8,21,19,1006,88,3,20140805170000
204,"Zhoushuizi, Dalian",,38.951928,121.569981,61,31,35,11,3,10,21,19,1006,88,3,20140805170000
205,"Xinghai No 3 station, Dalian",,38.885779,121.568864,76,24,48,7,5,6,21,19,1006,88,3,20140805170000
206,"Qingniwa Bridge, Dalian",,38.91274,121.638018,76,37,32,17,2,10,21,19,1006,88,3,20140805170000
207,"Fujiazhuang, Dalian",,38.864647,121.629947,70,38,31,9,7,10,21,19,1006,88,3,20140805170000
208,"Qixianling, Dalian",,38.856978,121.523169,53,35,37,6,4,14,21,19,1006,88,3,20140805170000
209,"Lushun, Dalian",,38.808946,121.264063,50,20,35,1,2,4,21,19,1006,88,3,20140805170000
210,"Jinzhou, Dalian",,39.132192,121.753259,87,48,31,11,3,9,21,19,1006,88,3,20140805170000
211,"BDA, Dalian",,39.05213,121.782022,74,45,14,8,6,9,21,19,1006,88,3,20140805170000
212,"D&D Port, Dalian",,39.064087,121.981874,76,36,24,10,1,11,21,19,1006,88,3,20140805170000
213,Dalian,,38.91478,121.619625,76,37,32,17,2,10,21,19,1006,88,3,20140805170000
214,"Bearing Factory, Dandong",,40.068929,124.345703,74,55,24,33,15,8,21,19,1005,78,0,20140805170000
215,"Financial school, Dandong",,40.158723,124.432593,76,49,24,13,10,17,21,19,1005,78,0,20140805170000
216,"Yuanbaoshan water, Dandong",,40.149431,124.391698,63,43,37,11,14,14,21,19,1005,78,0,20140805170000
217,"Experimental Primary School, Dandong",,39.887343,124.158056,87,51,18,19,10,23,21,19,1005,78,0,20140805170000
218,Dandong,,40.002046,124.360479,89,52,22,13,11,23,21,19,1005,78,0,20140805180000
1106,"minzhu bridge, Dandong , Dandong",,40.112974,124.373604,89,52,17,13,11,23,21,19,1005,78,0,20140805180000
1107,"yuanbaoshan, Dandong , Dandong",,40.146298,124.399081,70,50,37,14,15,14,21,19,1005,78,0,20140805180000
1108,"linjiang houjie, Dandong , Dandong",,40.152757,124.431745,78,49,22,13,10,18,21,19,1005,78,0,20140805180000
219,"BDA, Panjin",,41.157144,122.06645,78,32,39,13,5,13,21,14,0,62,2,20140805180000
220,"Xinglongtai, Panjin",,41.140948,122.111343,76,20,33,9,13,6,21,14,0,62,2,20140805180000
221,"Dingxiang, Panjin",,41.16139,121.928781,85,24,42,3,6,4,21,14,0,60,2,20140805180000
222,Panjin,,41.122089,122.076206,82,32,40,13,13,13,21,14,0,62,2,20140805180000
223,"No.3 water company, Yingkou",,40.682052,122.385352,46,20,45,4,3,5,25,19,1006,65,2,20140805180000
224,"Yingkou University, Yingkou",,40.683689,122.388285,30,19,67,3,3,5,25,19,1006,65,2,20140805180000
225,"Botanical garden, Yingkou",,40.711674,122.281568,42,14,39,7,5,5,25,19,1006,65,2,20140805180000
226,Yingkou,,40.668578,122.24059,38,17,44,7,4,10,25,19,1006,65,2,20140805180000
1109,"jinghu west street, Yingkou , Yingkou",,40.653831,122.221943,30,17,43,1,2,5,25,19,1006,65,2,20140805180000
1110,"Daqing Road , Yingkou , Yingkou",,40.709181,122.28243,38,13,37,7,3,5,25,19,1006,65,2,20140805180000
227,"Xishanpo, Huludao",,40.724078,120.921974,97,71,41,13,21,5,21,14,0,60,2,20140805180000
228,"Huagong hospital, Huludao",,40.755662,120.848435,104,58,27,31,14,11,21,14,0,60,2,20140805180000
229,"New district park, Huludao",,40.723415,120.853801,104,116,24,35,10,8,21,14,0,60,2,20140805180000
230,"Lianshan district governement, Huludao",,40.775488,120.872292,151,69,34,50,21,5,21,14,0,60,2,20140805180000
231,Huludao,,40.712501,120.842107,153,76,24,30,14,12,-,-,0,-,-,20140805180000
1111,"Dongcheng District , Huludao , Huludao",,40.775362,120.871706,107,65,39,53,15,3,,,,,,20140805180000
1112,"huagong street, Huludao , Huludao",,40.758901,120.842935,153,64,24,30,14,12,,,,,,20140805180000
232,Anshan,,41.110466,123.000147,157,83,23,18,9,10,20,18,1005,88,2,20140805180000
233,"Qianshan Park, Anshan",,41.033486,123.143897,78,43,34,9,6,3,20,18,1005,88,1,20140805180000
234,"Tiexi, Anshan",,41.121636,122.97506,142,91,18,15,6,10,20,18,1005,88,1,20140805180000
235,"Taiping Station, Anshan",,41.153322,123.052433,104,66,18,22,10,14,20,18,1005,88,1,20140805180000
236,"Central Station, Anshan",,41.106731,123.002736,95,66,30,17,13,12,20,18,1005,88,1,20140805180000
237,"Shengou Temple, Anshan",,41.137157,123.031901,124,69,22,6,5,12,20,18,1005,88,2,20140805180000
1113,"Qianshan , Anshan , Anshan",,41.014521,123.122538,80,42,31,8,6,3,20,18,1005,88,2,20140805180000
1114,"Tiexi Sandao jie, Anshan",,41.103264,122.978613,157,62,17,14,6,9,20,18,1005,88,2,20140805180000
1115,"Taiyang, Anshan",,41.094946,123.019037,132,84,29,15,13,12,20,18,1005,88,2,20140805180000
238,Fushun,,41.883028,123.962984,132,60,23,25,11,9,20,18,1005,88,2,20140805180000
239,"Shenfu new town, Fushun",,41.804638,123.631684,89,52,19,23,4,6,20,18,1005,88,2,20140805180000
240,"Reservoir, Fushun",,41.8464,123.802857,72,30,25,11,7,7,20,18,1005,88,1,20140805180000
241,"Train Station, Fushun",,41.89726,124.017604,87,65,26,18,9,7,20,18,1005,88,1,20140805180000
242,"Dongzhou, Fushun",,41.855578,124.044738,53,30,25,7,2,7,20,18,1005,88,1,20140805180000
243,"Xinhua, Fushun",,41.888598,123.932932,72,50,21,26,5,8,20,18,1005,88,1,20140805180000
244,"Wanghua, Fushun",,41.888825,123.093723,127,68,31,33,10,9,20,18,1005,88,1,20140805180000
245,Benxi,,41.296267,123.772371,476,671,28,22,14,28,20,18,1005,88,2,20140805180000
246,"Weining, Benxi",,41.349663,123.826071,68,52,7,7,3,13,20,18,1005,88,2,20140805180000
247,"Occupational disease hospital, Benxi",,41.305432,123.74645,68,25,26,22,6,21,20,18,1005,88,1,20140805180000
248,"Dongming, Benxi",,41.292369,123.765058,85,27,18,18,14,28,20,18,1005,88,2,20140805180000
249,"Caitun, Benxi",,41.301591,123.746039,107,74,18,12,3,9,20,18,1005,88,2,20140805180000
250,"Xihu, Benxi",,41.331332,123.773537,476,671,28,22,1,9,20,18,1005,88,2,20140805180000
251,"Dayu, Benxi",,41.308091,123.818442,61,30,0,5,10,0,21,19,1005,88,1,20140805180000
1116,"Xinlitun , Benxi , Benxi",,41.264104,123.811523,74,27,26,34,6,21,22,19,1005,83,1,20140805180000
252,Jinzhou,,41.097169,121.132647,154,74,33,36,70,10,25,13,1005,35,4,20140805180000
253,"Beihu Park, Jinzhou",,41.141447,121.137339,99,57,1,21,19,6,25,13,1005,35,4,20140805180000
254,"Monitoring station, Jinzhou",,41.113441,121.140911,80,59,37,33,14,8,25,13,1005,35,4,20140805180000
255,"Nanshan, Jinzhou",,41.570689,122.046753,124,48,31,39,13,6,25,13,1005,35,4,20140805180000
1118,"BDA, Jinzhou",,40.853915,121.061756,154,74,20,27,70,10,25,13,1005,35,4,20140805180000
1119,"tianan street, Jinzhou , Jinzhou",,41.124468,121.126119,80,61,33,36,16,8,25,13,1005,35,4,20140805180000
1120,"baigu street, Jinzhou, Jinzhou",,41.12214,121.21027,85,60,23,32,7,4,25,13,1005,35,4,20140805180000
1121,Chaoyang,,41.576022,120.456053,93,72,35,27,23,22,-,-,0,-,-,20140805180000
1122,"Agricultural Area, Chaoyang",,43.93968,125.247371,63,40,8,10,6,10,27,13,1004,32,3,20140805180000
1123,Tieling,,42.225197,123.732174,93,72,26,22,5,6,20,18,1005,88,2,20140805180000
260,"Waterpark, Tieling",,42.297031,123.880748,65,73,11,13,9,5,20,18,1005,88,2,20140805180000
1124,"Huigong Street West , Tieling , Tieling",,42.311115,123.845614,93,64,33,14,4,6,20,18,1005,88,2,20140805180000
1125,Liaoyang,,41.269312,123.24268,223,148,35,26,28,20,20,18,1005,88,2,20140805180000
1126,"Riverside Road , Liaoyang , Liaoyang",,41.176884,123.419859,170,142,32,23,28,13,20,18,1005,88,2,20140805180000
1127,Fuxin,,42.02373,121.675733,91,57,36,23,12,6,-,-,0,-,-,20140805180000
266,"Agricultural Area, Fuxin",,42.071291,121.696445,70,56,32,16,23,6,20,12,0,57,2,20140805180000
267,"Industrial Area, Fuxin",,42.041052,121.715554,91,54,36,38,12,5,20,12,0,57,2,20140805180000
1128,"Yulong Metro , Fuxin , Fuxin",,42.035091,121.666531,80,57,30,23,8,6,20,12,0,57,2,20140805180000
1129,"Dongyuan , Fuxin , Fuxin",,42.029119,121.681553,-,-,-,-,-,-,-,-,0,-,-,20140805180000
268,"City Monitoring Station, Jinan",,36.662614,117.054645,175,97,9,37,60,15,22,20,1007,86,2,20140805180000
269,"Shandong Institute of Economics, Jinan",,36.63819,117.074975,165,86,9,34,18,20,22,20,1007,86,2,20140805180000
270,"Quancheng Plaza, Jinan",,36.661711,117.027043,157,84,12,24,59,14,22,20,1007,86,2,20140805180000
271,"Kegansuo, Jinan",,36.611582,116.99384,160,83,10,28,52,20,22,20,1007,86,2,20140805180000
272,"Agriculture Science Institute, Jinan",,36.663115,116.95063,164,95,16,45,26,16,22,20,1007,86,2,20140805180000
273,"Lanxiang technical school, Jinan",,36.700421,116.95342,154,68,14,29,38,7,22,20,1007,86,2,20140805180000
274,"Chemical factory, Jinan",,36.687463,116.994406,124,73,18,38,55,10,22,20,1007,86,2,20140805180000
275,"Provincial Seed Warehouse, Jinan",,36.685706,117.066348,168,94,20,35,60,13,22,20,1007,86,2,20140805180000
276,"Shandong Architecture University, Jinan",,36.681732,117.191868,160,69,13,32,55,23,22,20,1007,86,2,20140805180000
277,"Baosheng cable company, Jinan",,36.724638,117.130855,155,85,10,27,9,7,22,20,1007,86,2,20140805180000
278,"Paomaling, Jinan",,36.47869,117.219027,124,52,38,4,14,16,22,20,1007,86,2,20140805180000
279,"Changqing District Communist Party School, Jinan",,36.548797,116.770859,144,68,18,24,41,10,22,20,1007,86,2,20140805180000
280,"BDA, Jinan",,36.685835,117.130851,169,95,14,38,34,19,22,20,1007,86,2,20140805180000
281,Jinan,,36.651426,117.126625,175,97,22,45,60,20,22,20,1007,86,2,20140805180000
282,"Shinan district No. 1, Qingdao",,36.065534,120.40839,93,67,13,27,16,8,24,19,1006,73,2,20140805180000
283,"Shibei district No. 1, Qingdao",,36.069919,120.341264,87,36,8,8,17,7,24,19,1006,73,2,20140805180000
284,"Shibei district No. 2, Qingdao",,36.104146,120.36637,53,46,31,15,15,7,24,19,1006,73,2,20140805180000
285,"Huangdao District No. 1, Qingdao",,35.958935,120.191041,104,71,19,17,16,6,24,19,1006,73,2,20140805180000
286,"Huangdao District No. 2, Qingdao",,35.970487,120.160339,82,70,12,10,11,7,24,19,1006,73,2,20140805180000
287,"Laoshan District No. 1, Qingdao",,36.085881,120.451839,147,62,28,28,21,9,24,19,1006,73,2,20140805180000
288,"Laoshan District No. 2, Qingdao",,36.091075,120.490388,97,64,30,22,11,7,24,19,1006,73,2,20140805180000
289,"Licang District No. 1, Qingdao",,36.184872,120.38533,85,76,8,27,16,6,24,19,1006,73,2,20140805180000
290,"Licang District No. 2, Qingdao",,36.154369,120.432287,80,56,16,25,8,5,24,19,1006,73,2,20140805180000
291,"Chengyang District No. 1, Qingdao",,36.308502,120.40008,89,47,16,15,11,4,24,19,1006,73,2,20140805180000
292,"Chengyang District No. 2, Qingdao",,36.308429,120.465806,87,48,18,31,16,4,24,19,1006,73,2,20140805180000
293,Qingdao,,36.067358,120.387773,147,71,28,28,21,9,24,19,1006,73,2,20140805180000
294,"Zichuan Meteo. Stations, Zibo",,36.637916,117.960222,169,96,5,23,29,16,21,19,0,87,1,20140805180000
295,"Dongfeng Chemical factory, Zibo",,36.838576,118.050785,122,70,5,40,18,31,21,19,0,88,1,20140805180000
296,"Boshan shuangshan, Zibo",,36.497278,117.853581,175,89,3,42,56,15,21,19,0,87,1,20140805180000
297,"Linzi Putian Park, Zibo",,36.820171,118.315022,109,69,22,14,18,9,21,19,0,87,1,20140805180000
298,"Qilu Petrochemical, Zibo",,36.765907,118.254967,107,62,15,22,14,8,21,19,0,87,1,20140805180000
299,"Zhoucun sanjin Group, Zibo",,36.8044,117.85694,139,46,24,22,7,16,21,19,0,87,1,20140805180000
300,"Vocational College, Zibo",,36.825208,117.926305,119,52,12,20,10,16,21,19,0,87,1,20140805180000
301,"BDA, Zibo",,36.905214,118.021824,99,56,8,19,10,13,21,19,0,87,1,20140805180000
302,Zibo,,36.813618,118.060948,175,119,14,63,56,31,21,19,0,87,1,20140805180000
303,"Shizhong District Government, Zaozhuang",,34.850397,117.569545,152,95,40,8,43,8,27,25,1005,89,1,20140805180000
304,"Sewage treatment plant, Zaozhuang",,34.818951,117.595345,160,77,24,27,54,9,27,25,1005,89,1,20140805180000
305,"Xuecheng EPA, Zaozhuang",,34.790214,117.272455,197,107,24,49,57,9,27,25,1005,89,1,20140805180000
306,"Yicheng District government, Zaozhuang",,34.772806,117.57647,158,91,32,28,15,7,27,25,1005,89,1,20140805180000
307,"Taierzhuang EPA, Zaozhuang",,34.579462,117.741067,164,98,25,46,20,15,27,25,1005,89,1,20140805180000
308,"Shanting EPA, Zaozhuang",,35.070373,117.457691,139,70,51,10,13,8,27,25,1005,89,1,20140805180000
309,"City EPA, Zaozhuang",,34.809466,117.320608,191,130,27,32,33,6,27,25,1005,89,1,20140805180000
310,"High-tech zone, Zaozhuang",,34.821779,117.363495,213,148,20,12,35,9,27,25,1005,89,1,20140805180000
311,Zaozhuang,,34.809693,117.329634,213,148,51,49,57,15,27,25,1005,89,1,20140805180000
312,"City EPA, Dongying",,37.432052,118.672871,78,49,36,8,18,10,21,19,0,85,1,20140805180000
313,"Vocational College, Dongying",,37.438653,118.630567,80,77,36,13,16,10,21,19,0,84,1,20140805180000
314,"Xianhe Oil Production Plant, Dongying",,37.442419,118.510222,134,72,31,16,16,10,21,19,0,84,1,20140805180000
315,"Gengjin village, Dongying",,37.445072,118.55839,102,69,31,29,11,10,21,19,0,85,1,20140805180000
316,"City environmental company, Dongying",,37.466599,118.508012,124,64,27,15,10,10,21,19,0,85,1,20140805180000
317,"Hekou  district, Dongying",,37.883786,118.522171,59,29,49,8,6,10,21,19,0,84,1,20140805180000
318,"BDA, Dongying",,37.435162,118.701827,70,40,45,7,12,9,21,19,0,84,1,20140805180000
319,Dongying,,37.435429,118.680434,134,77,49,26,16,10,21,19,0,84,1,20140805180000
320,"Bearing Factory, Yantai",,37.544126,121.376956,78,56,23,26,52,4,,,,,,20140805180000
321,"Xijiao Chemical Station, Yantai",,37.547148,121.323695,63,21,32,16,14,6,,,,,,20140805180000
322,"Fushan Monitoring Stations, Yantai",,37.472245,121.260116,65,50,21,19,10,7,,,,,,20140805180000
323,"Mouping EPA, Yantai",,37.376681,121.586509,55,21,24,10,3,3,,,,,,20140805180000
324,"Laishan EPA, Yantai",,37.478422,121.44829,59,40,18,22,21,5,,,,,,20140805180000
325,"Laishan Shengquan Industrial Park, Yantai",,37.4271,121.408386,68,43,28,16,8,4,,,,,,20140805180000
326,"China Agricultural University, Yantai",,37.423568,121.511838,46,60,27,29,11,5,,,,,,20140805180000
327,"BDA EPA, Yantai",,37.560827,121.257954,65,33,21,19,5,4,,,,,,20140805180000
329,"Dajijia, Yantai",,37.673849,121.071465,57,25,28,6,6,3,,,,,,20140805180000
330,Yantai,,37.464793,121.453142,99,56,32,31,52,7,22,19,0,82,1,20140805180000
331,"BDA, Weifang",,36.720022,119.054064,50,31,19,11,7,2,,,,,,20140805180000
332,"Business School, Weifang",,36.682442,119.105909,42,20,20,12,4,2,,,,,,20140805180000
333,"Hanting District, Weifang",,36.773484,119.199705,30,19,41,5,6,2,,,,,,20140805180000
334,"Gongda Company, Weifang",,36.657635,119.167266,53,27,28,10,7,3,,,,,,20140805180000
335,"City EPA, Weifang",,36.701272,119.16838,70,40,27,8,9,2,,,,,,20140805180000
336,"City Arbitration Committee, Weifang",,36.702422,119.145927,63,30,27,13,10,2,,,,,,20140805180000
337,"Xinhui Group, Weifang",,36.641581,119.11679,50,26,25,17,11,4,,,,,,20140805180000
338,"Jincheng Middle School, Weifang",,36.773611,119.115539,53,26,26,29,6,3,,,,,,20140805180000
339,Weifang,,36.707217,119.167638,63,31,41,29,11,4,21,19,0,84,1,20140805180000
340,"City Monitoring Station, Jining",,35.408443,116.623917,172,86,15,23,30,10,26,22,1006,75,2,20140805180000
1090,"Shengdi Hollidays Resort, Jining",,35.424746,116.699093,189,120,12,32,47,17,26,22,1006,75,2,20140805180000
341,"Sewage treatment plant, Jining",,35.364286,116.609177,184,91,17,27,33,9,26,22,1006,75,2,20140805180000
342,"Electrochemical Factory, Jining",,35.390473,116.552956,165,74,17,25,36,10,26,22,1006,75,2,20140805180000
343,"Rencheng BDA, Jining",,35.390484,116.662995,178,91,15,28,9,17,26,22,1006,75,2,20140805180000
344,"Agricultural School, Jining",,35.44235,116.601682,159,78,12,24,22,9,26,22,1006,75,2,20140805180000
345,"BDA Huojucheng, Jining",,35.436377,116.642953,177,81,15,27,41,13,26,22,1006,75,2,20140805180000
346,Jining,,35.414473,116.59239,189,120,17,32,47,17,26,22,1006,75,2,20140805180000
347,"Taishan monitoring station, Taian",,36.194362,117.159648,155,76,11,17,28,13,18,18,0,100,1,20140805180000
348,"Shandong Electric Power School, Taian",,36.176071,117.12413,158,71,20,18,27,15,18,18,0,100,1,20140805180000
349,"Population Education school, Taian",,36.194417,117.104131,157,84,18,12,34,14,18,18,0,100,1,20140805180000
350,"Houfeng company, Taian",,36.204863,117.19015,154,71,8,12,18,17,18,18,0,100,1,20140805180000
351,"Nongda new campus, Taian",,36.170179,117.165191,109,79,11,38,21,19,18,18,0,100,1,20140805180000
352,"Transportation technical school, Taian",,36.202126,117.047068,155,66,6,8,7,20,18,18,0,100,1,20140805180000
353,"ICT Technology, Taian",,36.116621,117.107458,104,62,13,11,14,17,18,18,0,100,1,20140805180000
354,Taian,,36.200502,117.093682,158,84,20,38,34,20,18,18,0,100,1,20140805180000
355,"City Environmental Monitoring Station, Weihai",,37.513939,122.067058,57,20,34,6,4,3,22,19,0,82,1,20140805180000
356,"Woodworking Factory, Weihai",,37.325455,122.160777,38,19,30,6,5,2,22,19,0,82,1,20140805180000
357,"Lantian Hotel, Weihai",,37.514641,122.146276,17,22,38,6,6,1,22,19,0,82,1,20140805180000
358,"Zhang village government, Weihai",,37.485561,122.049436,5,12,27,12,4,3,22,19,0,82,1,20140805180000
359,"Gao District Bank, Weihai",,37.534919,122.056294,55,24,36,4,16,3,22,19,0,82,1,20140805180000
360,"Huxia technical school, Weihai",,37.427951,122.130811,65,17,30,11,8,4,22,19,0,83,1,20140805180000
361,Weihai,,37.5141,122.125477,65,24,38,12,16,4,22,19,0,83,1,20140805180000
362,"City governement square, Rizhao",,35.4075,119.526008,80,29,36,4,7,4,25,21,1007,72,2,20140805180000
363,"Port Authority, Rizhao",,35.381297,119.55396,68,30,28,6,8,5,25,21,1007,72,2,20140805180000
364,"City Monitoring Station, Rizhao",,35.388683,119.496405,74,33,29,8,5,3,25,21,1007,72,2,20140805180000
365,"Professor Garden, Rizhao",,35.462161,119.574193,78,48,33,6,7,5,25,21,1007,72,2,20140805180000
366,"Vocational and Technical College, Rizhao",,35.441939,119.538187,87,30,35,4,7,3,25,21,1007,72,2,20140805180000
367,"Lanshan EPA branch, Rizhao",,35.293405,119.345716,102,56,22,14,9,7,25,21,1007,72,2,20140805180000
368,"Jinma Industrial Park, Rizhao",,35.373339,119.514108,65,33,32,6,3,3,25,21,1007,72,2,20140805180000
369,Rizhao,,35.416089,119.532316,102,56,36,14,9,7,25,21,1007,72,2,20140805180000
370,"Vegetable oil factory, Laiwu",,36.205028,117.700917,162,61,8,6,27,11,22,20,1008,86,1,20140805180000
371,"Nursing home, Laiwu",,36.266067,117.652769,162,107,5,20,24,14,22,20,1008,86,1,20140805180000
372,"Xinyi middle school, Laiwu",,36.245086,117.739025,153,51,5,6,12,12,22,20,1008,86,1,20140805180000
373,"Risheng International School, Laiwu",,36.208125,117.730959,163,63,9,6,12,11,22,20,1008,86,1,20140805180000
374,"Gangcheng EPA, Laiwu",,36.066836,117.871823,158,66,7,19,41,27,22,20,1008,86,1,20140805180000
375,"City EPA, Laiwu",,36.228913,117.694797,137,67,5,17,12,18,22,20,1008,86,1,20140805180000
376,Laiwu,,36.213688,117.682612,163,107,9,20,41,27,22,20,1008,86,1,20140805180000
377,"Lunan Pharmaceutical Factory, Linyi",,35.061671,118.299527,124,60,21,9,7,11,24,24,0,96,2,20140805180000
378,"Yihe compound, Linyi",,35.056752,118.34739,112,53,21,17,4,9,24,24,0,96,2,20140805180000
379,"Linyi University, Linyi",,35.114777,118.293414,147,51,22,12,15,12,24,24,0,96,2,20140805180000
380,City EPA,Nanfang,35.104871,118.353518,149,55,26,14,16,10,24,24,0,96,2,20140805180000
381,"Xinguang woolen factory, Linyi",,34.981004,118.282,147,59,33,13,11,9,24,24,0,96,2,20140805180000
382,"Hongfu Baijiu Factory, Linyi",,34.998788,118.257275,117,59,25,13,8,14,24,24,0,96,2,20140805180000
384,"Hedong insurance company, Linyi",,35.089354,118.40812,155,62,21,17,11,7,24,24,0,96,2,20140805180000
385,"Jianghua vehicule center, Linyi",,35.010082,118.435749,132,67,15,15,19,15,24,24,0,96,2,20140805180000
386,Linyi,,35.10428,118.362202,155,67,33,17,19,15,24,24,0,96,2,20140805180000
387,"Heima group, Dezhou",,37.466063,116.314134,151,83,19,28,2,7,24,22,1007,83,1,20140805180000
388,"Monitoring station, Dezhou",,37.433107,116.377312,99,68,8,41,6,4,24,22,1007,83,1,20140805180000
389,"Supervision Station, Dezhou",,37.449689,116.324709,117,64,22,20,4,12,24,22,1007,83,1,20140805180000
390,"Huayu technical school, Dezhou",,37.462809,116.357559,78,54,27,16,5,10,24,22,1007,83,1,20140805180000
391,"Shuangyi group, Dezhou",,37.478848,116.316362,153,62,16,31,5,13,24,22,1007,83,1,20140805180000
392,Dezhou,,37.434959,116.363366,153,83,27,41,6,14,24,22,1007,83,1,20140805180000
393,"Dongchang District Government, Liaocheng",,36.444473,115.971733,95,54,23,16,9,16,24,21,1007,78,2,20140805180000
394,"Light Machinery Factory No. 2, Liaocheng",,36.456788,116.002383,122,78,25,17,9,14,24,21,1007,78,2,20140805180000
395,"City committee communist party school, Liaocheng",,36.479537,115.989288,89,48,19,15,3,12,24,21,1007,78,2,20140805180000
396,"Customs, Liaocheng",,36.431933,115.956974,124,56,24,17,7,14,24,21,1007,78,2,20140805180000
397,"Hongshun Garden, Liaocheng",,36.471124,115.960319,72,43,19,18,6,15,24,21,1007,78,2,20140805180000
398,"BDA, Liaocheng",,36.459407,116.043621,74,53,3,17,4,13,24,21,1007,78,2,20140805180000
399,Liaocheng,,36.456792,115.991051,124,65,25,18,9,16,24,21,1007,78,2,20140805180000
400,"City EPA, Binzhou",,37.38024,118.026895,129,54,18,8,18,14,23,21,1008,86,0,20140805180000
401,"Beizhong new school, Binzhou",,37.38374,117.988996,102,51,11,12,11,11,23,21,1008,86,0,20140805180000
402,"No.2 water factory, Binzhou",,37.36155,118.002648,127,109,10,10,7,12,23,21,1008,86,0,20140805180000
403,"Keling Chemical factory, Binzhou",,37.396138,117.943609,78,49,17,14,15,12,23,21,1008,86,0,20140805180000
404,"Yinhe logistics company, Binzhou",,37.356122,117.943326,99,56,7,25,45,9,23,21,1008,86,0,20140805180000
405,"Bilin compond, Binzhou",,37.36815,117.978964,127,60,14,8,9,10,23,21,1008,86,0,20140805180000
406,Binzhou,,37.382639,117.976606,129,109,18,25,45,14,23,21,1008,86,1,20140805180000
407,"Bureau of Meteorology, Heze",,35.248625,115.428775,151,50,34,7,10,10,25,20,0,72,3,20140805180000
408,"Sewage treatment plant, Heze",,35.222517,115.531511,93,54,30,6,8,11,25,20,0,75,3,20140805180000
409,"Municipal CPPCC, Heze",,35.237125,115.480591,104,43,31,7,18,11,25,20,0,75,3,20140805180000
410,"Huarun Pharmaceutical Company, Heze",,35.261463,115.524873,91,45,30,8,6,13,25,20,0,75,3,20140805180000
411,"Heze University, Heze",,35.269706,115.460934,165,75,39,6,8,15,28,21,0,64,4,20140805180000
412,Heze,,35.233354,115.486503,119,51,33,12,18,13,25,20,0,75,3,20140805180000
413,"Shiji Park, Shijiazhuang",,38.03155,114.547873,63,29,15,8,7,4,25,23,1007,89,2,20140805180000
414,"Xinan College, Shijiazhuang",,38.012764,114.473163,46,17,13,7,6,2,25,23,1007,89,2,20140805180000
415,"Chemical College, Shijiazhuang",,38.055503,114.569816,61,23,9,7,4,2,25,23,1007,89,2,20140805180000
416,"Worker hospital, Shijiazhuang",,38.051784,114.461209,25,18,21,6,3,2,25,23,1007,89,2,20140805180000
417,"Northwest Water Company, Shijiazhuang",,38.140638,114.508038,59,12,12,12,7,2,25,23,1007,89,2,20140805180000
418,"High-tech zone, Shijiazhuang",,38.040482,114.610775,53,88,13,5,2,3,25,23,1007,89,2,20140805180000
419,"Fenglong Montain, Shijiazhuang",,37.910829,114.360264,78,10,37,7,25,4,25,23,1007,89,2,20140805180000
1130,"Zhengding Unicom, Shijiazhuang",,38.159458,114.59879,171,126,12,56,14,6,25,23,1007,89,2,20140805180000
1131,"Luancheng Communications, Shijiazhuang",,37.906534,114.638785,168,122,24,31,50,5,25,23,1007,89,2,20140805180000
1132,"Gaocheng Experimental School, Shijiazhuang",,38.039518,114.867812,156,91,28,27,16,10,25,23,1007,89,2,20140805180000
1133,"Wuji EPA, Shijiazhuang",,38.17862,114.997012,178,98,28,29,13,9,25,23,1007,89,2,20140805180000
1134,"Shenze Power Supply Bureau, Shijiazhuang",,38.197674,115.219126,178,90,28,23,23,6,25,23,1007,89,2,20140805180000
1135,"Zhaoxian EPA, Shijiazhuang",,37.77171,114.775957,102,78,32,25,28,5,25,23,1007,89,2,20140805180000
1136,"Gaoyi County City Hall, Shijiazhuang",,37.623535,114.612729,99,87,26,24,13,7,24,23,1007,94,2,20140805180000
1137,"Zanhuang County City Hall, Shijiazhuang",,37.672898,114.398269,102,53,25,14,9,4,25,23,1007,89,2,20140805180000
1138,"Jingxing Bureau of Meteorology, Shijiazhuang",,38.038788,114.158406,89,58,14,21,11,7,25,23,1007,89,2,20140805180000
1139,"Pingshan Ye River, Shijiazhuang",,38.266657,114.210275,99,72,12,31,16,9,25,23,1007,89,2,20140805180000
420,Shijiazhuang,,38.042926,114.520834,171,126,22,56,14,6,25,23,1007,89,2,20140805180000
421,"No. 12 middle school, Tangshan",,39.659306,118.190271,102,64,6,22,28,11,-,-,0,-,-,20140805180000
422,"Ceramics Company, Tangshan",,39.669255,118.225185,153,40,29,12,9,5,24,20,1006,78,2,20140805180000
1089,"Xiaoshanzi Station, Tangshan",,39.631273,118.206223,-,-,-,-,-,-,-,-,0,-,-,20140805180000
423,"Commodities Bureau, Tangshan",,39.642301,118.191265,85,50,24,17,11,7,24,20,1006,78,2,20140805180000
424,"Leidazhanzi Station, Tangshan",,39.644375,118.150383,164,80,24,28,6,6,24,20,1006,78,2,20140805180000
425,"Supply and marketing cooperatives, Tangshan",,39.632334,118.17232,156,70,29,13,12,7,24,20,1006,78,2,20140805180000
1140,"Guye District City Hall, Tangshan",,39.741379,118.460246,157,102,24,30,12,14,24,20,1006,78,2,20140805180000
1141,"Kaiping Stations, Tangshan",,39.675246,118.275149,163,75,27,15,6,8,24,20,1006,78,2,20140805180000
1142,"Fengnan District City Hall, Tangshan",,39.5834,118.097454,165,72,33,32,5,10,24,20,1006,78,2,20140805180000
1143,"Fengrun City Hall, Tangshan",,39.840355,118.175338,151,91,42,22,9,13,25,19,1006,69,1,20140805180000
1144,"Qianxi EPA, Tangshan",,40.153339,118.317265,117,58,45,22,3,11,24,20,1006,78,2,20140805180000
1145,"Caofeidian Xinli  Primary School, Tangshan",,39.291232,118.462182,210,142,41,22,14,8,24,20,1006,78,2,20140805180000
1146,"Zunhua EPA, Tangshan",,40.206249,117.997315,154,114,30,31,11,9,24,20,1006,78,2,20140805180000
1147,"Qianan No.1 middle school, Tangshan",,40.004248,118.717055,160,100,23,39,9,29,24,20,1006,78,2,20140805180000
426,Tangshan,,39.632175,118.186472,165,80,37,32,12,10,24,20,1006,78,2,20140805180000
427,"City Monitoring Station, Qinhuangdao",,39.958109,119.607773,158,20,28,22,11,31,,,,,,20140805180000
428,"Beidaihe, Qinhuangdao",,39.829209,119.53194,154,77,17,40,47,31,,,,,,20140805180000
429,"Shanhai Pass, Qinhuangdao",,40.019298,119.767898,153,111,14,32,15,35,,,,,,20140805180000
430,"Contruction Plazz, Qinhuangdao",,39.943187,119.542912,162,109,30,27,24,31,,,,,,20140805180000
431,"City government, Qinhuangdao",,39.93711,119.612769,154,80,29,29,12,28,,,,,,20140805180000
598,Wuxi,,31.488746,120.31575,142,70,45,23,11,11,29,26,1004,84,4,20140805180000
1148,"Qinglong EPA, Qinhuangdao",,40.419223,118.958002,74,34,41,5,30,8,24,20,1006,78,2,20140805180000
1149,"Changli EPA, Qinhuangdao",,39.714369,119.173237,214,134,26,31,10,31,,,,,,20140805180000
432,Qinhuangdao,,39.936485,119.606263,162,109,30,40,47,31,24,20,1006,78,2,20140805180000
433,"CongTai Park, Handan",,36.620197,114.501891,122,91,9,13,27,13,24,21,1007,74,1,20140805180000
434,"City EPA, Handan",,36.618145,114.518822,175,59,12,29,29,15,24,21,1007,74,1,20140805180000
435,"East Sewage Factory, Handan",,36.616064,114.548714,132,80,21,8,13,8,24,21,1007,74,1,20140805180000
436,"Mine Hospital, Handan",,36.578149,114.509854,132,107,9,25,29,11,24,21,1007,74,1,20140805180000
1150,"Fengfeng mine Inland Revenue Department, Handan",,36.423085,114.245994,168,92,5,29,53,24,24,18,1008,61,1,20140805180000
1151,"Shexian EPA, Handan",,36.589084,113.692341,65,14,13,6,1,1,,,,,,20140805180000
1152,"Ci County Vocational Education Center, Handan",,36.380247,114.390119,137,70,12,58,73,16,,,,,,20140805180000
1153,"Yongnian government guesthouse, Handan",,36.783297,114.502905,151,59,11,20,15,5,24,21,1007,74,1,20140805180000
1154,"Wuan BDA, Handan",,36.686223,114.269009,57,90,4,1,53,34,,,,,,20140805180000
1085,Handan,,36.625683,114.544812,175,107,21,29,29,15,24,21,1007,74,1,20140805180000
437,"Road and Bridge Corporation, Xingtai",,37.096415,114.538799,99,78,9,29,3,5,24,21,1007,74,1,20140805180000
438,"Dahuo fontain, Xingtai",,37.097563,114.488001,163,61,15,26,4,5,24,21,1007,74,1,20140805180000
439,"Xingtai Normal College, Xingtai",,37.053404,114.531819,68,50,4,17,5,5,24,21,1007,74,1,20140805180000
440,"Environment protection office, Xingtai",,37.06253,114.490985,107,54,6,33,8,7,24,21,1007,74,1,20140805180000
1155,"Cultural centers within the mound, Xingtai",,37.293569,114.524873,-,-,-,-,-,-,-,-,0,-,-,20140805180000
383,Xingtai,,37.071066,114.510749,163,78,6,33,8,7,24,21,1007,74,1,20140805180000
441,"City Monitoring Station, Baoding",,38.871737,115.527103,153,70,36,5,9,21,24,23,1007,88,1,20140805180000
442,"Surface water Company, Baoding",,38.842891,115.467326,144,65,33,25,20,7,24,23,1007,88,1,20140805180000
443,"Huadian II, Baoding",,38.896748,115.528102,171,78,38,4,10,5,24,23,1007,88,1,20140805180000
444,"Reception Center, Baoding",,38.911905,115.477301,122,71,25,22,6,8,24,23,1007,88,1,20140805180000
445,"Film Factory, Baoding",,38.876949,115.448383,174,73,24,16,6,11,24,23,1007,88,1,20140805180000
446,"Natatorium, Baoding",,38.863815,115.499212,155,66,31,10,22,8,24,23,1007,88,1,20140805180000
1156,"Qingyuan City Hall, Baoding",,38.771758,115.502189,164,74,27,6,2,5,24,23,1007,88,1,20140805180000
1157,"Xushui EPA, Baoding",,39.025781,115.668023,164,111,14,4,14,9,24,23,1007,88,1,20140805180000
1158,"Zhouzhou Monitoring Stations, Baoding",,39.493241,116.040187,170,80,23,22,6,1,24,23,1007,88,1,20140805180000
1159,"Gaobeidian EPA, Baoding",,39.3329,115.885891,144,7,30,14,27,2,24,23,1007,88,1,20140805180000
447,Baoding,,38.874791,115.471124,174,81,38,22,22,21,24,23,1007,88,1,20140805180000
448,"Century Compound, Zhangjiakou",,40.770279,114.909106,17,13,8,7,7,1,23,9,1008,31,1,20140805180000
449,"North Pumping Station, Zhangjiakou",,40.874362,114.910119,63,10,34,5,18,8,23,9,1008,31,1,20140805180000
450,"Hardware Warehouse, Zhangjiakou",,40.81232,114.887119,9,9,14,12,13,11,23,9,1008,31,1,20140805180000
451,"Tanji Chang, Zhangjiakou",,40.796301,114.89811,46,11,22,5,39,3,23,9,1008,31,1,20140805180000
1160,"Xiahuayuan EPA, Zhangjiakou",,40.509345,115.302442,55,47,19,22,24,2,23,9,1008,31,1,20140805180000
1161,"Huaian EPA, Zhangjiakou",,40.68157,114.398646,63,22,28,14,18,0,23,9,1008,31,1,20140805180000
1162,"Huailai Fuqian Primary School, Zhangjiakou",,40.422204,115.530285,151,61,28,15,17,2,23,9,1008,31,1,20140805180000
452,Zhangjiakou,,40.825744,114.893659,70,25,34,12,39,11,23,9,1008,31,1,20140805180000
453,"Railway, Chengde",,40.917557,117.972331,63,55,12,19,3,7,24,17,1007,59,1,20140805180000
454,"Cultural Center, Chengde",,40.974625,117.824437,72,54,19,14,4,4,24,17,1007,59,1,20140805180000
455,"Bank of China, Chengde",,40.985582,117.958304,85,38,11,18,13,3,24,17,1007,59,1,20140805180000
456,"BDA, Chengde",,40.937567,117.969325,87,57,10,22,22,5,24,17,1007,59,1,20140805180000
457,"Ligong, Chengde",,41.012579,117.94428,237,99,12,11,1,4,24,17,1007,59,1,20140805180000
1163,"Chengde County EPA, Chengde",,40.776643,118.17646,93,72,12,17,2,6,24,17,1007,59,1,20140805180000
1164,"Xinglong County City Hall, Chengde",,40.424301,117.513488,89,35,33,10,1,5,24,17,1007,59,1,20140805180000
1165,"Luanping EPA, Chengde",,40.950792,117.350715,72,25,41,22,8,3,24,17,1007,59,1,20140805180000
1166,"Fengning County City Hall, Chengde",,41.216739,116.658037,93,37,16,1,6,5,24,17,1007,59,1,20140805180000
458,Chengde,,40.955652,117.968737,237,99,19,22,22,7,24,17,1007,59,1,20140805180000
459,"Municipal EPB, Cangzhou",,38.323507,116.876746,107,66,33,15,2,5,24,20,1006,78,2,20140805180000
460,"Cangxian Urban Construction Bureau, Cangzhou",,38.299495,116.890734,107,87,23,35,1,5,24,20,1006,78,2,20140805180000
461,"TV Broadcast Station, Cangzhou",,38.325525,116.863761,93,51,26,10,5,4,24,20,1006,78,2,20140805180000
1167,"Qing County City Hall, Cangzhou",,38.589643,116.815876,147,37,9,33,3,1,24,20,1006,78,2,20140805180000
1168,"Poyoushi City Hall, Cangzhou",,38.089516,116.590575,137,66,1,10,16,3,24,20,1006,78,2,20140805180000
1169,"Huanghua Finance Bureau Training Center, Cangzhou",,38.377793,117.343356,184,58,37,17,32,2,24,20,1006,78,2,20140805180000
462,Cangzhou,,38.305035,116.844625,107,87,33,35,4,5,24,20,1006,78,2,20140805180000
463,"Environmental Monitoring Supervision Center, Langfang",,39.558157,116.720995,95,61,40,15,5,6,25,20,1006,74,1,20140805180000
464,"TCM Medical Material Company, Langfang",,39.519096,116.689914,134,76,30,13,5,5,25,20,1006,74,1,20140805180000
465,"BDA, Langfang",,39.576175,116.779041,142,61,33,16,6,3,25,20,1006,74,1,20140805180000
466,"North China Institute of Aerospace, Langfang",,39.53517,116.743027,122,64,29,17,8,7,25,20,1006,74,1,20140805180000
1170,"Guan Party School, Langfang",,39.446185,116.311026,156,64,33,23,10,4,25,20,1006,74,1,20140805180000
1171,"Xianghe EPA, Langfang",,39.76725,117.015252,183,91,43,25,6,4,25,20,1006,74,1,20140805180000
1172,"Wenan County EPA, Langfang",,38.880927,116.47001,134,63,40,8,10,4,25,20,1006,74,1,20140805180000
1173,"Three Rivers Department of Transportation, Langfang",,39.989419,117.091528,156,95,34,35,6,4,25,20,1006,74,1,20140805180000
467,Langfang,,39.539148,116.689668,142,76,33,17,8,7,25,20,1006,74,1,20140805180000
468,"Hengshui City EPB, Hengshui",,37.739679,115.695929,154,57,33,8,5,5,24,20,0,79,1,20140805180000
469,"Environmental Monitoring Station, Hengshui",,37.738593,115.648837,161,87,33,19,4,5,24,20,0,79,1,20140805180000
470,"Electrical Machine North Factory, Hengshui",,37.758686,115.70094,72,78,38,12,7,6,24,20,0,79,1,20140805180000
1174,"Anping EPA, Hengshui",,38.238559,115.537988,173,72,27,17,12,4,24,20,0,79,1,20140805180000
1175,"Jizhou EPA, Hengshui",,37.548552,115.58679,154,55,27,16,6,6,24,20,0,79,1,20140805180000
471,Hengshui,,37.739562,115.676066,161,87,38,19,7,6,24,20,0,79,1,20140805180000
1176,"Xinji City Hall, Xinji",,37.949711,115.230084,177,94,25,22,7,7,24,20,0,79,1,20140805180000
472,"Fukang road, Tianjin",,39.098136,117.157621,151,94,33,34,20,13,25,20,1006,74,1,20140805180000
473,"Nankou road, Tianjin",,39.174022,117.199688,155,77,33,38,13,17,24,20,1006,78,2,20140805180000
474,"Qinjian street, Tianjin",,39.166588,117.15104,164,102,25,41,15,14,25,20,1006,74,1,20140805180000
475,"Nanjing Road, Tianjin",,39.120958,117.195112,151,79,37,23,13,16,25,20,1006,74,1,20140805180000
476,"Dazhigu No.8 road, Tianjin",,39.111811,117.25147,112,71,31,20,6,18,25,20,1006,74,1,20140805180000
477,"Qianjin street, Tianjin",,39.09371,117.207981,144,78,27,29,18,12,25,20,1006,74,1,20140805180000
478,"Huaihe street, Tianjin",,39.227167,117.191293,170,122,25,53,8,13,25,20,1006,74,1,20140805180000
479,"Xiangshan street, Tianjin",,39.134752,117.275125,163,81,30,16,10,18,25,20,1006,74,1,20140805180000
480,"Yuejin Road, Tianjin",,39.088177,117.320884,166,104,31,44,6,13,24,20,1006,78,2,20140805180000
481,"Zhujiang street, Tianjin",,39.064463,117.231268,-,-,-,-,-,-,-,-,0,-,-,20140805180000
482,"No.4 street, Tianjin",,39.035228,117.713424,163,82,31,44,7,15,25,20,1006,74,1,20140805180000
483,"Yongming road, Tianjin",,38.840392,117.463805,155,68,45,14,7,16,24,20,1006,78,2,20140805180000
484,"Xinhua street, Tianjin",,39.138671,117.010083,158,91,28,25,11,14,25,20,1006,74,1,20140805180000
485,"Jingu Road, Tianjin",,38.985659,117.381254,160,84,38,12,7,10,25,20,1006,74,1,20140805180000
486,"Tanggu Yingkou street, Tianjin",,39.021768,117.656454,157,72,53,28,9,14,25,20,1006,74,1,20140805180000
487,"Hexi Yijing road, Tianjin",,39.248392,117.798043,175,80,30,38,7,14,25,20,1006,74,1,20140805180000
488,"Jianshe Road, Tianjin",,39.720075,117.310588,155,79,32,23,3,22,25,20,1006,74,1,20140805180000
489,"Quanzhou South road, Tianjin",,39.373857,117.050329,154,62,14,6,6,12,25,20,1006,74,1,20140805180000
490,"Donghuan road, Tianjin",,40.043144,117.451062,151,87,21,42,3,14,25,20,1006,74,1,20140805180000
491,"Tuanpowa, Tianjin",,38.920418,117.16299,155,65,40,13,7,22,25,20,1006,74,1,20140805180000
493,"Beiwei No.2 road, Tianjin",,38.943857,116.920624,154,57,40,23,28,13,25,20,1006,74,1,20140805180000
494,"Haitai fazhan No.2 road, Tianjin",,39.079608,117.096583,159,73,20,28,2,23,25,20,1006,74,1,20140805180000
495,"Hangtian road, Tianjin",,39.152244,117.381309,161,84,18,49,5,16,25,20,1006,74,1,20140805180000
496,"Hanbei road, Tianjin",,39.159768,117.770477,165,85,28,34,9,17,25,20,1006,74,1,20140805180000
497,"Baobai highway, Tianjin",,39.51757,117.349635,156,80,24,10,5,8,25,20,1006,74,1,20140805180000
498,Tianjin,,39.085164,117.207281,151,78,32,30,17,18,24,20,1006,78,2,20140805180000
499,"Wolong bridge, Hangzhou",,30.24371,120.132762,153,64,16,9,2,7,29,25,1003,79,1,20140805180000
500,"Hemu primary school, Hangzhou",,30.309669,120.124507,159,66,31,19,3,10,29,25,1003,79,1,20140805180000
501,"Zhejiang Agricultural University, Hangzhou",,30.265601,120.197583,155,84,10,33,3,12,29,25,1003,79,1,20140805180000
502,"Xiasha, Hangzhou",,30.303516,120.352618,166,80,32,35,9,5,29,25,1003,79,1,20140805180000
503,"Yunqi, Hangzhou",,30.178555,120.093142,124,62,18,8,4,6,29,25,1003,79,1,20140805180000
504,"Xixi, Hangzhou",,30.272425,120.068144,152,58,12,24,3,11,29,25,1003,79,1,20140805180000
505,"Chengxiang town, Hangzhou",,30.179493,120.274184,157,75,17,21,5,9,29,25,1003,79,1,20140805180000
506,"Qiandao lake, Hangzhou",,29.638139,119.031092,70,34,24,4,3,8,29,25,1003,79,1,20140805180000
507,"Linping town, Hangzhou",,30.415948,120.305059,155,63,37,22,6,6,29,25,1003,79,1,20140805180000
509,"No.2 Middle School, Hangzhou",,30.044303,119.956356,151,66,11,15,12,9,29,25,1003,79,1,20140805180000
510,"City Hall, Hangzhou",,30.234185,119.723503,139,75,41,15,18,8,29,25,1003,79,1,20140805180000
511,"No. 4 middle school, Hangzhou",,30.229428,119.699591,119,56,16,8,6,9,29,25,1003,79,1,20140805180000
512,Hangzhou,,30.271756,120.159765,167,84,31,38,4,13,29,25,1003,79,1,20140805180000
513,"City Station, Wenzhou",,28.009715,120.679129,61,31,12,16,4,7,24,23,0,95,0,20140805180000
514,"Ouhai, Wenzhou",,28.001846,120.641982,82,47,7,22,3,10,24,23,0,95,0,20140805180000
515,"Longwan, Wenzhou",,27.968122,120.768393,70,37,19,16,2,5,24,23,0,95,0,20140805180000
516,"Nanpu, Wenzhou",,27.981763,120.683685,68,40,10,12,2,12,24,23,0,95,0,20140805180000
517,Wenzhou,,27.990985,120.703425,82,47,19,22,4,12,24,23,0,95,0,20140805190000
518,"Monitoring station, Jiaxing",,30.75437,120.767373,70,35,23,17,3,7,28,25,1003,84,5,20140805190000
519,"Jiaxing University, Jiaxing",,30.745099,120.735004,107,50,28,12,1,3,28,25,1003,84,5,20140805190000
520,"Qinghe Primary School, Jiaxing",,30.775685,120.747969,59,43,24,19,8,3,28,25,1003,84,5,20140805190000
521,Jiaxing,,30.751627,120.762862,107,50,28,19,8,7,28,25,1003,84,5,20140805190000
522,"Chengbei water plant, Huzhou",,30.891155,120.096593,147,72,34,20,9,7,28,25,1003,84,5,20140805190000
523,"Jishan new village, Huzhou",,30.859939,120.120168,68,69,34,19,11,10,28,25,1003,84,5,20140805190000
524,"Town west water plant, Huzhou",,30.862371,120.084577,122,74,32,16,10,7,28,25,1003,84,5,20140805190000
525,Huzhou,,30.892304,120.091694,147,74,34,20,11,10,28,25,1003,84,5,20140805190000
526,"Donghu middle school, Shaoxing",,29.990447,120.647547,85,35,-,8,13,3,29,25,1003,79,2,20140805190000
527,"City EPA station, Shaoxing",,30.001695,120.584318,107,52,41,14,7,5,29,25,1003,79,1,20140805190000
528,"Chengdong BDA committee, Shaoxing",,29.986643,120.613578,74,24,40,2,9,2,29,25,1003,79,1,20140805190000
529,"Paojiang station, Shaoxing",,30.07574,120.62154,82,40,43,14,11,6,29,25,1003,79,2,20140805190000
530,"Shaoxing technical school, Shaoxing",,29.930983,120.577131,82,40,11,4,2,4,29,25,1003,79,2,20140805190000
531,"Library, Shaoxing",,29.706266,120.253183,104,54,27,10,4,15,29,25,1003,79,2,20140805190000
532,"Transporation management station, Shaoxing",,29.726405,120.221602,102,55,31,5,6,18,29,25,1003,79,2,20140805190000
533,"Dongpu Town Governement, Shaoxing",,30.049601,120.539893,152,62,31,24,39,8,29,25,1003,79,2,20140805190000
534,Shaoxing,,29.993122,120.590182,107,24,41,14,9,5,29,25,1003,79,1,20140805190000
535,"City Monitoring Station, Jinhua",,29.100031,119.690373,102,38,38,13,6,6,24,24,0,95,2,20140805190000
536,"No.15 middle school, Jinhua",,29.074022,119.652121,85,31,39,5,4,6,24,24,0,95,2,20140805190000
537,"No.4 middle school, Jinhua",,29.110109,119.653654,89,32,36,12,7,7,24,24,0,95,2,20140805190000
538,"Beiyuan, Jinhua",,29.332898,120.083351,117,61,25,22,18,9,24,24,0,95,2,20140805190000
539,"Jiangdong, Jinhua",,29.302486,120.095291,102,51,25,17,17,10,24,24,0,95,2,20140805190000
597,"Yuhong Elementary School , Wuxi",,31.561155,120.249588,132,68,37,15,11,8,28,25,1003,84,5,20140805190000
540,Jinhua,,29.076083,119.65215,102,38,39,13,7,7,24,24,0,95,2,20140805190000
541,"EPA building, Quzhou",,28.937291,118.876081,114,49,16,23,21,8,26,25,1003,92,0,20140805190000
542,"Experimental school, Quzhou",,28.961502,118.880916,104,35,14,20,10,7,27,25,1004,89,1,20140805190000
543,"Quzhou University, Quzhou",,28.971452,118.860052,87,39,14,19,8,5,26,25,1003,92,0,20140805190000
544,Quzhou,,28.966994,118.864252,114,49,16,23,21,8,26,25,1003,92,0,20140805190000
545,"Putuo east port, Zhoushan",,29.951412,122.317679,13,18,6,9,3,9,28,26,1003,89,3,20140805190000
546,"Dinghai tanfeng, Zhoushan",,30.018014,122.126566,34,14,19,8,2,3,28,26,1003,89,3,20140805190000
547,Zhoushan,,29.983049,122.210763,34,18,19,9,3,9,28,26,1003,89,3,20140805190000
548,"Taizhou EPA building, Taizhou",,28.651216,121.42331,42,22,16,3,1,6,25,24,0,95,1,20140805190000
549,"Luqiao Tian Yang Wang, Taizhou",,28.574364,121.381194,38,21,15,4,2,4,25,24,0,95,1,20140805190000
550,"Huangyan EPA building, Taizhou",,28.656151,121.285064,57,22,16,4,2,13,25,24,0,95,1,20140805190000
551,"Yu Zhuang Qian, Lishui",,28.419638,119.883884,93,34,35,22,7,3,29,25,1005,76,1,20140805190000
552,"Monitoring station building, Lishui",,28.444379,119.923103,107,43,27,12,4,3,29,25,1005,76,1,20140805190000
553,"Liandu primary school, Lishui",,28.450912,119.939332,147,53,23,14,2,5,29,25,1005,76,1,20140805190000
554,Lishui,,28.464224,119.927201,147,53,35,22,7,5,29,25,1005,76,1,20140805190000
555,Taigu Primary School,,29.858177,121.593738,46,17,15,7,4,5,28,26,1003,89,3,20140805190000
556,Qianhu shuihan,,29.862459,121.5328,53,20,12,10,4,5,28,26,1003,89,3,20140805190000
557,Sanjiang secondary schools,,29.884687,121.562713,57,29,11,12,3,5,28,26,1003,89,3,20140805190000
558,Longsai Hospital,,29.949294,121.720671,34,12,16,6,3,5,28,26,1003,89,3,20140805190000
559,Beilun District EPB,,29.899544,121.827597,46,16,14,2,3,4,28,26,1003,89,3,20140805190000
560,Wanli University,,29.896155,121.541154,46,21,15,8,5,4,28,26,1003,89,3,20140805190000
561,Qianhu water plant,,29.788156,121.652415,46,15,11,4,4,4,28,26,1003,89,3,20140805190000
562,Municipal management station,,29.893743,121.620269,30,23,14,6,3,4,28,26,1003,89,3,20140805190000
1177,Daxie Literary Museum,,29.891281,121.952741,46,13,15,7,2,4,28,26,1003,89,3,20140805190000
1178,Cixi EPB,,30.159852,121.242331,70,25,22,5,3,7,28,26,1003,89,3,20140805190000
1179,Cixi Experimently Primary School,,30.174341,121.262169,70,30,24,4,3,7,28,26,1003,89,3,20140805190000
1180,"Yongsan Park, Yuyao",,30.045532,121.157602,-,-,-,-,-,-,-,-,0,-,-,20140805190000
1181,"Qilupu Water Company, Yuyao",,30.039112,121.133416,-,-,-,-,-,-,-,-,0,-,-,20140805190000
1182,Fenghua EPB,,29.660537,121.414074,-,-,-,-,-,-,-,-,0,-,-,20140805190000
1183,"Yuelong station, Ninghai",,29.290223,121.439263,91,15,14,6,4,5,28,26,1003,89,3,20140805190000
1184,"Wenfeng Primary School, Xiangshan",,29.470841,121.895054,46,15,13,2,3,5,28,26,1003,89,3,20140805190000
1185,"Chengnan Primary School, Ninghai",,29.282647,121.428839,68,10,24,3,4,5,28,26,1003,89,3,20140805190000
1186,"Xingang Primary School, Xiangshan",,29.199718,121.935879,30,14,17,4,3,5,28,26,1003,89,3,20140805190000
1187,Fuyang,,30.046157,119.96468,152,69,10,13,18,9,29,24,1002,74,2,20140805190000
1188,Yiwu,,29.304353,120.079794,119,62,20,25,25,10,-,-,0,-,-,20140805190000
1189,Zhuji,,29.711185,120.240748,104,55,28,10,7,18,29,24,1002,74,2,20140805190000
563,"Shanxi Road , Nanjing",,32.06795,118.779216,155,76,26,17,18,7,29,27,1002,89,1,20140805190000
564,"Ruijin Road , Nanjing",,32.029321,118.80817,160,67,27,14,16,10,29,27,1002,89,1,20140805190000
565,"Xuanwu Lake, Nanjing",,32.075423,118.800188,156,72,37,12,17,8,28,27,1002,94,1,20140805190000
566,"Olympic Center, Nanjing",,32.007171,118.742217,158,77,23,7,3,9,29,27,1002,89,1,20140805190000
567,"Xianlin University Town , Nanjing",,32.106958,118.919882,149,72,28,7,6,10,29,27,1002,89,1,20140805190000
568,Nanjing,,32.058179,118.802061,158,65,25,18,11,13,29,27,1002,89,1,20140805190000
569,"Shangfang hill , Suzhou",,31.24502,120.565211,53,54,46,13,5,5,28,26,1003,89,5,20140805190000
570,"Wuzhong District , Suzhou",,31.268105,120.61717,65,89,18,17,2,4,28,25,1003,84,4,20140805190000
571,"Suzhou New District , Suzhou",,31.297277,120.547262,76,55,32,13,13,7,28,25,1003,84,4,20140805190000
572,"Suzhou Industrial Area, Suzhou",,31.307603,120.673257,-,-,-,-,-,-,-,-,0,-,-,20140805190000
573,"Xiangcheng district, Suzhou",,31.368674,120.645209,91,51,37,17,8,7,28,26,1003,89,5,20140805190000
574,Suzhou,,31.296701,120.589493,155,35,41,18,12,8,28,25,1003,84,5,20140805190000
575,"South suburb , Nantong",,31.957836,120.917218,119,59,28,14,10,3,25,25,1003,99,2,20140805190000
576,"Xinghu park, Nantong",,31.927873,120.944254,82,53,24,17,11,6,25,25,1003,99,2,20140805190000
577,"Zilang school, Nantong",,32.039638,120.814358,129,47,25,25,11,0,25,25,1003,99,2,20140805190000
578,Nantong,,31.978005,120.898555,117,79,25,25,14,6,25,25,1003,99,2,20140805190000
579,Lianyungang,,34.595509,119.226814,152,84,21,27,10,7,8,8,1016,96,0,20140805190000
580,"Hongmen police substation, Lianyungang",,34.588692,119.146693,117,57,41,18,16,8,26,23,1005,81,4,20140805190000
581,"Xugou Nuclear Expert Village , Lianyungang",,34.749957,119.373707,97,46,39,5,2,5,26,23,1005,81,4,20140805190000
582,"Hengrui pharmaceutical company, BDA, Lianyungang",,34.697574,119.353668,160,135,34,18,5,7,26,23,1005,81,4,20140805190000
583,"City Monitoring Station, Lianyungang",,34.586791,119.186929,93,64,48,12,9,10,26,23,1005,81,4,20140805190000
584,"Yellow river new village , Xuzhou",,34.271542,117.177241,127,77,10,20,24,16,27,25,1004,85,1,20140805190000
585,"Tongshan Veterinary Hospital , Xuzhou",,34.307086,117.197766,159,83,17,29,18,13,27,25,1005,89,1,20140805190000
586,"New Town , Xuzhou",,34.213992,117.261718,162,79,24,8,7,12,27,25,1005,89,1,20140805190000
587,"Taoyuan road, Xuzhou",,34.289822,117.249721,151,69,15,14,14,0,27,25,1004,85,1,20140805190000
588,"Agricultural Science Academy , Xuzhou",,34.27655,117.299079,137,68,19,12,17,12,27,25,1004,85,1,20140805190000
589,"Tongshan EPA, Xuzhou",,34.179384,117.171798,134,89,17,7,21,13,27,25,1004,85,1,20140805190000
590,Xuzhou,,34.20346,117.289825,155,79,21,6,24,16,27,25,1004,85,1,20140805190000
591,Yangzhou,,32.39233,119.418446,159,69,10,19,10,5,11,9,0,90,6,20140805190000
592,"Hanjiang Monitoring Station, Yangzhou",,32.374218,119.394484,134,75,19,12,40,7,24,24,0,95,2,20140805190000
593,"No. 4 Hospital, Yangzhou",,32.401394,119.44444,132,99,18,9,6,3,24,24,0,95,2,20140805190000
594,"City Monitoring Station, Yangzhou",,32.406588,119.41591,122,53,22,12,34,5,24,24,0,95,2,20140805190000
595,"University Town , Wuxi",,31.484752,120.273571,134,51,32,17,11,5,28,25,1003,84,5,20140805190000
596,"Shibei High School , Wuxi",,31.619969,120.279584,112,62,47,11,11,5,28,26,1003,89,5,20140805190000
599,Changzhou,,31.808037,119.979205,172,86,6,22,36,13,11,9,0,88,5,20140805190000
600,"Chengjian School, Changzhou",,31.776476,119.937681,153,69,30,24,10,8,25,25,1003,98,2,20140805190000
601,"Changzhou Engineering Institute , Changzhou",,31.806828,119.966724,158,72,33,33,8,6,25,25,1003,98,2,20140805190000
602,"Wujin Monitoring Station, Changzhou",,31.701788,119.939676,147,71,34,17,12,7,25,25,1003,98,2,20140805190000
603,"City Monitoring Station, Changzhou",,31.777201,119.979426,158,79,29,27,20,8,25,25,1003,98,2,20140805190000
604,Zhenjiang,,32.18597,119.431281,170,79,4,39,15,13,9,8,0,93,5,20140805190000
605,"New District Administrative office , Zhenjiang",,32.186174,119.685021,154,70,20,25,15,15,29,27,1002,89,1,20140805190000
606,"Vocational Education Center , Zhenjiang",,32.212973,119.496253,102,74,14,30,13,9,29,27,1002,89,1,20140805190000
607,"Dantu Monitoring Station , Zhenjiang",,32.130026,119.435432,153,90,31,16,16,9,29,27,1002,89,1,20140805190000
608,"City Monitoring Station, Zhenjiang",,32.202178,119.439766,112,81,26,18,19,14,29,27,1002,89,1,20140805190000
609,"Gaogang Adminstrative office , Taizhoushi",,32.300768,119.886757,152,59,10,9,10,6,24,24,0,95,2,20140805190000
610,"Students Innovation Park , Taizhoushi",,32.461672,119.892761,137,54,29,4,9,4,24,24,0,95,2,20140805190000
611,Taizhoushi,,32.453555,119.927852,152,66,26,10,15,8,24,24,0,95,2,20140805190000
612,"Yancheng power station , Yancheng",,33.400859,120.123067,114,40,30,6,5,4,-,-,0,-,-,20140805190000
613,Yancheng,,33.345939,120.168504,144,52,30,5,3,7,11,10,1016,95,4,20140805190000
614,"Wenfeng Middle School , Yancheng",,33.370531,120.134041,89,43,15,14,3,5,-,-,0,-,-,20140805190000
615,"BDA Management Committe, Yancheng",,33.393191,120.22978,74,47,26,11,3,5,-,-,0,-,-,20140805190000
616,"City Monitoring Station, Yancheng",,33.390623,120.164423,109,75,23,10,8,4,24,24,0,95,2,20140805190000
617,Suqian,,33.960666,118.281004,160,87,24,7,5,7,11,10,0,91,6,20140805190000
618,"Suqian College , Suqian",,33.951472,118.298523,63,23,48,10,3,9,26,25,0,95,2,20140805190000
619,"Suqian Middle School , Suqian",,33.95784,118.249505,65,40,32,6,3,8,26,25,0,95,2,20140805190000
620,"Suyu District Environmental Protection Agency , Suqian",,33.94932,118.326569,65,68,39,1,2,5,25,25,0,96,2,20140805190000
621,"City Monitoring Station, Suqian",,33.956982,118.277022,104,71,41,1,5,9,26,25,0,95,2,20140805190000
622,Taizhou,,28.653436,121.425185,57,23,16,4,2,13,24,24,0,96,1,20140805190000
623,Donghu Liyuan,,30.572324,114.377844,134,57,29,14,15,6,29,25,1003,79,2,20140805190000
624,Yuehu Lake,,30.554662,114.256937,89,29,16,26,6,5,29,25,1003,79,2,20140805190000
625,Hankou Huaqiao ,,30.61724,114.287652,76,53,17,22,3,8,29,25,1003,79,2,20140805190000
626,Wuchang Ziyang ,,30.530801,114.309438,93,32,25,16,9,5,29,25,1003,79,2,20140805190000
627,Qingshan Ganghua,,30.622435,114.375599,80,73,21,29,9,11,29,25,1003,79,2,20140805190000
628,Dunkou Xinou,,30.480091,114.162176,102,74,14,28,8,6,29,25,1003,79,2,20140805190000
629,Donghu Gaoxin,,30.48095,114.40724,89,52,19,21,4,6,29,25,1003,79,2,20140805190000
630,Wujianshan,,30.63114,114.135907,25,58,14,14,0,6,29,25,1003,79,2,20140805190000
631,Yuanshun Road,,30.297142,113.858587,82,15,17,8,3,6,29,25,1003,79,2,20140805190000
632,Wuhan,,30.591973,114.306887,134,73,29,29,15,11,29,25,1003,79,2,20140805190000
1190,"Silingsan Factory, Yichang",,30.713288,111.306585,124,58,20,11,14,7,28,26,1002,81,2,20140805190000
633,Yichang,,30.689528,111.292131,155,80,22,14,18,11,28,26,1002,81,2,20140805190000
633,Yichang,,30.689528,111.292131,155,80,22,14,18,11,28,26,1002,81,2,20140805190000
1191,"City Library , Jingzhou",,30.31494,112.260844,122,46,23,13,13,11,29,27,1002,81,1,20140805190000
1192,"City committee communist party school, Jingzhou",,30.35054,112.20743,112,71,20,13,6,12,29,27,1002,81,1,20140805190000
1193,"kerong EPA, Jingzhou",,30.302965,112.29443,114,62,19,12,9,9,29,27,1002,81,1,20140805190000
634,Jingzhou,,30.332608,112.245451,122,71,23,13,13,12,29,27,1002,81,1,20140805190000
634,Jingzhou,,30.332608,112.245451,122,71,23,13,13,12,29,27,1002,81,1,20140805190000
635,Huangshi,,30.19723,115.043908,152,67,29,23,8,0,28,25,1005,92,1,20140805190000
635,Huangshi,,30.19723,115.043908,152,67,29,23,8,0,28,25,1005,92,1,20140805190000
1194,"Chenjiaying, Huangshi",,30.232823,115.067923,127,59,,8,2,0,28,,1005,92,1,20140805190000
1195,"Chenjiawan , Huangshi",,30.200422,115.082138,129,63,,12,2,0,28,,1005,92,1,20140805190000
1196,"Xinxialu, Huangshi",,30.17332,114.954357,114,67,,23,8,0,28,,1005,92,1,20140805190000
1197,"Tie montian, Huangshi",,30.203885,114.906439,144,65,,12,1,0,28,,1005,92,1,20140805190000
1198,"BDA, Huangshi",,30.207491,115.031739,152,66,,8,1,0,28,,1005,92,1,20140805190000
636,Shiyan,,32.627208,110.803311,68,33,20,6,7,0,25,26,939,84,2,20140805190000
636,Shiyan,,32.627208,110.803311,68,33,20,6,7,0,25,26,939,84,2,20140805190000
1199,"Wudang Mountain , Shiyan",,32.392921,111.047655,5,2,,1,1,0,24,,954,94,2,20140805190000
1200,"Riverside Village , Shiyan",,32.647286,110.785335,53,27,,6,1,0,25,,939,84,2,20140805190000
1201,"Liujiagou , Shiyan",,32.636732,110.731129,68,27,,1,1,0,25,,939,84,2,20140805190000
1202,"Yunyang County District automatic air station , Shiyan",,32.833065,110.816809,95,53,,1,2,0,25,,939,84,2,20140805190000
637,Xiangyang,,32.007029,112.128496,-,-,,-,-,-,-,,0,-,-,20140805190000
637,Xiangyang,,32.007029,112.128496,-,-,,-,-,-,-,,0,-,-,20140805190000
638,Ezhou,,30.389244,114.899884,117,76,29,4,3,0,29,25,1011,86,1,20140805190000
638,Ezhou,,30.389244,114.899884,117,76,29,4,3,0,29,25,1011,86,1,20140805190000
1203,"City government, Ezhou",,30.391836,114.892822,82,37,,3,1,0,29,,1011,86,1,20140805190000
1204,"Zhaojiaba, Ezhou",,30.368966,114.90365,117,76,,3,3,0,29,,1011,86,1,20140805190000
1205,"Fankou BDA, Ezhou",,30.410759,114.818225,104,60,,6,1,0,29,,1011,86,1,20140805190000
639,Jingmen,,31.033208,112.205093,1,-,24,-,-,12,-,27,0,-,-,20140805190000
639,Jingmen,,31.033208,112.205093,1,-,24,-,-,12,-,27,0,-,-,20140805190000
640,Xiaogan,,30.922089,113.922387,109,49,29,4,1,0,29,25,1003,79,2,20140805190000
640,Xiaogan,,30.922089,113.922387,109,49,29,4,1,0,29,25,1003,79,2,20140805190000
1206,"wenhua street, Shenyang , Xiaogan",,30.925856,113.92104,107,-,14,4,1,0,29,25,1003,79,2,20140805190000
1207,"Dongcheng District , Huludao , Xiaogan",,30.917963,113.943904,109,49,14,1,1,0,29,25,1003,79,2,20140805190000
641,Huanggang,,30.45124,114.877378,63,28,29,2,4,0,29,25,1011,86,1,20140805190000
641,Huanggang,,30.45124,114.877378,63,28,29,2,4,0,29,25,1011,86,1,20140805190000
1208,"Dazhou Island, Huanggang",,30.446205,114.900323,-,-,,-,-,-,-,,0,-,-,20140805190000
1209,"Workers Center , Huanggang",,30.469244,114.912504,63,28,,2,4,0,29,,1011,86,1,20140805190000
642,Xianning,,29.838978,114.327898,87,44,29,1,1,0,26,25,978,91,1,20140805190000
642,Xianning,,29.838978,114.327898,87,44,29,1,1,0,26,25,978,91,1,20140805190000
1210,"Municipal Development and Reform Commission , Xianning",,29.818645,114.328461,80,40,,1,1,0,26,,978,91,1,20140805190000
1211,"Xianan District Governement, Xianning",,29.51107,114.181864,70,39,,2,5,0,26,,987,92,1,20140805190000
1212,"Yangtze River Industrial Park , Xianning",,29.883098,114.32909,87,43,,1,1,0,26,,978,91,1,20140805190000
1213,"Qianshan Park, Xianning",,29.815351,114.328689,87,44,,1,1,-,26,,978,91,1,20140805190000
643,Suizhou,,31.688342,113.388675,161,-,,-,-,0,-,,0,-,-,20140805190000
643,Suizhou,,31.688342,113.388675,161,-,,-,-,0,-,,0,-,-,20140805190000
644,Enshi,,30.269587,109.493042,104,-,57,-,-,23,-,26,0,-,-,20140805190000
644,Enshi,,30.269587,109.493042,104,-,57,-,-,23,-,26,0,-,-,20140805190000
645,Xiantao,,30.360228,113.460616,161,-,28,-,-,0,-,27,0,-,-,20140805200000
645,Xiantao,,30.360228,113.460616,161,-,28,-,-,0,-,27,0,-,-,20140805200000
646,Qianjiang,,30.399387,112.905661,1,-,24,-,-,12,-,27,0,-,-,20140805200000
646,Qianjiang,,30.399387,112.905661,1,-,24,-,-,12,-,27,0,-,-,20140805200000
647,Tianmen,,30.661027,113.172549,161,-,24,-,-,0,-,27,0,-,-,20140805200000
647,Tianmen,,30.661027,113.172549,161,-,24,-,-,0,-,27,0,-,-,20140805200000
1088,Shennongjia,,31.741307,110.685554,161,-,10,-,-,0,-,26,0,-,-,20140805200000
1088,Shennongjia,,31.741307,110.685554,161,-,10,-,-,0,-,26,0,-,-,20140805200000
1214,"Xiangcheng Yundong Street, Xiangfan",,32.017716,112.16102,-,-,,-,-,-,-,,0,-,-,20140805200000
655,"City Environmental Monitoring Station, Baotou",,40.657201,109.886738,50,38,16,12,7,4,,,,,,20140805200000
656,"Donghe EPB, Baotou",,40.586213,110.002224,139,103,8,30,27,18,,,,,,20140805200000
657,"Baotou shopping mall, Baotou",,40.508334,109.819085,74,52,21,7,4,8,,,,,,20140805200000
658,"Huilong logistics, Baotou",,40.633436,109.879821,61,55,18,12,5,5,,,,,,20140805200000
659,Baotou,,40.658597,109.846051,139,103,21,30,27,18,17,11,1010,59,1,20140805200000
660,"Huatai Automobile Mall, Eerduosi",,39.837048,109.972209,65,36,46,12,5,6,17,11,1010,59,1,20140805200000
661,"Olympus Garden, Eerduosi",,39.789171,109.987742,53,29,48,6,5,5,17,11,1010,59,1,20140805200000
662,Eerduosi,,39.609284,109.78704,76,47,49,18,35,9,17,11,1010,59,1,20140805200000
663,"Tianyi Road, Chifeng",,42.275552,118.88507,21,5,38,7,11,10,19,9,1008,39,3,20140805200000
664,"Songshan No.1 Middle School, Chifeng",,42.329307,118.793045,34,52,34,12,3,11,19,9,1008,39,3,20140805200000
665,"Hada Street, Chifeng",,42.280714,118.988235,42,40,17,6,7,5,19,9,1008,39,3,20140805200000
666,"Songshan Road, Chifeng",,42.171487,118.89501,53,54,43,8,10,3,19,9,1008,39,3,20140805200000
667,Chifeng,,42.259752,118.893027,53,54,43,12,11,11,19,9,1008,39,3,20140805200000
674,Fuzhou,,26.071406,119.301294,65,56,101,22,2,11,27,25,1003,89,1,20140805200000
675,"Xidong, Xiamen",,24.815345,118.161848,34,14,38,13,2,6,29,26,1003,84,1,20140805200000
676,"Hongwen, Xiamen",,24.473969,118.156281,30,10,27,6,4,5,29,26,1003,84,1,20140805200000
677,"Gulangyu, Xiamen",,24.443168,118.068571,42,19,31,7,3,4,29,26,1003,84,1,20140805200000
678,"Huli, Xiamen",,24.51235,118.099146,55,16,24,12,2,5,29,26,1003,84,1,20140805200000
679,Xiamen,,24.477187,118.094402,55,19,31,12,3,5,29,26,1003,84,1,20140805200000
680,"Qingyuan Montain, Quanzhou",,24.939503,118.598337,59,66,27,11,11,4,29,26,1003,84,1,20140805200000
681,"Tushan Street, Quanzhou",,24.90867,118.586397,59,75,20,6,4,5,29,26,1003,84,1,20140805200000
682,"Wanan, Quanzhou",,24.304154,118.070903,53,39,20,2,3,4,29,26,1003,84,1,20140805200000
683,Quanzhou,,24.87179,118.68001,59,75,27,11,11,5,29,26,1003,84,1,20140805200000
687,"Jiancaoping, Taiyuan",,37.887889,112.528383,50,40,13,9,11,5,19,13,1013,68,3,20140805200000
688,"Jianhe, Taiyuan",,37.910779,112.579258,55,49,7,21,8,7,19,13,1013,68,3,20140805200000
689,"Shanglan, Taiyuan",,38.011589,112.440679,30,25,19,10,3,4,19,13,1013,68,3,20140805200000
690,"Jinyuan, Taiyuan",,37.713164,112.475552,63,37,9,15,16,3,19,13,1013,68,3,20140805200000
691,"Xiaodian, Taiyuan",,37.782137,112.483533,46,36,22,9,8,6,19,13,1013,68,3,20140805200000
692,"Taoyuan, Taiyuan",,37.869752,112.543332,76,51,8,22,14,7,19,13,1013,68,3,20140805200000
693,"Wucheng, Taiyuan",,37.819998,112.576252,95,63,10,24,7,9,19,13,1013,68,3,20140805200000
694,"Nanzhai, Taiyuan",,37.985902,112.555312,70,44,9,20,5,9,19,13,1013,68,3,20140805200000
695,"Jinsheng, Taiyuan",,37.781205,112.494494,76,39,11,17,10,14,19,13,1013,68,3,20140805200000
696,Taiyuan,,37.871115,112.555178,50,40,13,9,11,5,19,13,1013,68,3,20140805200000
697,"Monitoring station, Changzhi",,36.194062,113.10389,53,24,14,31,6,10,24,19,1006,73,3,20140805200000
698,"Auditing bureau, Changzhi",,36.212787,113.095221,55,39,15,20,26,13,24,19,1006,73,3,20140805200000
699,"Qinghua station, Changzhi",,36.154328,113.116385,42,37,13,22,8,9,24,19,1006,73,3,20140805200000
700,"No.8 middle school, Changzhi",,36.185451,113.099481,34,38,12,27,23,11,,,,,,20140805200000
701,Changzhi,,36.195553,113.12292,65,37,14,31,8,14,23,14,1006,47,1,20140805200000
702,"Yungang Hotel, Datong",,40.076997,113.278079,38,40,13,14,6,11,15,14,1010,88,0,20140805200000
703,"college of education, Datong",,40.085608,113.27808,76,38,12,14,13,10,15,14,1010,88,0,20140805200000
704,Datong,,40.078016,113.307143,76,40,22,15,13,11,15,14,1010,88,0,20140805200000
705,"Technical Schools, Linfen",,36.07131,111.509046,61,2,19,8,16,21,18,16,0,87,3,20140805200000
706,"Municipal party committee, Linfen",,36.087425,111.508771,53,8,15,8,9,8,18,16,0,87,3,20140805200000
1073,"City Monitoring Station, Linfen",,36.097676,111.518739,50,30,8,8,12,10,18,16,0,86,3,20140805200000
707,"South Airport, Linfen",,36.041614,111.497968,53,17,8,9,3,35,18,16,0,87,3,20140805200000
708,Linfen,,36.087944,111.525098,63,32,19,9,9,35,18,16,0,87,3,20140805200000
709,"City center, Yangquan",,37.848012,113.578636,91,53,13,10,6,5,18,15,1013,83,3,20140805200000
710,Yangquan,,37.857475,113.586921,82,60,26,12,36,16,18,15,1013,83,3,20140805200000
711,"Water Company, Jincheng",,35.504787,112.857245,137,71,11,26,49,29,23,14,1006,47,1,20140805200000
712,"Baiyun shopping mall, Jincheng",,35.492858,112.841566,82,71,6,20,16,19,23,14,1006,47,1,20140805200000
713,"City EPA, Jincheng",,35.488422,112.858528,53,49,6,27,50,33,23,14,1006,47,1,20140805200000
714,"Institute of Technology, Jincheng",,35.484844,112.878073,89,50,11,18,15,19,23,14,1006,47,1,20140805200000
715,"No.1 middle school, Jincheng",,35.478725,112.838636,50,40,5,17,9,17,23,14,1006,47,1,20140805200000
716,Jincheng,,35.490287,112.85794,137,71,11,26,49,29,23,14,1006,47,1,20140805200000
718,"District Government, Shuozhou",,39.320857,112.430641,70,54,15,8,7,9,19,13,1009,59,1,20140805200000
719,"City EPA, Shuozhou",,39.331495,112.407997,70,52,15,10,6,9,19,13,1009,59,1,20140805200000
720,"No.2 middle school, Shuozhou",,39.377963,112.432877,50,45,6,19,24,10,19,13,1009,59,1,20140805200000
721,Shuozhou,,39.332756,112.439672,142,83,15,30,34,10,19,13,1009,59,1,20140805200000
722,"Jinlun compound, Jinzhong",,37.697891,112.771017,30,30,23,5,5,3,18,15,1013,83,3,20140805200000
723,"Hydraulic Component Factory, Jinzhong",,37.688355,112.725844,55,32,22,13,7,3,18,15,1013,83,3,20140805200000
724,"Nandu compound, Jinzhong",,37.713148,112.732036,55,29,12,4,3,5,18,15,1013,83,3,20140805200000
725,"Yuci district government, Jinzhong",,37.698228,112.714167,50,23,22,3,11,4,18,15,1013,83,3,20140805200000
726,Jinzhong,,37.687705,112.759187,55,32,23,13,11,5,18,15,1013,83,3,20140805200000
727,"Yuncheng Middle School, Yuncheng",,35.012345,111.003215,129,59,26,2,5,27,23,21,1005,86,2,20140805200000
728,"Yudou BDA, Yuncheng",,35.05065,111.029571,76,65,23,2,13,21,23,21,1005,86,2,20140805200000
730,"Regional Technical School, Yuncheng",,35.028727,110.974076,144,58,30,3,3,19,23,21,1005,86,2,20140805200000
731,"Airport new district, Yuncheng",,35.084515,111.05339,91,66,99,18,1,25,23,21,1005,86,2,20140805200000
732,Yuncheng,,35.025675,111.013344,144,66,99,18,13,27,23,21,1005,86,2,20140805200000
733,"Jiyin, Xinzhou",,38.413292,112.742432,124,58,7,26,18,10,18,15,1013,83,3,20140805200000
734,"BDA, Xinzhou",,38.450069,112.736723,-,29,-,10,1,-,19,16,1013,83,1,20140805200000
735,"Convention Center, Xinzhou",,38.492043,112.709772,68,32,2,16,12,18,18,15,1013,83,3,20140805200000
736,Xinzhou,,38.417244,112.740742,124,32,7,16,12,18,18,15,1013,83,3,20140805200000
737,"City EPA, Luliang",,37.522189,111.144365,-,-,-,-,-,-,-,-,0,-,-,20140805200000
738,"Soybean factory, Luliang",,37.51689,111.135101,63,22,13,22,10,6,19,17,0,86,2,20140805200000
739,"Water Company, Luliang",,37.53394,111.138834,50,52,17,15,2,5,19,17,0,86,2,20140805200000
740,Luliang,,25.027007,103.668566,63,22,13,22,10,6,19,17,0,86,2,20140805200000
741,"City government, Sanmenxia",,34.776251,111.198781,59,45,29,8,6,10,23,21,1005,86,2,20140805200000
743,"BDA, Sanmenxia",,34.800434,111.204332,93,60,16,10,9,6,23,21,1005,86,2,20140805200000
744,Sanmenxia,,34.771506,111.206129,124,74,30,10,9,11,23,21,1005,86,2,20140805200000
745,"Food Factory, Changchun",,43.919094,125.329521,97,82,6,15,5,4,16,15,1005,94,2,20140805200000
746,"Bus Factory, Changchun",,43.912337,125.293431,72,58,13,19,5,5,16,15,1005,94,2,20140805200000
747,"Institute of Posts and Telecommunications, Changchun",,43.842368,125.285005,68,61,7,25,3,5,16,15,1005,94,2,20140805200000
748,"Laodong Park, Changchun",,43.877293,125.371519,68,50,16,20,4,8,16,15,1005,94,2,20140805200000
749,"Forest area, Changchun",,43.871825,125.331519,76,61,13,20,5,11,16,15,1005,94,2,20140805200000
750,"Jinyuetan, Changchun",,43.79031,125.460561,53,16,23,1,1,4,16,15,1005,94,2,20140805200000
751,"Shuaiwanzi, Changchun",,43.552321,125.639086,59,39,20,12,1,3,16,15,1005,94,2,20140805200000
824,"Shili, Jiujiang",,29.678969,115.992271,104,78,6,17,4,5,22,22,1004,95,4,20140805200000
752,"Economic Development Zone Sanitation Department, Changchun",,43.869221,125.42365,61,40,19,16,3,4,16,15,1005,94,2,20140805200000
753,"High-tech Zone Administrative Committee, Changchun",,43.819064,125.256375,70,62,19,16,2,4,16,15,1005,94,2,20140805200000
754,"Daishan Park, Changchun",,43.852365,125.223399,70,99,20,31,2,5,17,15,1005,88,2,20140805200000
755,Changchun,,43.819415,125.329977,68,61,7,25,4,8,16,15,1005,94,2,20140805200000
756,"Hadawan, Jilin",,43.888081,126.545727,63,72,9,29,7,8,14,12,0,87,2,20140805200000
757,"Fengman, Jilin",,43.768169,126.678802,46,24,36,4,3,4,14,12,0,87,2,20140805200000
758,"Electric Power College, Jilin",,43.827403,126.502281,57,47,29,13,5,3,14,12,0,87,2,20140805200000
759,"Jiangnan Park, Jilin",,43.83531,126.556519,50,39,29,12,5,5,14,12,0,87,2,20140805200000
760,"Dongjuzi, Jilin",,43.838597,126.590068,57,62,23,16,3,2,14,12,0,87,2,20140805200000
763,Jilin,,43.840137,126.555262,68,72,49,29,7,8,14,12,0,87,2,20140805200000
764,"Lingbei, Haerbin",,45.756979,126.548008,46,20,30,8,6,7,15,15,1004,100,2,20140805200000
765,"Songbei Commercial University, Haerbin",,45.818624,126.566963,38,54,26,5,4,4,15,15,1004,100,2,20140805200000
766,"Acheng huining, Haerbin",,45.544286,126.985183,50,15,41,6,2,3,15,15,1004,100,2,20140805200000
767,"Nangang College Street, Haerbin",,45.724121,126.604906,46,25,35,7,2,4,15,15,1004,100,2,20140805200000
768,"Taiping Hongwei Park, Haerbin",,45.775332,126.695101,78,24,32,8,3,8,15,15,1004,100,2,20140805200000
769,"Daowai Chengde Square, Haerbin",,45.768637,126.640955,50,15,33,8,6,4,15,15,1004,100,2,20140805200000
770,"Xiangfang Hongqi Street, Haerbin",,45.733936,126.691083,53,20,37,10,4,8,15,15,1004,100,2,20140805200000
771,"Dongli Heping Road, Haerbin",,45.727765,126.651974,72,20,35,11,6,4,15,15,1004,100,2,20140805200000
772,"Daoli Jianguo Road, Haerbin",,45.749715,126.59891,55,27,35,9,5,5,15,15,1004,100,2,20140805200000
773,"Pingfang Light Factory, Haerbin",,45.611951,126.620898,46,13,31,19,4,3,15,15,1004,100,2,20140805200000
774,"Hulan Normal College, Haerbin",,45.983745,126.616553,61,17,31,5,4,4,15,15,1004,100,2,20140805200000
775,"Provincial Academy of Agricultural Sciences, Haerbin",,45.686141,126.626517,42,18,35,14,2,5,15,15,1004,100,2,20140805200000
776,Haerbin,,45.805757,126.541007,46,54,30,8,6,7,15,15,1004,100,2,20140805200000
777,"Anju Compound, Qiqihaer",,47.365672,123.937016,87,47,25,6,2,4,17,15,1005,88,1,20140805200000
778,"Farming Vehicule Factory, Qiqihaer",,47.326793,123.961427,109,37,27,4,1,18,17,15,1005,88,1,20140805200000
779,"Fuqu EPA, Qiqihaer",,47.1853,123.62322,68,29,33,3,1,6,17,15,1005,88,1,20140805200000
780,"City Center Square, Qiqihaer",,47.343096,123.96192,107,40,5,2,2,4,17,15,1005,88,1,20140805200000
1217,"City Environmental Monitoring Station, Qiqihaer",,47.303639,123.957551,117,52,26,4,2,6,17,15,1005,88,1,20140805200000
781,Qiqihaer,,47.356387,123.924736,117,52,33,6,2,18,17,15,1005,88,1,20140805200000
782,"Saertu District, Daqing",,46.582368,125.152904,55,19,28,12,13,2,17,16,1004,93,1,20140805200000
783,"Datong District, Daqing",,46.036786,124.842115,34,9,35,4,5,2,17,16,1004,93,1,20140805200000
784,"Honggang District, Daqing",,46.418381,124.88973,57,3,32,12,4,4,17,16,1004,93,1,20140805200000
785,"Longfeng District, Daqing",,46.535426,125.107043,50,11,37,8,4,5,17,16,1004,93,1,20140805200000
786,"Ranghulu District, Daqing",,46.635123,124.85648,59,20,46,9,8,3,17,16,1004,93,1,20140805200000
787,Daqing,,46.591414,125.110838,59,20,46,12,13,5,17,16,1004,93,1,20140805200000
788,"Locomotive Factory, Mudanjiang",,44.610589,129.652672,50,33,57,8,4,2,17,14,1004,78,2,20140805200000
789,"No. 1 hospital, Mudanjiang",,44.567775,129.617043,68,63,38,6,4,2,17,14,1004,78,2,20140805200000
1220,"EPA building, Mudanjiang",,44.567777,129.620658,50,32,28,8,1,3,17,14,1004,78,2,20140805200000
1221,"Cultural Square, Mudanjiang",,44.586388,129.623164,74,38,27,6,5,1,17,14,1004,78,2,20140805200000
790,Mudanjiang,,44.553619,129.640246,74,63,57,11,10,3,17,14,1004,78,2,20140805200000
791,"Mingzhu Plaza, Hefei",,31.782847,117.201512,93,56,-,5,1,11,26,25,1003,94,1,20140805200000
792,"Sanli Street, Hefei",,31.874637,117.312573,93,30,74,12,5,9,26,25,1003,94,1,20140805200000
793,"Hupo Compound, Hefei",,31.868583,117.264491,127,103,45,1,1,10,26,25,1003,94,1,20140805200000
794,"Dongpu Reservoir, Hefei",,31.90319,117.165584,122,43,32,7,2,8,26,25,1003,94,1,20140805200000
795,"Changjiang middle road, Hefei",,31.855185,117.255484,102,58,6,5,1,8,26,25,1003,94,1,20140805200000
796,"Luyang District, Hefei",,31.941771,117.271504,132,54,4,1,17,6,26,25,1003,94,1,20140805200000
797,"Yaohai District, Hefei",,31.856595,117.341644,95,57,11,4,3,3,26,25,1003,94,1,20140805200000
798,"Baohe District, Hefei",,31.793644,117.307554,147,-,0,1,1,8,26,25,1003,94,1,20140805200000
799,"Lake district, Hefei",,31.736619,117.283501,99,114,13,5,5,10,26,25,1003,94,1,20140805200000
800,"High-tech zone, Hefei",,31.849755,117.129624,-,-,-,-,-,-,-,-,0,-,-,20140805200000
801,Hefei,,31.819449,117.232753,102,58,6,5,1,11,26,25,1003,94,1,20140805200000
802,"Hudong Road No.4 Elementary School, Maanshan",,31.684121,118.511017,157,68,9,10,5,11,29,27,1002,89,1,20140805200000
803,"Tianping Garment Factory, Maanshan",,31.64197,118.488043,158,83,13,17,1,16,29,27,1002,89,1,20140805200000
804,"City education base, Maanshan",,31.711216,118.648913,117,62,3,4,1,4,29,27,1002,89,1,20140805200000
805,"Cihu No.2 elementary school, Maanshan",,31.748546,118.515729,157,102,20,2,1,11,29,27,1002,89,1,20140805200000
806,"Maanshan steel factory power plant, Maanshan",,31.690864,118.48528,169,100,2,1,4,13,29,27,1002,89,1,20140805200000
807,Maanshan,,31.668461,118.511939,169,102,20,17,5,16,29,27,1002,89,1,20140805200000
808,"Science Innovation Center, Wuhu",,31.417056,118.375406,158,66,11,7,3,9,29,27,1002,89,1,20140805200000
809,"No.4 Water Plant, Wuhu",,31.315914,118.376231,137,56,12,13,8,4,29,27,1002,89,1,20140805200000
810,"Monitoring station, Wuhu",,31.348955,118.358154,142,55,9,1,20,6,29,27,1002,89,1,20140805200000
811,"Wuqierling Factory, Wuhu",,31.382068,118.407639,154,125,19,14,8,8,29,27,1002,89,1,20140805200000
812,Wuhu,,31.351007,118.438322,158,125,19,14,20,9,29,27,1002,89,1,20140805200000
813,"Jiangxi Foreign Affairs Office, Nanchang",,28.681036,115.897845,63,40,22,25,11,7,30,26,1003,75,1,20140805200000
814,"Provincial forestry company, Nanchang",,28.694646,115.892851,152,70,18,17,14,8,30,26,1003,75,1,20140805200000
815,"Institute of Forestry, Nanchang",,28.74099,115.818017,139,61,14,12,10,13,30,26,1003,75,1,20140805200000
816,"Jingdong town government, Nanchang",,28.693649,115.97793,95,52,26,21,3,7,30,26,1003,75,1,20140805200000
817,"Contruction Industry College, Nanchang",,28.683582,115.856915,127,68,10,16,17,4,30,26,1003,75,1,20140805200000
818,"Xianghu, Nanchang",,28.639112,115.896843,99,117,25,29,9,10,30,26,1003,75,1,20140805200000
819,"Martial Arts School, Nanchang",,28.796292,115.747122,139,25,8,4,5,6,30,26,1003,75,1,20140805200000
820,"Petrifaction Company, Nanchang",,28.609697,115.916832,99,67,23,22,10,6,30,26,1003,75,1,20140805200000
821,"Provincial Station, Nanchang",,28.681053,115.935848,102,51,24,33,11,8,30,26,1003,75,1,20140805200000
822,Nanchang,,28.679883,115.863022,152,70,18,17,17,8,30,26,1003,75,1,20140805200000
823,"Lushan Mountain Observatory, Jiujiang",,29.584073,115.998671,122,45,31,2,6,4,22,22,1004,95,4,20140805200000
825,"Maoshantou, Jiujiang",,29.702089,115.963113,85,65,10,18,4,5,22,22,1004,95,4,20140805200000
826,"Xiyuan, Jiujiang",,29.726646,115.993055,89,85,8,25,11,6,22,22,1004,95,4,20140805200000
827,"Wuqierling Factory, Jiujiang",,29.650969,116.022581,74,58,11,9,4,4,22,22,1004,95,4,20140805200000
828,"Water Scientific Research Institute, Jiujiang",,29.690223,116.067992,102,71,3,1,38,9,22,22,1004,95,4,20140805200000
829,"Zonghe Industrial Park, Jiujiang",,29.601135,115.916354,89,38,6,11,7,2,22,22,1004,95,4,20140805200000
830,"Petrochemical General Plant, Jiujiang",,29.75101,116.094516,46,84,5,28,1,6,22,22,1004,95,4,20140805200000
831,Jiujiang,,29.70254,116.007025,122,85,31,28,38,9,22,22,1004,95,4,20140805200000
832,"Tobacco Factory, Zhengzhou",,34.753419,113.687131,74,38,19,9,4,11,24,19,1006,73,3,20140805200000
833,"Textile Machinery Factory, Zhengzhou",,34.773366,113.647067,76,48,10,12,9,16,24,19,1006,73,3,20140805200000
834,"Banking College, Zhengzhou",,34.800856,113.681126,76,54,25,8,9,14,24,19,1006,73,3,20140805200000
835,"Water Supply Company, Zhengzhou",,34.807188,113.571089,72,34,31,7,13,13,24,19,1006,73,3,20140805200000
836,"Economic Development Zone Management Committee, Zhengzhou",,34.717652,113.733182,76,35,26,10,5,8,24,19,1006,73,3,20140805200000
837,"No. 47 middle school, Zhengzhou",,34.772211,113.74009,91,41,18,12,5,7,24,19,1006,73,3,20140805200000
838,"City Monitoring Station, Zhengzhou",,34.748404,113.60514,89,47,20,9,3,16,24,19,1006,73,3,20140805200000
839,"Henan Medical University, Zhengzhou",,34.752637,113.641658,85,37,15,10,7,8,24,19,1006,73,3,20140805200000
840,"Gangli Reservoir, Zhengzhou",,34.952652,113.64248,80,31,19,12,13,11,24,19,1006,73,3,20140805200000
841,Zhengzhou,,34.745417,113.631415,89,47,20,9,3,16,24,19,1006,73,3,20140805200000
842,"Henan University No.1 Hospital, Kaifeng",,34.799302,114.352706,102,50,10,9,10,6,24,19,1006,73,3,20140805200000
843,"Maternity And Child Hospital, Kaifeng",,34.795803,114.386103,93,41,20,7,10,7,24,19,1006,73,3,20140805200000
844,"Cancer Hospital, Kaifeng",,34.775428,114.350292,80,45,29,8,8,5,24,19,1006,73,2,20140805200000
845,"Yellow River Conservancy Institute, Kaifeng",,34.826066,114.324772,76,33,17,9,14,26,24,19,1006,73,2,20140805200000
846,"Shijixing Kindergarden, Kaifeng",,34.793606,114.302744,93,39,24,8,14,7,24,19,1006,73,3,20140805200000
847,Kaifeng,,34.796346,114.313426,102,50,24,9,14,7,24,19,1006,73,3,20140805200000
852,Jiaozuo,,35.215381,113.248188,97,41,17,19,24,9,24,19,1006,73,3,20140805200000
853,"Cotton Research Institute, Anyang",,36.081435,114.486451,-,-,-,-,-,-,-,-,0,-,-,20140805200000
854,"Hongmiao Street, Anyang",,36.086733,114.326,91,64,10,23,35,15,23,19,1007,72,1,20140805200000
855,"Yinxing Compound, Anyang",,36.056519,114.36495,119,109,7,22,21,15,23,19,1007,72,1,20140805200000
856,"Tiefo Temple, Anyang",,36.110041,114.309309,151,118,6,23,18,18,23,19,1007,72,1,20140805200000
857,Anyang,,36.097767,114.398846,151,118,13,25,39,18,23,19,1007,72,1,20140805200000
858,"City Monitoring Station, Luoyang",,34.669055,112.439633,42,21,10,10,8,9,,,,,,20140805200000
859,"BDA Management Committee, Luoyang",,34.622084,112.390759,50,28,16,8,11,13,,,,,,20140805200000
860,"New municipal office, Luoyang",,34.623745,112.432973,57,30,21,6,13,15,,,,,,20140805200000
861,"City committee communist party school, Luoyang",,34.650169,112.400212,59,33,10,15,9,6,,,,,,20140805200000
862,"Henan Forestry College, Luoyang",,34.685566,112.509429,68,32,16,11,5,11,,,,,,20140805200000
863,"CITIC No.2 Elementary School, Luoyang",,34.668212,112.36907,21,23,19,19,13,11,,,,,,20140805200000
864,"Yuxi Hotel, Luoyang",,34.685949,112.472611,34,40,12,18,12,17,,,,,,20140805200000
865,Luoyang,,34.617424,112.46054,68,40,21,19,13,17,23,14,1006,47,1,20140805200000
866,"City Planning Design Institute, Pingdingshan",,33.7352,113.297916,104,45,34,8,12,8,24,19,1006,73,3,20140805200000
867,"Xinhua Hotel, Pingdingshan",,33.737754,113.328814,117,63,28,5,9,7,24,19,1006,73,3,20140805200000
868,"Engineering College, Pingdingshan",,33.772474,113.188235,112,42,23,11,21,6,24,19,1006,73,3,20140805200000
869,"High Voltage Switchgear Factory, Pingdingshan",,33.719941,113.312665,124,56,28,5,11,4,24,19,1006,73,3,20140805200000
870,Pingdingshan,,33.764754,113.199082,124,56,34,11,21,8,24,19,1006,73,3,20140805200000
871,"Economic Development Zone EPA, Changsha",,28.239029,113.087873,89,31,72,7,6,5,27,24,1002,84,2,20140805200000
872,"High-tech Zone EPA, Changsha",,28.216766,112.893403,127,58,44,17,15,6,27,24,1002,84,2,20140805200000
873,"Mapoling, Changsha",,28.197926,113.083865,102,47,49,25,7,5,27,24,1002,84,2,20140805200000
874,"Hunan Normal University, Changsha",,28.186202,112.949459,132,40,73,8,7,7,27,24,1002,84,2,20140805200000
875,"Yuqua District EPB, Changsha",,28.139661,113.008649,189,18,97,8,5,7,27,24,1002,84,2,20140805200000
876,"Wujialing, Changsha",,28.256286,112.98457,97,62,11,9,8,11,27,24,1002,84,2,20140805200000
877,"New train station, Changsha",,28.191052,113.006646,109,43,57,24,5,11,27,24,1002,84,2,20140805200000
878,"Tianxin District EPB, Changsha",,28.114406,112.989577,124,56,119,9,3,7,27,24,1002,84,2,20140805200000
879,"Hunan University of Traditional Chinese Medicine, Changsha",,28.127269,112.896395,147,64,201,17,5,11,27,24,1002,84,2,20140805200000
880,"Shaping, Changsha",,28.355246,113.00164,91,52,194,6,4,5,27,24,1002,84,2,20140805200000
881,Changsha,,28.224701,112.944264,132,62,73,9,8,11,27,24,1002,84,2,20140805200000
883,"City Monitoring Station, Xiangtan",,27.854149,112.901062,149,55,46,8,20,10,27,24,1002,84,0,20140805200000
884,"HKUST, Xiangtan",,27.908165,112.912881,152,67,49,26,27,7,27,24,1002,84,0,20140805200000
885,Xiangtan,,27.826289,112.949479,152,67,112,33,27,13,27,24,1002,84,0,20140805200000
886,"Zhuye Hospital, Zhuzhou",,27.883542,113.101131,109,48,92,22,8,7,27,24,1002,84,0,20140805200000
887,"No.4 middle school, Zhuzhou",,27.794671,113.195938,122,50,69,8,4,7,27,24,1002,84,0,20140805200000
888,"Railway station, Zhuzhou",,27.8349,113.149149,132,58,94,7,3,7,27,24,1002,84,0,20140805200000
889,"City Monitoring Station, Zhuzhou",,27.849638,113.135836,132,46,99,7,12,8,27,24,1002,84,0,20140805200000
890,"Dajing, Zhuzhou",,27.830311,113.25706,104,37,42,5,4,4,27,24,1002,84,0,20140805200000
891,Zhuzhou,,27.824409,113.139832,132,58,99,22,12,9,27,24,1002,84,0,20140805200000
896,Yueyang,,29.354548,113.134922,137,120,38,21,59,17,30,26,1002,75,2,20140805200000
897,"Dingcheng District EPB, Changde",,29.014303,111.691833,74,23,27,6,15,7,29,26,1002,78,3,20140805200000
898,"Baihe Hill, Changde",,29.072606,111.735659,119,52,10,2,2,4,29,26,1002,78,3,20140805200000
899,"Municipal Technical Supervision Bureau, Changde",,29.038038,111.6736,139,56,25,5,15,14,29,26,1002,78,3,20140805200000
900,"No.2 middle school, Changde",,28.96732,111.707138,160,83,26,8,5,7,29,26,1002,78,3,20140805200000
901,Changde,,29.028648,111.704107,160,83,27,8,15,14,29,26,1002,78,3,20140805200000
902,"Yuanjiajie, Zhangjiajie",,29.297387,110.421733,154,56,57,1,1,25,29,26,1002,78,3,20140805200000
903,"Power Administration Bureau, Zhangjiajie",,29.126345,110.47192,102,58,49,5,7,25,29,26,1002,78,3,20140805200000
906,Zhangjiajie,,29.114231,110.484134,154,58,57,5,7,25,29,26,1002,78,3,20140805200000
907,"Zhenning Garden, Nanning",,22.784688,108.304953,91,57,7,16,5,5,27,24,1003,84,1,20140805200000
908,"City Monitoring Station, Nanning",,22.819736,108.32499,78,40,5,12,3,8,27,24,1003,84,1,20140805200000
909,"Daziran Garden, Nanning",,22.802327,108.387089,85,64,9,21,5,9,27,24,1003,84,1,20140805200000
910,"Xianhu, Nanning",,22.7879,108.443064,59,41,3,21,5,8,27,24,1003,84,1,20140805200000
911,"District Agricultural Vocational College, Nanning",,22.843566,108.24292,97,57,5,14,5,9,27,24,1003,84,1,20140805200000
912,"Yinghua jiayuan, Nanning",,22.732221,108.331999,74,52,10,13,3,6,27,24,1003,84,1,20140805200000
913,"Shajing town street committee, Nanning",,22.780442,108.247914,76,55,8,20,9,7,27,24,1003,84,1,20140805200000
914,Nanning,,22.814552,108.3702,85,64,9,21,5,9,27,24,1003,84,1,20140805200000
915,"Haitan Park, Beihai",,21.401746,109.157592,13,40,25,4,14,14,27,25,1003,86,2,20140805200000
916,"Beihai Industrial Park, Beihai",,21.422809,109.182003,34,17,18,9,9,7,27,25,1003,86,2,20140805200000
