locationid,stationname,chinesename,latitude,longitude,pm25,pm10,o3,no2,so2,co,temperature,dewpoint,pressure,humidity,wind,est_time
1,Dongcheng Dongsi,,39.9304,116.423239,107,88,35,43,6,5,22,13,1012,57,2,20140825170000
2,"Temple of Heaven, Dongcheng",,39.887403,116.41324,94,65,36,28,2,8,22,13,1012,57,2,20140825170000
3,West Park officials,,39.930333,116.345162,95,66,39,33,4,4,22,13,1012,57,2,20140825170000
4,West Wanshou Nishinomiya,,39.879354,116.358183,120,70,32,45,2,6,22,13,1012,57,2,20140825170000
5,Chaoyang Olympic Sports Center,,39.983406,116.403253,124,81,28,54,4,4,22,13,1012,57,2,20140825170000
6,Chaoyang Agricultural Exhibition Hall,,39.938331,116.46715,85,66,41,38,4,4,22,13,1012,57,2,20140825170000
7,Haidian Wanliu,,39.988245,116.293062,103,82,28,47,6,4,22,13,1012,57,2,20140825170000
8,The Haidian northern New Area,,40.091313,116.180194,82,-,26,23,3,4,22,13,1012,57,2,20140825170000
9,Haidian Beijing Botanical Garden,,40.003252,116.213097,70,-,47,16,2,17,22,13,1012,57,2,20140825170000
10,Fengtai garden,,39.86423,116.285037,108,-,35,30,5,5,22,13,1012,57,2,20140825170000
11,Fengtai Yungang,,39.82535,116.152237,102,67,37,29,3,5,22,13,1012,57,2,20140825170000
12,Shijingshan city,,39.915286,116.190144,143,119,35,53,4,6,22,13,1012,57,2,20140825170000
13,"Fangshan, Liangxiang",,39.743357,116.14225,85,84,30,42,2,5,22,13,1012,57,2,20140825170000
14,"Huangcunzhen, Daxing",,39.719389,116.410219,82,60,41,23,2,4,22,13,1012,57,2,20140825170000
15,BDA,,39.796197,116.51197,99,-,44,30,4,4,22,13,1012,57,2,20140825170000
16,Tongzhou New Town,,39.887113,116.6689,99,-,29,69,4,7,22,13,1012,57,2,20140825170000
17,Shunyi New Town ,,40.128111,116.660908,95,101,30,35,2,3,22,13,1012,57,2,20140825170000
18,Changping Town,,40.218245,116.236084,54,34,37,17,2,3,22,13,1012,57,2,20140825170000
19,"Mentougou, Longquan Town",,39.938397,116.112323,60,42,40,13,2,4,22,13,1012,57,2,20140825170000
20,Pinggu town,,40.144433,117.106563,66,5,30,9,2,3,22,13,1012,57,2,20140825170000
21,Huairou town,,40.329104,116.63387,41,40,30,6,2,3,22,13,1012,57,2,20140825170000
22,The town of Miyun,,40.371186,116.838053,60,-,21,23,4,4,22,13,1012,57,2,20140825170000
23,Yanqing town,,40.454217,115.978106,55,17,30,8,2,3,22,13,1012,57,2,20140825170000
24,Changping Dingling,,40.293269,116.226108,21,26,37,11,2,3,22,13,1012,57,2,20140825170000
25,Badaling Northwest,,40.36623,115.994146,52,30,23,8,2,4,22,13,1012,57,2,20140825170000
26,Miyun Reservoir,,40.500157,116.91701,34,-,37,2,2,2,22,13,1012,57,2,20140825170000
27,"Donggaocun Zhen, Pinggu",,40.10142,117.126556,60,17,37,12,2,2,22,13,1012,57,2,20140825170000
28,"Yongledianzhen, Tongzhou",,39.713192,116.78905,92,-,12,27,14,2,22,13,1012,57,2,20140825170000
29,"Yufazhen, Daxing",,39.521203,116.306026,77,-,29,8,2,4,22,13,1012,57,2,20140825170000
30,"Liulihezhen, Fangshan",,39.581169,116.006089,105,69,36,14,2,1,22,13,1012,57,2,20140825170000
31,"Qianmen E St, Dongcheng",,39.900402,116.401242,142,-,24,56,5,7,22,13,1012,57,2,20140825170000
32,Yongdingmen Inner St,,39.877401,116.400238,151,-,22,58,6,6,22,13,1012,57,2,20140825170000
33,Xizhimen N St,,39.955352,116.355187,-,75,27,42,6,5,22,13,1012,57,2,20140825170000
34,South Ring Road,,39.857377,116.37421,137,102,10,64,4,8,22,13,1012,57,2,20140825170000
35,East Fourth Ring Road,,39.940273,116.489075,86,-,21,38,2,7,22,13,1012,57,2,20140825170000
36,Beijing,,39.955906,116.474246,85,88,41,43,6,5,22,13,1012,57,2,20140825170000
37,Putuo,,31.232979,121.415378,175,93,45,22,11,9,26,22,1013,78,1,20140825170000
38,Yangpu Sipiao,,31.263795,121.540311,179,78,48,18,5,9,26,22,1013,78,1,20140825170000
39,Shanghai Normal College Primary Division,,31.199031,121.487719,181,108,41,43,6,12,26,22,1013,78,1,20140825170000
40,Dianshan Lake,,31.091338,120.982293,200,114,57,24,14,13,26,22,1013,78,1,20140825170000
41,Hongkou Liangcheng,,31.298906,121.47155,174,82,42,18,10,10,26,22,1013,78,1,20140825170000
42,Jingan,,31.224251,121.429637,181,95,45,26,10,14,26,22,1013,78,1,20140825170000
43,Shanghai Normal University,,31.163531,121.416643,181,107,53,37,8,12,26,22,1013,78,1,20140825170000
44,Chuansha,,31.188626,121.707342,174,80,41,24,7,9,26,22,1013,78,1,20140825170000
45,Zhangjiang,,31.204896,121.581215,168,89,46,24,10,10,26,22,1013,78,1,20140825170000
46,Lingshan Road,,31.226286,121.537317,170,92,43,35,11,10,26,22,1013,78,1,20140825170000
1080,City average,,31.228451,121.478227,176,91,44,27,9,10,26,22,1013,78,1,20140825170000
47,Shanghai,,31.202842,121.453493,181,108,45,43,10,14,26,22,1013,78,1,20140825170000
48,Guangzhou,,23.138517,113.263701,65,35,31,22,15,7,30,24,1011,70,2,20140825170000
49,"Huadu town, Guangzhou",,23.389121,113.220062,124,64,82,36,16,6,30,24,1011,70,2,20140825170000
50,"Luogang Zhenlong, Guangzhou",,23.308027,113.567032,159,63,46,19,6,8,30,24,1011,70,2,20140825170000
51,"LuHu, Guangzhou",,23.151743,113.281842,65,35,31,22,4,4,30,24,1011,70,2,20140825170000
52,"Tianhu, Guangzhou",,23.647433,113.629715,99,41,139,30,6,5,30,24,1011,70,2,20140825170000
53,"Zhudong, Guangzhou",,23.418406,113.078552,142,75,145,36,28,7,30,24,1011,70,2,20140825170000
54,"Modiesha station, Guangzhou",,23.103814,113.338238,61,59,0,14,11,0,30,24,1011,70,2,20140825170000
55,Zhuhai,,22.2677,113.581765,59,30,24,16,5,11,29,26,1011,84,4,20140825170000
1075,"Huicai technical school, Foshan",,23.039667,113.105492,65,25,45,15,15,5,30,24,1011,70,2,20140825170000
56,"Sanshuiyun donghai, Foshan",,23.185788,112.865368,91,40,58,17,11,8,30,24,1011,70,2,20140825170000
57,"Nanhai Bureau of Meteorology, Foshan",,23.046836,113.145764,65,34,26,19,8,8,30,24,1011,70,2,20140825170000
58,"Sanshui Monitoring Station, Foshan",,23.163551,112.890843,87,49,88,16,8,8,30,24,1011,70,2,20140825170000
1087,Foshan,,23.018995,113.126899,65,34,32,19,15,8,30,24,1011,70,2,20140825170000
59,"Ronggui street committee, Shunde",,22.762729,113.258356,78,36,18,15,8,6,30,24,1011,70,2,20140825170000
60,Shunde,,22.80246,113.298701,78,36,18,18,11,6,30,24,1011,70,2,20140825170000
61,"Donghu, Jiangmen",,22.590411,113.087351,53,18,27,12,10,2,29,26,1011,84,4,20140825170000
62,"Taoyuan Atmosphere Premier Station, Jiangmen",,22.72489,112.93404,57,33,38,7,6,4,29,26,1011,84,4,20140825170000
63,Jiangmen,,22.576047,113.087351,59,27,27,12,18,10,29,26,1011,84,4,20140825170000
64,"Kengkouzi station, Zhaoqing",,23.158865,112.570287,91,47,44,7,7,5,30,24,1011,70,2,20140825170000
65,"Mugangzi station, Zhaoqing",,23.067961,112.431934,153,72,15,36,13,9,30,24,1011,70,2,20140825170000
67,Zhaoqing,,23.044571,112.470346,153,72,44,36,38,9,30,24,1011,70,2,20140825170000
68,"Jinguo Bay, Huizhou",,22.937223,114.385567,61,21,18,5,3,5,29,24,1011,74,3,20140825170000
1091,"Xiabu, Huizhou",,23.077493,114.410275,53,29,12,11,4,3,29,24,1011,74,3,20140825170000
69,"Xijiao, Huizhou",,23.338178,114.112867,74,31,24,6,3,4,29,24,1011,74,3,20140825170000
70,"Jiangbei, Huizhou",,23.111706,114.415274,30,21,12,17,4,6,29,24,1011,74,3,20140825170000
71,"Huiyang chuanhu, Huizhou",,22.814485,114.329292,30,14,9,4,4,6,29,24,1011,74,3,20140825170000
72,"Daya bay management committee, Huizhou",,22.739283,114.53631,55,37,13,7,4,3,29,24,1011,74,3,20140825170000
73,Huizhou,,23.109349,114.421164,53,29,16,17,5,6,29,24,1011,74,3,20140825170000
74,"Guancheng No.2 water plant, Dongguan",,23.057294,113.753254,91,39,41,24,10,8,29,24,1011,74,3,20140825170000
75,"Dongcheng Shijing, Dongguan",,23.010039,113.799529,85,42,34,24,5,7,29,24,1011,74,3,20140825170000
76,"Nancheng Xiping, Dongguan",,22.963051,113.743494,82,28,27,18,7,7,29,24,1011,74,3,20140825170000
77,"Nancheng Yuanling, Dongguan",,23.025058,113.751308,89,23,39,17,10,5,29,24,1011,74,3,20140825170000
78,Dongguan,,23.017813,113.756958,97,49,41,24,11,9,29,24,1011,74,3,20140825170000
79,"Zimaling, Zhongshan",,22.505112,113.407183,25,12,14,6,7,5,29,26,1011,84,4,20140825170000
80,"Yangtze River tourist area, Zhongshan",,22.48589,113.439054,30,7,15,1,2,4,29,26,1011,84,4,20140825170000
81,"Huabai Park, Zhongshan",,22.51839,113.374362,34,12,8,10,4,10,29,26,1011,84,4,20140825170000
82,Zhongshan,,22.513997,113.398277,53,17,15,10,7,10,29,26,1011,84,4,20140825170000
83,"No.8 middle school, Shaoguan",,24.767777,113.583537,50,23,45,6,6,7,29,22,1012,57,2,20140825170000
83,"No.8 middle school, Shaoguan",,24.767777,113.583537,50,23,45,6,6,7,29,22,1012,57,2,20140825170000
84,"Forest area, Shaoguan",,24.796107,113.612131,91,48,97,3,8,8,29,22,1012,57,2,20140825170000
84,"Forest area, Shaoguan",,24.796106,113.612131,91,48,97,3,8,8,29,22,1012,57,2,20140825170000
86,"Shaoguan University, Shaoguan",,24.790864,113.646599,107,50,81,11,27,8,29,22,1012,57,2,20140825170000
86,"Shaoguan University, Shaoguan",,24.790864,113.646598,107,50,81,11,27,8,29,22,1012,57,2,20140825170000
88,"Qujiang Monitoring Station, Shaoguan",,24.683042,113.60157,91,53,44,18,17,10,29,22,1012,57,2,20140825170000
88,"Qujiang Monitoring Station, Shaoguan",,24.683042,113.60157,91,53,44,18,17,10,29,22,1012,57,2,20140825170000
89,Shaoguan,,24.807342,113.602712,91,53,73,18,17,10,29,22,1012,57,2,20140825170000
90,"Chaonanzi Station, Shantou",,23.251213,116.406762,76,37,16,4,9,8,27,26,1012,94,1,20140825170000
91,Shantou,,23.350642,116.686306,57,30,14,12,6,8,27,26,1012,94,1,20140825170000
92,"City Environmental Monitoring Station, Zhanjiang",,21.220431,110.397317,21,10,7,4,8,1,28,25,1010,82,2,20140825170000
93,"EPB Dormitory, Zhanjiang",,21.197376,110.406487,34,8,5,4,2,5,28,25,1010,82,2,20140825170000
94,"Xiashan Swimming Park, Zhanjiang",,21.200431,110.415655,21,6,7,-,7,5,28,25,1010,82,2,20140825170000
95,"Zhanjiang Theatre, Zhanjiang",,21.268177,110.366445,34,19,4,5,4,5,28,25,1010,82,2,20140825170000
96,"Mazhang EPA, Zhanjiang",,21.265486,110.335993,13,15,19,4,2,2,28,25,1010,82,2,20140825170000
97,"Potou District EPB, Zhanjiang",,21.247604,110.454508,30,16,11,6,2,0,28,25,1010,82,2,20140825170000
98,Zhanjiang,,21.26832,110.363883,34,19,11,6,8,5,28,25,1010,82,2,20140825170000
99,"Maogang sub-office EPB, Maoming",,21.466435,111.033462,25,10,15,1,3,3,27,25,0,87,4,20140825170000
100,"Petrochemical No. 7 elementaty school, Maoming",,21.648905,110.937861,38,23,10,6,7,7,27,25,0,87,4,20140825170000
101,"Jiankang road, Maoming",,21.662211,110.909482,46,28,8,6,4,8,27,25,0,87,4,20140825170000
102,"Gaoling, Maoming",,21.690558,110.871146,34,31,10,8,7,5,27,25,0,87,4,20140825170000
1094,Maoming,,21.660223,110.929968,46,31,10,8,7,8,27,25,0,87,4,20140825170000
103,"Jiaying University, Meizhou",,24.325415,116.12816,80,43,30,3,5,8,27,26,1012,94,1,20140825170000
104,"Mexian new town, Meizhou",,24.269283,116.084546,80,50,24,13,6,8,27,26,1012,94,1,20140825170000
105,"Environmental Monitoring Center, Meizhou",,24.262778,116.129621,99,61,23,17,5,7,27,26,1012,94,1,20140825170000
1095,Meizhou,,24.285988,116.127065,99,61,30,17,6,8,27,26,1012,94,1,20140825170000
106,"City EPA, Shanwei",,22.772349,115.370227,87,18,23,2,5,8,28,26,1012,86,1,20140825170000
107,"City government, Shanwei",,22.787161,115.375536,59,17,24,3,5,7,28,26,1012,86,1,20140825170000
108,"Xincheng Middle School, Shanwei",,22.789851,115.367124,59,18,22,4,4,5,28,26,1012,86,1,20140825170000
1099,Shanwei,,22.783576,115.38022,87,18,23,4,5,8,28,26,1012,86,1,20140825170000
109,"No.3 elementary school, Heyuan",,23.755946,114.699091,57,36,18,11,4,8,29,24,1011,67,2,20140825170000
109,"No.3 elementary school, Heyuan",,23.75435,114.703514,57,36,18,11,4,8,29,24,1011,67,2,20140825170000
111,"City water company, Heyuan",,23.688709,114.954652,76,30,19,11,11,7,29,24,1011,67,2,20140825170000
111,"City water company, Heyuan",,23.754246,114.682459,76,30,19,11,11,7,29,24,1011,67,2,20140825170000
113,"Heyuan high school, Heyuan",,23.720037,114.699563,59,30,19,8,7,5,29,24,1011,67,2,20140825170000
113,"Heyuan high school, Heyuan",,23.720666,114.693879,59,30,19,8,7,5,29,24,1011,67,2,20140825170000
115,Heyuan,,23.740888,114.705147,76,36,19,11,11,8,29,24,1011,67,2,20140825170000
116,"Yuanyang Lake, Yangjiang",,21.855869,111.983676,57,19,16,8,3,6,28,25,1011,80,3,20140825170000
1100,Yangjiang,,21.855227,111.987308,65,19,16,8,3,9,28,25,1011,80,3,20140825170000
118,"Town governement, Qingyuan",,23.708005,113.026215,161,70,76,22,6,14,30,24,1011,70,2,20140825170000
119,"Fupin district, Qingyuan",,24.185415,113.419369,170,77,45,16,25,14,30,24,1011,70,2,20140825170000
119,"Fupin district, Qingyuan",,23.624781,113.067713,170,77,45,16,25,14,30,24,1011,70,2,20140825170000
121,"Environment protection office, Qingyuan",,23.685931,113.053239,154,94,58,11,7,12,30,24,1011,70,2,20140825170000
121,"Environment protection office, Qingyuan",,23.691109,113.047948,154,94,58,11,7,12,30,24,1011,70,2,20140825170000
123,"Fengcheng Subdistrict, Qingyuan",,23.695447,113.068189,161,66,76,18,6,13,30,24,1011,70,1,20140825170000
124,Qingyuan,,23.679304,113.061513,170,94,76,22,25,14,30,24,1011,70,2,20140825170000
125,"Xiyuan Road, Chaozhou",,23.668654,116.638272,78,41,14,11,7,9,27,26,1012,94,1,20140825170000
126,"Archives Bureau, Chaozhou",,23.667881,116.649104,112,48,14,11,18,8,27,26,1012,94,1,20140825170000
127,"Municipal Corporation, Chaozhou",,23.65035,116.621859,112,54,17,11,16,10,27,26,1012,94,1,20140825170000
1101,Chaozhou,,23.654204,116.626969,112,54,17,11,18,10,27,26,1012,94,1,20140825170000
128,"Donghu Park, Jieyang",,23.532877,116.374427,87,40,14,6,11,10,27,26,1012,94,1,20140825170000
129,"Yuhu Middle School, Jieyang",,23.52682,116.414123,76,27,15,8,6,6,27,26,1012,94,1,20140825170000
130,"Experimental Primary School, Jieyang",,23.571473,116.364137,74,35,18,1,16,9,27,26,1012,94,1,20140825170000
1102,Jieyang,,23.547596,116.37754,87,40,17,8,16,10,27,26,1012,94,1,20140825170000
131,"City Environmental Monitoring Station, Yunfu",,22.936779,112.042248,46,32,17,12,4,10,30,24,1011,70,2,20140825170000
132,"The new city government headquarters, Yunfu",,22.914275,112.044475,82,29,18,1,4,12,30,24,1011,70,2,20140825170000
133,"Muyang police sub-station, Yunfu",,22.951267,112.05923,127,63,23,17,8,9,30,24,1011,70,2,20140825170000
1103,Yunfu,,22.912436,112.049811,127,63,23,17,8,12,30,24,1011,70,2,20140825170000
134,Yantian,,22.587949,114.266899,25,17,27,7,5,8,29,24,1011,74,3,20140825170000
135,Kwai Chung,,22.572837,113.867166,53,43,11,18,2,13,29,24,1011,74,3,20140825170000
135,Kwai Chung,,22.627947,114.428875,53,43,11,18,2,13,29,24,1011,74,3,20140825170000
135,Kwai Chung,,22.354168,114.134558,53,43,11,18,2,13,29,24,1011,74,3,20140825170000
137,Nanyou,,22.513802,113.928051,42,27,25,7,7,6,29,24,1011,74,3,20140825170000
138,Meisha,,22.59611,114.318345,38,10,14,6,2,9,29,24,1011,74,3,20140825170000
139,Xi xiang,,22.717524,114.252304,50,11,12,13,4,9,29,24,1011,74,3,20140825170000
140,Liyuan,,22.54732,114.101205,30,7,11,11,2,5,29,24,1011,74,3,20140825170000
1072,Kwai Chung,,22.572837,113.867166,50,12,13,7,2,6,29,24,1011,74,3,20140825170000
1072,Kwai Chung,,22.627947,114.428875,50,12,13,7,2,6,29,24,1011,74,3,20140825170000
1072,Kwai Chung,,22.354168,114.134558,50,12,13,7,2,6,29,24,1011,74,3,20140825170000
141,OCT,,22.539549,113.992458,46,15,12,11,2,8,29,24,1011,74,3,20140825170000
142,Honghu,,22.559647,114.121976,42,20,15,12,2,4,29,24,1011,74,3,20140825170000
143,Mission Hills,,22.694131,114.050496,68,50,10,19,5,11,29,24,1011,74,3,20140825170000
144,Shenzhen,,22.540382,114.062982,68,50,27,19,7,13,29,24,1011,74,3,20140825170000
145,Chengdu,,30.622581,104.069564,203,101,21,31,9,12,23,20,1015,83,1,20140825170000
146,"Jinquan lianghe, Chengdu",,30.710359,103.974209,169,97,15,32,4,12,23,21,1015,88,1,20140825170000
147,"Shilidian, Chengdu",,30.684718,104.17845,178,122,16,44,14,13,23,21,1015,88,1,20140825170000
148,"Sanwayao, Chengdu",,30.568159,104.081524,167,112,20,40,4,12,23,21,1015,88,1,20140825170000
149,"Shahepu, Chengdu",,30.633685,104.120536,173,99,20,40,4,14,23,21,1015,88,1,20140825170000
150,"Liang Lane, Chengdu",,30.682601,104.076522,170,100,22,45,14,11,23,21,1014,88,0,20140825170000
151,"Caotang Temple, Chengdu",,30.651891,104.0284,170,101,21,31,9,12,23,21,1015,88,1,20140825170000
152,"Lingyansi, Chengdu",,31.025729,103.615022,78,27,36,3,4,2,23,21,1015,88,1,20140825170000
153,"Fuleshan, Mianyang",,31.472493,104.7806,151,66,31,12,6,9,24,21,1010,77,1,20140825170000
154,"High-tech Zone Water Company, Mianyang",,31.463309,104.674293,157,59,20,17,5,8,24,21,1010,77,1,20140825170000
155,"No.3 water company, Mianyang",,31.505002,104.731054,155,61,11,32,10,5,24,21,1010,77,1,20140825170000
156,Mianyang,,31.465174,104.681731,157,72,31,32,10,9,24,21,1010,77,1,20140825170000
157,"Dongshan Park, Deyang",,31.118648,104.424587,151,63,24,9,4,8,23,21,1015,88,1,20140825170000
158,"Xixiaoqu, Deyang",,31.131159,104.390972,164,81,28,14,11,12,23,21,1015,88,1,20140825170000
159,"City Procuratorate, Deyang",,31.114554,104.407986,162,72,29,17,12,14,23,21,1015,88,1,20140825170000
160,"Refractory Factory, Deyang",,31.108606,104.356506,167,99,17,15,12,6,23,21,1015,88,1,20140825170000
161,Deyang,,31.124715,104.400703,167,99,29,17,12,14,23,21,1015,88,1,20140825170000
162,"Nongnongping, Panzhihua",,26.566698,101.695438,142,88,12,24,48,16,19,14,0,69,0,20140825170000
163,"Hemenkou, Panzhihua",,26.589072,101.578312,129,78,15,18,20,15,19,14,0,69,0,20140825170000
164,"Bingcaogang, Panzhihua",,26.58143,101.718473,93,76,13,25,33,17,19,14,0,69,0,20140825170000
165,"Renhe, Panzhihua",,26.498166,101.746887,107,45,13,9,5,15,19,14,0,69,0,20140825170000
166,"Jinjina, Panzhihua",,26.553226,101.84862,99,73,10,11,13,21,19,14,0,69,0,20140825170000
167,Panzhihua,,26.578779,101.720211,142,88,15,25,48,21,19,14,0,69,0,20140825170000
168,"Shima Middle School, Yibin",,28.815979,104.599199,154,75,31,14,11,10,26,22,1011,71,0,20140825170000
169,"Municipal party committee, Yibin",,28.762654,104.624834,165,82,27,16,12,8,26,22,1011,71,0,20140825170000
170,"No. 4 middle school, Yibin",,28.783257,104.608407,161,86,22,21,7,7,26,22,1011,71,0,20140825170000
171,"City government, Yibin",,28.760477,104.644079,154,91,26,20,10,10,26,22,1011,71,0,20140825170000
172,"Huangjinzui, Yibin",,28.712319,104.578389,180,85,38,13,8,9,26,22,1011,71,0,20140825170000
173,"Shaping Middle School, Yibin",,28.795569,104.681393,122,43,29,7,6,8,26,22,1011,71,0,20140825170000
174,Yibin,,28.748384,104.645766,180,91,38,21,12,10,26,22,1011,71,0,20140825170000
175,"Datang Hill, Zigong",,29.359969,104.757388,162,75,20,9,5,6,23,19,1001,76,1,20140825170000
176,"Yanma Road, Zigong",,29.355752,104.724036,163,92,23,4,5,8,23,19,1001,76,1,20140825170000
177,"Tanmulin Street, Zigong",,29.353555,104.777397,154,61,29,7,17,4,23,19,1001,76,1,20140825170000
178,"Chunhua Road, Zigong",,29.33825,104.771895,163,79,24,6,15,8,23,19,1001,76,1,20140825170000
179,Zigong,,29.33617,104.781138,163,92,29,9,17,8,23,19,1001,76,1,20140825170000
180,"Jiushi Hill, Luzhou",,28.955347,105.434207,161,62,91,4,1,5,23,19,1001,77,1,20140825170000
181,"Xiaoshishang Port, Luzhou",,28.899583,105.447192,163,93,92,30,7,6,23,19,1001,77,1,20140825170000
182,"Lantianxian Bridge, Luzhou",,28.852766,105.4358,164,97,130,25,4,5,23,19,1001,77,1,20140825170000
183,"City Environment Monitoring Station, Luzhou",,28.895898,105.435802,158,76,52,43,8,7,23,19,1001,77,1,20140825170000
184,Luzhou,,28.868782,105.445938,164,97,130,43,8,7,23,19,1001,77,1,20140825170000
185,"City Committee, Nanchong",,30.799993,106.082906,137,64,32,17,13,6,27,22,1011,68,1,20140825170000
186,"Refinery Factory, Nanchong",,30.819412,106.10712,157,71,27,14,22,4,27,22,1011,68,1,20140825170000
187,"Gaoping District Monitoring Station, Nanchong",,30.783291,106.110417,147,70,27,11,15,7,27,22,1011,68,1,20140825170000
188,"Jialing District EPB, Nanchong",,30.761255,106.06818,162,62,34,17,3,9,27,22,1011,68,1,20140825170000
189,"City Environmental Monitoring Station, Nanchong",,30.836519,106.11272,142,66,13,13,19,4,27,22,1011,68,1,20140825170000
190,Nanchong,,30.835511,106.114717,162,71,34,17,22,9,27,22,1011,68,1,20140825170000
1249,"City Monitoring Station, Neijiang",,29.592673,105.036234,177,94,36,4,5,5,23,19,1001,76,1,20140825170000
1250,"Dongxing District Government , Neijiang",,29.592148,105.074966,171,87,34,5,5,5,23,19,1001,76,1,20140825170000
1251,"No 2 middle school, Neijiang",,29.579135,105.068548,165,86,41,4,8,7,23,19,1001,76,1,20140825170000
1252,Neijiang,,29.577653,105.06166,177,94,41,9,8,7,23,19,1001,76,1,20140825170000
1253,"City Monitoring Station, Suining",,30.610641,105.683583,158,82,47,12,3,0,25,20,0,73,1,20140825170000
1254,"Administrative center , Suining",,30.63206,105.819747,169,113,31,7,1,4,25,20,0,73,1,20140825170000
1255,Suining,,30.530053,105.596307,169,113,47,25,4,14,25,20,0,73,1,20140825170000
1256,"City Monitoring Station, Leshan",,29.560651,103.759211,104,44,39,5,2,11,22,19,0,84,1,20140825170000
1257,"Leshan Giant Buddha Scenic Area , Leshan",,29.543938,103.772706,97,46,43,2,2,10,22,19,0,84,1,20140825170000
1258,Leshan,,29.54935,103.767777,104,46,45,8,3,11,22,19,0,84,1,20140825170000
1259,"Heilongtan , Meishan",,30.047726,103.900649,-,-,-,-,-,-,-,-,0,-,-,20140825170000
1260,"Bureau of Meteorology, Meishan",,30.084591,103.843715,210,134,34,8,4,9,23,21,1015,88,1,20140825170000
1261,"Xuguang Community , Meishan",,30.066277,103.8516,254,123,33,12,4,7,23,21,1015,88,1,20140825170000
1262,"City Monitoring Station, Meishan",,30.059205,103.836229,178,102,29,12,5,9,23,21,1015,88,1,20140825170000
1263,Meishan,,30.072618,103.85064,254,134,34,12,5,9,23,21,1015,88,1,20140825170000
1264,"Ziyang middle school, Ziyang",,30.147763,104.638024,-,-,-,-,-,-,-,-,0,-,-,20140825170000
1265,Ziyang,,30.126054,104.63004,154,75,43,7,22,12,24,19,1001,76,1,20140825170000
191,Shenyang US Consulate,,41.785668,123.432865,149,77,12,25,9,5,19,19,1011,100,1,20140825170000
192,"Huishan, Shenyang",,41.835421,123.647773,63,18,12,4,3,5,19,19,1011,100,1,20140825170000
193,"Hunnan, Shenyang",,41.758263,123.540809,124,74,14,23,26,6,19,19,1011,100,1,20140825170000
194,"Zhangshi, Shenyang",,41.771679,123.289859,117,62,5,19,5,7,19,19,1011,100,1,20140825170000
195,"Artillery College, Shenyang",,41.835749,123.547799,57,51,9,13,2,5,19,19,1011,100,1,20140825170000
196,"Beiling, Shenyang",,41.849633,123.434146,76,23,2,15,2,6,19,19,1011,100,1,20140825170000
197,"Wenyi Road, Shenyang",,41.767444,123.416144,107,77,15,25,9,7,19,19,1011,100,1,20140825170000
198,"Xiaoheyan, Shenyang",,41.779828,123.484015,93,52,9,27,4,7,19,19,1011,100,1,20140825170000
199,"Taiyuan Street, Shenyang",,41.799646,123.406146,124,57,3,32,5,8,19,19,1011,100,1,20140825170000
200,"Ermao, Shenyang",,41.783011,123.366679,134,59,19,33,11,6,19,19,1011,100,1,20140825170000
201,"Liaoning University, Shenyang",,41.830704,123.361071,117,61,11,22,3,5,19,19,1011,100,1,20140825170000
202,Shenyang,,41.808126,123.437611,149,77,3,32,9,8,19,19,1011,100,1,20140825170000
1104,"wenhua street, Shenyang , Shenyang",,41.774139,123.441839,107,77,15,25,9,7,19,19,1011,100,1,20140825170000
1105,"Tanglin Road , Shenyang , Shenyang",,41.823665,123.562317,55,47,7,6,2,5,19,19,1011,100,1,20140825170000
203,"Ganjingzi, Dalian",,38.9747,121.616893,78,30,35,7,1,4,22,19,1011,83,4,20140825170000
204,"Zhoushuizi, Dalian",,38.951928,121.569981,57,32,35,12,3,7,22,19,1011,83,4,20140825170000
205,"Xinghai No 3 station, Dalian",,38.885779,121.568864,72,30,35,6,4,4,22,19,1011,83,4,20140825170000
206,"Qingniwa Bridge, Dalian",,38.91274,121.638018,61,31,34,26,1,6,22,19,1011,83,4,20140825170000
207,"Fujiazhuang, Dalian",,38.864647,121.629947,72,34,28,10,8,9,22,19,1011,83,4,20140825170000
208,"Qixianling, Dalian",,38.856978,121.523169,70,73,50,5,2,11,22,19,1011,83,4,20140825170000
209,"Lushun, Dalian",,38.808946,121.264063,59,20,28,1,1,3,22,19,1011,83,4,20140825170000
210,"Jinzhou, Dalian",,39.132192,121.753259,89,37,16,13,2,1,22,19,1011,83,4,20140825170000
211,"BDA, Dalian",,39.05213,121.782022,85,40,12,8,2,4,22,19,1011,83,4,20140825170000
212,"D&D Port, Dalian",,39.064087,121.981874,95,40,11,8,5,7,22,19,1012,83,3,20140825170000
213,Dalian,,38.91478,121.619625,72,34,33,22,8,9,22,19,1011,83,4,20140825170000
214,"Bearing Factory, Dandong",,40.068929,124.345703,61,20,12,8,11,14,21,20,1010,92,2,20140825170000
215,"Financial school, Dandong",,40.158723,124.432593,76,22,14,7,7,7,21,20,1010,92,2,20140825170000
216,"Yuanbaoshan water, Dandong",,40.149431,124.391698,70,44,23,6,11,17,21,20,1010,92,2,20140825170000
217,"Experimental Primary School, Dandong",,39.887343,124.158056,76,28,18,8,4,25,21,20,1010,92,2,20140825170000
218,Dandong,,40.002046,124.360479,76,28,23,8,11,25,21,20,1010,92,2,20140825170000
1106,"minzhu bridge, Dandong , Dandong",,40.112974,124.373604,76,28,18,8,4,25,21,20,1010,92,2,20140825170000
1107,"yuanbaoshan, Dandong , Dandong",,40.146298,124.399081,70,44,23,6,11,17,21,20,1010,92,2,20140825170000
1108,"linjiang houjie, Dandong , Dandong",,40.152757,124.431745,76,22,14,7,7,7,21,20,1010,92,2,20140825170000
219,"BDA, Panjin",,41.157144,122.06645,82,48,19,18,3,15,14,13,0,92,0,20140825170000
220,"Xinglongtai, Panjin",,41.140948,122.111343,89,53,14,16,13,8,14,13,0,92,0,20140825170000
221,"Dingxiang, Panjin",,41.16139,121.928781,46,17,22,5,7,6,14,12,0,92,0,20140825170000
222,Panjin,,41.122089,122.076206,89,53,22,18,13,15,14,13,0,92,0,20140825170000
223,"No.3 water company, Yingkou",,40.682052,122.385352,59,36,24,26,7,9,19,18,1012,91,1,20140825170000
224,"Yingkou University, Yingkou",,40.683689,122.388285,68,38,21,36,6,7,19,18,1012,91,1,20140825170000
225,"Botanical garden, Yingkou",,40.711674,122.281568,63,23,18,32,4,7,19,18,1012,91,1,20140825170000
226,Yingkou,,40.668578,122.24059,91,54,18,23,8,14,19,18,1012,91,1,20140825170000
1109,"jinghu west street, Yingkou , Yingkou",,40.653831,122.221943,59,36,24,26,7,9,19,18,1012,91,1,20140825170000
1110,"Daqing Road , Yingkou , Yingkou",,40.709181,122.28243,59,21,15,21,4,7,19,18,1012,91,1,20140825170000
227,"Xishanpo, Huludao",,40.724078,120.921974,55,27,28,15,7,4,14,12,0,92,0,20140825170000
228,"Huagong hospital, Huludao",,40.755662,120.848435,104,63,18,29,1,10,14,12,0,92,0,20140825170000
229,"New district park, Huludao",,40.723415,120.853801,53,30,17,19,2,7,14,12,0,92,0,20140825170000
230,"Lianshan district governement, Huludao",,40.775488,120.872292,57,56,18,32,6,2,14,12,0,92,0,20140825170000
231,Huludao,,40.712501,120.842107,112,58,27,33,7,10,20,15,1012,63,7,20140825170000
1111,"Dongcheng District , Huludao , Huludao",,40.775362,120.871706,53,56,14,33,6,3,,,,,,20140825170000
1112,"huagong street, Huludao , Huludao",,40.758901,120.842935,112,58,18,30,2,10,,,,,,20140825170000
232,Anshan,,41.110466,123.000147,122,61,14,21,4,18,19,19,1011,100,1,20140825170000
233,"Qianshan Park, Anshan",,41.033486,123.143897,61,28,14,9,7,4,19,19,1011,100,1,20140825170000
234,"Tiexi, Anshan",,41.121636,122.97506,156,71,6,19,5,22,19,19,1011,100,1,20140825170000
235,"Taiping Station, Anshan",,41.153322,123.052433,129,56,9,19,4,11,19,19,1011,100,1,20140825170000
236,"Central Station, Anshan",,41.106731,123.002736,87,54,13,16,16,15,19,19,1011,100,1,20140825170000
237,"Shengou Temple, Anshan",,41.137157,123.031901,87,44,9,9,4,10,19,19,1011,100,1,20140825170000
1113,"Qianshan , Anshan , Anshan",,41.014521,123.122538,57,25,10,12,8,4,19,19,1011,100,1,20140825170000
1114,"Tiexi Sandao jie, Anshan",,41.103264,122.978613,156,71,6,19,5,22,19,19,1011,100,1,20140825170000
1115,"Taiyang, Anshan",,41.094946,123.019037,91,56,13,14,16,15,19,19,1011,100,1,20140825170000
238,Fushun,,41.883028,123.962984,95,53,16,18,8,8,19,19,1011,100,1,20140825170000
239,"Shenfu new town, Fushun",,41.804638,123.631684,95,45,16,18,7,8,19,19,1011,100,1,20140825170000
240,"Reservoir, Fushun",,41.8464,123.802857,-,-,-,-,-,-,-,-,0,-,-,20140825170000
241,"Train Station, Fushun",,41.89726,124.017604,89,52,16,8,7,8,19,19,1011,100,1,20140825170000
242,"Dongzhou, Fushun",,41.855578,124.044738,91,36,22,5,4,7,19,19,1011,100,1,20140825170000
243,"Xinhua, Fushun",,41.888598,123.932932,104,38,16,26,7,7,19,19,1011,100,1,20140825170000
244,"Wanghua, Fushun",,41.888825,123.093723,122,66,24,20,9,11,19,19,1011,100,1,20140825170000
245,Benxi,,41.296267,123.772371,91,50,13,14,6,17,19,19,1011,100,1,20140825170000
246,"Weining, Benxi",,41.349663,123.826071,74,32,7,10,3,17,19,19,1011,100,1,20140825170000
247,"Occupational disease hospital, Benxi",,41.305432,123.74645,80,27,15,10,5,6,19,19,1011,100,1,20140825170000
248,"Dongming, Benxi",,41.292369,123.765058,89,33,6,13,6,10,19,19,1011,100,1,20140825170000
249,"Caitun, Benxi",,41.301591,123.746039,91,50,12,4,1,8,19,19,1011,100,1,20140825170000
250,"Xihu, Benxi",,41.331332,123.773537,122,40,17,16,9,8,20,19,1011,94,1,20140825170000
251,"Dayu, Benxi",,41.308091,123.818442,78,23,15,7,9,7,19,19,1011,100,1,20140825170000
1116,"Xinlitun , Benxi , Benxi",,41.264104,123.811523,78,30,13,14,5,6,19,19,1011,100,1,20140825170000
252,Jinzhou,,41.097169,121.132647,181,121,12,28,9,8,20,15,1012,63,7,20140825170000
253,"Beihu Park, Jinzhou",,41.141447,121.137339,76,67,11,17,9,8,20,15,1012,63,7,20140825170000
254,"Monitoring station, Jinzhou",,41.113441,121.140911,112,76,10,18,9,7,20,15,1012,63,7,20140825170000
255,"Nanshan, Jinzhou",,41.570689,122.046753,181,121,13,17,7,8,20,15,1012,63,7,20140825170000
1118,"BDA, Jinzhou",,40.853915,121.061756,82,40,8,28,5,6,20,15,1012,63,7,20140825170000
1119,"tianan street, Jinzhou , Jinzhou",,41.124468,121.126119,70,34,7,17,8,8,20,15,1012,63,7,20140825170000
1120,"baigu street, Jinzhou, Jinzhou",,41.12214,121.21027,53,30,12,10,4,4,20,15,1012,63,7,20140825170000
1121,Chaoyang,,41.576022,120.456053,89,40,5,15,8,10,19,15,1011,73,0,20140825170000
472,"Fukang road, Tianjin",,39.098136,117.157621,144,91,29,22,29,13,24,18,1013,69,2,20140825170000
1122,"Agricultural Area, Chaoyang",,43.93968,125.247371,46,20,5,5,8,5,19,15,1011,73,0,20140825170000
1123,Tieling,,42.225197,123.732174,82,54,17,20,9,6,19,19,1011,100,1,20140825170000
260,"Waterpark, Tieling",,42.297031,123.880748,74,53,7,12,9,6,19,19,1011,100,1,20140825170000
1124,"Huigong Street West , Tieling , Tieling",,42.311115,123.845614,50,23,17,5,1,3,19,19,1011,100,1,20140825170000
1125,Liaoyang,,41.269312,123.24268,226,125,5,17,18,24,19,19,1011,100,1,20140825170000
1126,"Riverside Road , Liaoyang , Liaoyang",,41.176884,123.419859,-,-,-,-,-,-,-,-,0,-,-,20140825170000
1127,Fuxin,,42.02373,121.675733,179,50,17,17,6,9,-,-,0,-,-,20140825170000
266,"Agricultural Area, Fuxin",,42.071291,121.696445,50,50,15,9,5,6,13,11,0,86,1,20140825170000
267,"Industrial Area, Fuxin",,42.041052,121.715554,55,34,21,17,2,7,13,11,0,86,1,20140825170000
1128,"Yulong Metro , Fuxin , Fuxin",,42.035091,121.666531,179,16,0,15,5,9,13,11,0,86,1,20140825170000
1129,"Dongyuan , Fuxin , Fuxin",,42.029119,121.681553,-,-,-,-,-,-,-,-,0,-,-,20140825170000
268,"City Monitoring Station, Jinan",,36.662614,117.054645,157,74,39,39,19,10,23,19,1013,71,2,20140825170000
269,"Shandong Institute of Economics, Jinan",,36.63819,117.074975,109,55,45,1,15,9,23,19,1013,71,2,20140825170000
270,"Quancheng Plaza, Jinan",,36.661711,117.027043,142,80,35,28,12,9,23,19,1013,71,2,20140825170000
271,"Kegansuo, Jinan",,36.611582,116.99384,134,88,40,33,8,8,23,19,1013,71,2,20140825170000
272,"Agriculture Science Institute, Jinan",,36.663115,116.95063,153,117,33,54,11,12,23,19,1013,71,2,20140825170000
273,"Lanxiang technical school, Jinan",,36.700421,116.95342,158,117,34,22,36,8,23,19,1013,71,2,20140825170000
274,"Chemical factory, Jinan",,36.687463,116.994406,132,88,30,60,20,11,23,19,1013,71,2,20140825170000
275,"Provincial Seed Warehouse, Jinan",,36.685706,117.066348,152,80,34,39,19,12,23,19,1013,71,2,20140825170000
276,"Shandong Architecture University, Jinan",,36.681732,117.191868,154,95,35,28,12,13,23,19,1013,71,2,20140825170000
277,"Baosheng cable company, Jinan",,36.724638,117.130855,181,309,29,48,4,10,23,19,1013,71,2,20140825170000
278,"Paomaling, Jinan",,36.47869,117.219027,134,57,111,7,17,14,23,19,1013,71,2,20140825170000
279,"Changqing District Communist Party School, Jinan",,36.548797,116.770859,114,77,41,39,13,10,23,19,1013,71,2,20140825170000
280,"BDA, Jinan",,36.685835,117.130851,117,88,39,22,11,12,23,19,1013,71,2,20140825170000
281,Jinan,,36.651426,117.126625,158,117,46,105,36,12,23,19,1013,71,2,20140825170000
282,"Shinan district No. 1, Qingdao",,36.065534,120.40839,87,54,41,23,14,3,21,18,1013,83,2,20140825170000
283,"Shibei district No. 1, Qingdao",,36.069919,120.341264,65,62,40,18,8,6,21,18,1013,83,2,20140825170000
284,"Shibei district No. 2, Qingdao",,36.104146,120.36637,68,35,105,11,9,9,21,18,1013,83,2,20140825170000
285,"Huangdao District No. 1, Qingdao",,35.958935,120.191041,80,63,42,14,15,6,21,18,1013,83,2,20140825170000
286,"Huangdao District No. 2, Qingdao",,35.970487,120.160339,82,55,40,10,11,6,21,18,1013,83,2,20140825170000
287,"Laoshan District No. 1, Qingdao",,36.085881,120.451839,107,63,32,23,18,10,21,18,1013,83,2,20140825170000
288,"Laoshan District No. 2, Qingdao",,36.091075,120.490388,85,62,58,13,7,5,21,18,1013,83,2,20140825170000
289,"Licang District No. 1, Qingdao",,36.184872,120.38533,70,68,9,18,16,8,21,18,1013,83,2,20140825170000
290,"Licang District No. 2, Qingdao",,36.154369,120.432287,85,57,37,17,8,4,21,18,1013,83,2,20140825170000
291,"Chengyang District No. 1, Qingdao",,36.308502,120.40008,72,47,38,17,10,5,21,18,1013,83,2,20140825170000
292,"Chengyang District No. 2, Qingdao",,36.308429,120.465806,70,45,36,18,11,4,21,18,1013,83,2,20140825170000
293,Qingdao,,36.067358,120.387773,107,63,61,23,18,14,21,18,1013,83,2,20140825170000
294,"Zichuan Meteo. Stations, Zibo",,36.637916,117.960222,109,76,46,17,26,14,19,15,0,75,2,20140825170000
295,"Dongfeng Chemical factory, Zibo",,36.838576,118.050785,112,64,43,30,64,19,19,14,0,74,2,20140825170000
296,"Boshan shuangshan, Zibo",,36.497278,117.853581,151,70,34,44,50,13,19,15,0,75,2,20140825170000
297,"Linzi Putian Park, Zibo",,36.820171,118.315022,119,63,60,28,18,14,19,15,0,75,2,20140825170000
298,"Qilu Petrochemical, Zibo",,36.765907,118.254967,119,80,41,29,9,16,19,15,0,75,2,20140825170000
299,"Zhoucun sanjin Group, Zibo",,36.8044,117.85694,127,57,45,30,14,16,19,15,0,75,2,20140825170000
300,"Vocational College, Zibo",,36.825208,117.926305,112,54,40,38,27,18,19,15,0,75,2,20140825170000
301,"BDA, Zibo",,36.905214,118.021824,102,61,33,22,18,12,19,15,0,75,2,20140825170000
302,Zibo,,36.813618,118.060948,160,102,46,44,62,19,19,15,0,75,2,20140825170000
303,"Shizhong District Government, Zaozhuang",,34.850397,117.569545,163,100,43,28,35,9,25,22,1012,79,0,20140825170000
304,"Sewage treatment plant, Zaozhuang",,34.818951,117.595345,168,112,27,51,19,8,25,22,1012,79,0,20140825170000
305,"Xuecheng EPA, Zaozhuang",,34.790214,117.272455,167,87,36,48,17,6,25,22,1012,79,0,20140825170000
306,"Yicheng District government, Zaozhuang",,34.772806,117.57647,182,127,74,21,27,7,23,22,1013,88,0,20140825170000
307,"Taierzhuang EPA, Zaozhuang",,34.579462,117.741067,163,84,56,14,18,10,25,22,1012,79,0,20140825170000
308,"Shanting EPA, Zaozhuang",,35.070373,117.457691,151,91,63,28,7,11,25,22,1012,79,0,20140825170000
309,"City EPA, Zaozhuang",,34.809466,117.320608,160,93,111,18,35,5,25,22,1012,79,0,20140825170000
310,"High-tech zone, Zaozhuang",,34.821779,117.363495,168,89,37,22,16,7,25,22,1012,79,0,20140825170000
311,Zaozhuang,,34.809693,117.329634,182,127,74,48,86,11,23,22,1013,88,0,20140825170000
312,"City EPA, Dongying",,37.432052,118.672871,61,29,46,13,15,10,22,16,0,68,3,20140825170000
313,"Vocational College, Dongying",,37.438653,118.630567,57,44,47,19,9,9,21,16,0,71,3,20140825170000
314,"Xianhe Oil Production Plant, Dongying",,37.442419,118.510222,72,58,51,20,17,8,21,16,0,71,3,20140825170000
315,"Gengjin village, Dongying",,37.445072,118.55839,102,58,29,39,9,10,21,16,0,71,3,20140825170000
316,"City environmental company, Dongying",,37.466599,118.508012,65,38,70,17,15,9,21,16,0,71,3,20140825170000
317,"Hekou  district, Dongying",,37.883786,118.522171,65,42,76,12,9,9,21,16,0,71,3,20140825170000
318,"BDA, Dongying",,37.435162,118.701827,46,25,53,9,6,11,21,16,0,71,3,20140825170000
319,Dongying,,37.435429,118.680434,91,57,92,33,15,11,22,16,0,68,3,20140825170000
320,"Bearing Factory, Yantai",,37.544126,121.376956,65,40,45,14,12,4,,,,,,20140825170000
321,"Xijiao Chemical Station, Yantai",,37.547148,121.323695,55,7,49,11,7,8,,,,,,20140825170000
322,"Fushan Monitoring Stations, Yantai",,37.472245,121.260116,61,23,43,6,3,9,,,,,,20140825170000
323,"Mouping EPA, Yantai",,37.376681,121.586509,72,28,30,12,3,3,,,,,,20140825170000
324,"Laishan EPA, Yantai",,37.478422,121.44829,53,19,42,1,6,4,,,,,,20140825170000
325,"Laishan Shengquan Industrial Park, Yantai",,37.4271,121.408386,70,59,42,23,11,5,,,,,,20140825170000
326,"China Agricultural University, Yantai",,37.423568,121.511838,63,26,43,17,7,5,,,,,,20140825170000
327,"BDA EPA, Yantai",,37.560827,121.257954,21,21,33,10,3,4,,,,,,20140825170000
329,"Dajijia, Yantai",,37.673849,121.071465,65,12,31,9,7,4,,,,,,20140825170000
330,Yantai,,37.464793,121.453142,76,40,49,15,17,9,24,19,0,72,6,20140825170000
331,"BDA, Weifang",,36.720022,119.054064,114,69,40,17,8,9,,,,,,20140825170000
332,"Business School, Weifang",,36.682442,119.105909,104,69,48,24,7,8,,,,,,20140825170000
333,"Hanting District, Weifang",,36.773484,119.199705,99,62,50,17,10,8,,,,,,20140825170000
334,"Gongda Company, Weifang",,36.657635,119.167266,109,72,45,36,7,8,,,,,,20140825170000
335,"City EPA, Weifang",,36.701272,119.16838,102,58,47,32,10,8,,,,,,20140825170000
336,"City Arbitration Committee, Weifang",,36.702422,119.145927,93,50,56,22,9,5,,,,,,20140825170000
337,"Xinhui Group, Weifang",,36.641581,119.11679,97,63,45,23,4,9,,,,,,20140825170000
338,"Jincheng Middle School, Weifang",,36.773611,119.115539,95,44,67,39,15,9,,,,,,20140825170000
339,Weifang,,36.707217,119.167638,122,72,67,39,15,10,21,16,0,71,3,20140825170000
340,"City Monitoring Station, Jining",,35.408443,116.623917,159,94,48,32,52,12,26,21,1012,62,1,20140825170000
1090,"Shengdi Hollidays Resort, Jining",,35.424746,116.699093,160,99,40,79,53,5,26,21,1012,62,1,20140825170000
341,"Sewage treatment plant, Jining",,35.364286,116.609177,170,122,26,49,14,4,26,21,1012,62,1,20140825170000
342,"Electrochemical Factory, Jining",,35.390473,116.552956,152,75,62,51,27,10,26,21,1012,62,1,20140825170000
343,"Rencheng BDA, Jining",,35.390484,116.662995,164,89,32,31,11,17,26,21,1012,62,1,20140825170000
344,"Agricultural School, Jining",,35.44235,116.601682,155,87,25,38,10,8,26,21,1012,62,1,20140825170000
345,"BDA Huojucheng, Jining",,35.436377,116.642953,158,80,90,35,68,11,26,21,1012,62,1,20140825170000
346,Jining,,35.414473,116.59239,164,99,90,79,68,17,26,21,1012,62,1,20140825170000
347,"Taishan monitoring station, Taian",,36.194362,117.159648,97,54,44,24,6,15,15,9,0,56,5,20140825170000
348,"Shandong Electric Power School, Taian",,36.176071,117.12413,144,82,39,49,9,13,15,9,0,56,5,20140825170000
349,"Population Education school, Taian",,36.194417,117.104131,172,64,49,8,8,12,15,9,0,56,5,20140825170000
350,"Houfeng company, Taian",,36.204863,117.19015,97,56,41,6,5,14,15,9,0,56,5,20140825170000
351,"Nongda new campus, Taian",,36.170179,117.165191,151,84,25,36,15,15,15,9,0,56,5,20140825170000
352,"Transportation technical school, Taian",,36.202126,117.047068,93,57,22,22,6,11,15,9,0,56,5,20140825170000
353,"ICT Technology, Taian",,36.116621,117.107458,107,78,27,47,5,14,15,9,0,56,5,20140825170000
354,Taian,,36.200502,117.093682,172,82,49,49,8,12,15,9,0,56,5,20140825170000
355,"City Environmental Monitoring Station, Weihai",,37.513939,122.067058,17,24,51,7,3,3,24,19,0,72,6,20140825170000
356,"Woodworking Factory, Weihai",,37.325455,122.160777,57,28,56,11,5,3,24,19,0,72,6,20140825170000
357,"Lantian Hotel, Weihai",,37.514641,122.146276,38,30,73,10,5,4,24,19,0,72,6,20140825170000
358,"Zhang village government, Weihai",,37.485561,122.049436,38,19,39,3,5,3,24,19,0,72,6,20140825170000
359,"Gao District Bank, Weihai",,37.534919,122.056294,46,26,63,7,13,3,24,19,0,72,6,20140825170000
360,"Huxia technical school, Weihai",,37.427951,122.130811,34,20,55,16,6,3,24,19,0,72,6,20140825170000
361,Weihai,,37.5141,122.125477,57,30,73,16,13,4,24,19,0,72,6,20140825170000
362,"City governement square, Rizhao",,35.4075,119.526008,85,40,47,12,10,4,23,20,1014,73,0,20140825170000
363,"Port Authority, Rizhao",,35.381297,119.55396,82,49,42,9,12,4,23,20,1014,73,0,20140825170000
364,"City Monitoring Station, Rizhao",,35.388683,119.496405,122,64,36,39,10,4,23,20,1014,73,0,20140825170000
365,"Professor Garden, Rizhao",,35.462161,119.574193,78,45,56,4,8,8,23,20,1014,73,0,20140825170000
366,"Vocational and Technical College, Rizhao",,35.441939,119.538187,99,47,45,20,9,4,23,20,1014,73,0,20140825170000
367,"Lanshan EPA branch, Rizhao",,35.293405,119.345716,89,50,34,26,11,6,23,20,1014,73,0,20140825170000
368,"Jinma Industrial Park, Rizhao",,35.373339,119.514108,129,97,38,41,9,4,23,20,1014,73,0,20140825170000
369,Rizhao,,35.416089,119.532316,129,97,56,41,12,8,23,20,1014,73,0,20140825170000
370,"Vegetable oil factory, Laiwu",,36.205028,117.700917,160,81,28,36,45,9,22,18,1014,72,0,20140825170000
371,"Nursing home, Laiwu",,36.266067,117.652769,152,103,35,27,36,16,22,18,1014,72,0,20140825170000
372,"Xinyi middle school, Laiwu",,36.245086,117.739025,122,74,23,32,29,14,22,18,1014,72,0,20140825170000
373,"Risheng International School, Laiwu",,36.208125,117.730959,157,78,23,12,26,12,22,18,1014,72,0,20140825170000
374,"Gangcheng EPA, Laiwu",,36.066836,117.871823,137,75,32,57,21,28,22,18,1014,72,0,20140825170000
375,"City EPA, Laiwu",,36.228913,117.694797,157,85,24,53,36,18,22,18,1014,72,0,20140825170000
376,Laiwu,,36.213688,117.682612,160,103,35,57,45,28,22,18,1014,72,0,20140825170000
377,"Lunan Pharmaceutical Factory, Linyi",,35.061671,118.299527,170,134,31,21,26,33,18,16,0,88,1,20140825170000
378,"Yihe compound, Linyi",,35.056752,118.34739,161,104,37,19,17,20,18,16,0,88,1,20140825170000
379,"Linyi University, Linyi",,35.114777,118.293414,174,133,5,16,9,23,18,16,0,88,1,20140825170000
380,City EPA,Nanfang,35.104871,118.353518,157,88,49,9,19,16,18,16,0,88,1,20140825170000
381,"Xinguang woolen factory, Linyi",,34.981004,118.282,189,190,28,29,69,17,18,16,0,88,1,20140825170000
382,"Hongfu Baijiu Factory, Linyi",,34.998788,118.257275,182,181,31,39,40,28,18,16,0,88,1,20140825170000
384,"Hedong insurance company, Linyi",,35.089354,118.40812,152,168,50,27,11,13,18,16,0,88,1,20140825170000
385,"Jianghua vehicule center, Linyi",,35.010082,118.435749,170,117,25,60,18,14,18,16,0,88,1,20140825170000
386,Linyi,,35.10428,118.362202,189,190,50,29,69,33,18,16,0,88,1,20140825170000
387,"Heima group, Dezhou",,37.466063,116.314134,158,80,23,27,6,11,22,20,1012,85,0,20140825170000
388,"Monitoring station, Dezhou",,37.433107,116.377312,147,77,15,17,6,21,22,20,1012,85,0,20140825170000
389,"Supervision Station, Dezhou",,37.449689,116.324709,154,115,22,45,13,18,22,20,1012,85,0,20140825170000
390,"Huayu technical school, Dezhou",,37.462809,116.357559,-,-,-,-,-,-,-,-,0,-,-,20140825170000
391,"Shuangyi group, Dezhou",,37.478848,116.316362,172,175,18,73,5,16,22,20,1012,85,0,20140825170000
392,Dezhou,,37.434959,116.363366,172,175,25,73,17,21,22,20,1012,85,0,20140825170000
393,"Dongchang District Government, Liaocheng",,36.444473,115.971733,151,69,38,23,15,17,24,21,1012,76,1,20140825170000
394,"Light Machinery Factory No. 2, Liaocheng",,36.456788,116.002383,156,101,38,22,8,17,24,21,1012,76,1,20140825170000
395,"City committee communist party school, Liaocheng",,36.479537,115.989288,160,89,28,39,19,14,24,21,1012,76,1,20140825170000
396,"Customs, Liaocheng",,36.431933,115.956974,149,84,30,30,12,13,24,21,1012,76,1,20140825170000
397,"Hongshun Garden, Liaocheng",,36.471124,115.960319,154,86,33,35,11,20,24,21,1012,76,1,20140825170000
398,"BDA, Liaocheng",,36.459407,116.043621,158,87,30,31,12,14,24,21,1012,76,1,20140825170000
399,Liaocheng,,36.456792,115.991051,160,101,38,39,19,20,24,21,1012,76,1,20140825170000
400,"City EPA, Binzhou",,37.38024,118.026895,171,77,24,13,15,14,25,20,1012,68,0,20140825170000
401,"Beizhong new school, Binzhou",,37.38374,117.988996,174,71,20,13,20,13,25,20,1012,68,0,20140825170000
402,"No.2 water factory, Binzhou",,37.36155,118.002648,157,68,21,15,12,12,25,20,1012,68,0,20140825170000
403,"Keling Chemical factory, Binzhou",,37.396138,117.943609,109,57,30,14,6,14,25,20,1012,68,0,20140825180000
404,"Yinhe logistics company, Binzhou",,37.356122,117.943326,155,74,22,17,19,14,25,20,1012,68,0,20140825180000
405,"Bilin compond, Binzhou",,37.36815,117.978964,129,65,20,13,13,12,25,20,1012,68,0,20140825180000
406,Binzhou,,37.382639,117.976606,174,77,30,17,20,14,25,20,1012,68,0,20140825180000
407,"Bureau of Meteorology, Heze",,35.248625,115.428775,151,70,81,9,10,12,20,13,0,61,1,20140825180000
408,"Sewage treatment plant, Heze",,35.222517,115.531511,178,111,29,12,7,13,20,13,0,61,1,20140825180000
409,"Municipal CPPCC, Heze",,35.237125,115.480591,167,96,54,23,24,13,20,13,0,61,1,20140825180000
410,"Huarun Pharmaceutical Company, Heze",,35.261463,115.524873,175,111,26,30,9,16,20,13,0,61,1,20140825180000
411,"Heze University, Heze",,35.269706,115.460934,184,114,48,48,13,11,20,13,0,61,1,20140825180000
412,Heze,,35.233354,115.486503,184,114,81,60,24,16,20,13,0,61,1,20140825180000
413,"Shiji Park, Shijiazhuang",,38.03155,114.547873,157,91,36,18,13,6,22,20,1013,88,2,20140825180000
414,"Xinan College, Shijiazhuang",,38.012764,114.473163,154,77,37,6,14,6,22,20,1013,88,2,20140825180000
415,"Chemical College, Shijiazhuang",,38.055503,114.569816,154,82,23,17,10,5,22,20,1013,88,2,20140825180000
416,"Worker hospital, Shijiazhuang",,38.051784,114.461209,158,77,44,12,8,5,22,20,1013,88,2,20140825180000
417,"Northwest Water Company, Shijiazhuang",,38.140638,114.508038,151,86,36,31,23,6,22,20,1013,88,2,20140825180000
418,"High-tech zone, Shijiazhuang",,38.040482,114.610775,161,118,27,19,22,7,22,20,1013,88,2,20140825180000
419,"Fenglong Montain, Shijiazhuang",,37.910829,114.360264,157,73,131,1,34,6,22,20,1013,88,2,20140825180000
1130,"Zhengding Unicom, Shijiazhuang",,38.159458,114.59879,181,148,26,48,18,4,22,20,1013,88,2,20140825180000
1131,"Luancheng Communications, Shijiazhuang",,37.906534,114.638785,185,110,39,38,40,7,22,20,1013,88,2,20140825180000
1132,"Gaocheng Experimental School, Shijiazhuang",,38.039518,114.867812,-,-,-,-,-,-,-,-,0,-,-,20140825180000
1133,"Wuji EPA, Shijiazhuang",,38.17862,114.997012,180,98,37,22,18,11,22,20,1013,88,2,20140825180000
1134,"Shenze Power Supply Bureau, Shijiazhuang",,38.197674,115.219126,175,104,39,25,24,9,22,20,1013,88,2,20140825180000
1135,"Zhaoxian EPA, Shijiazhuang",,37.77171,114.775957,162,103,51,14,21,7,22,20,1013,88,2,20140825180000
1136,"Gaoyi County City Hall, Shijiazhuang",,37.623535,114.612729,176,119,46,45,27,7,22,20,1013,88,2,20140825180000
1137,"Zanhuang County City Hall, Shijiazhuang",,37.672898,114.398269,174,101,46,26,6,4,22,20,1013,88,2,20140825180000
1138,"Jingxing Bureau of Meteorology, Shijiazhuang",,38.038788,114.158406,153,117,50,62,16,7,22,20,1013,88,2,20140825180000
1139,"Pingshan Ye River, Shijiazhuang",,38.266657,114.210275,166,104,37,42,8,6,22,20,1013,88,2,20140825180000
420,Shijiazhuang,,38.042926,114.520834,161,118,46,19,22,7,22,20,1013,88,2,20140825180000
421,"No. 12 middle school, Tangshan",,39.659306,118.190271,129,73,5,20,26,18,-,-,0,-,-,20140825180000
422,"Ceramics Company, Tangshan",,39.669255,118.225185,95,41,18,25,7,2,24,18,1013,69,2,20140825180000
423,"Commodities Bureau, Tangshan",,39.642301,118.191265,78,34,19,15,10,4,24,18,1013,69,2,20140825180000
424,"Leidazhanzi Station, Tangshan",,39.644375,118.150383,91,50,19,24,5,3,24,18,1013,69,2,20140825180000
425,"Supply and marketing cooperatives, Tangshan",,39.632334,118.17232,97,60,22,18,11,5,24,18,1013,69,2,20140825180000
1140,"Guye District City Hall, Tangshan",,39.741379,118.460246,155,117,12,44,6,17,24,18,1013,69,2,20140825180000
1141,"Kaiping Stations, Tangshan",,39.675246,118.275149,152,107,19,44,33,4,24,18,1013,69,2,20140825180000
1142,"Fengnan District City Hall, Tangshan",,39.5834,118.097454,112,61,31,25,9,5,24,18,1013,69,2,20140825180000
1143,"Fengrun City Hall, Tangshan",,39.840355,118.175338,191,118,20,39,9,21,24,18,1013,69,2,20140825180000
1144,"Qianxi EPA, Tangshan",,40.153339,118.317265,82,68,14,23,23,6,24,18,1013,69,2,20140825180000
1145,"Caofeidian Xinli  Primary School, Tangshan",,39.291232,118.462182,107,62,46,14,7,4,24,18,1013,69,2,20140825180000
1146,"Zunhua EPA, Tangshan",,40.206249,117.997315,82,36,14,28,14,6,24,18,1013,69,2,20140825180000
1147,"Qianan No.1 middle school, Tangshan",,40.004248,118.717055,161,70,25,17,8,9,24,18,1013,69,2,20140825180000
1266,"Luannan County , Tangshan",,39.511132,118.686928,161,84,25,35,13,7,24,18,1013,69,2,20140825180000
1267,"Yutian County , Tangshan",,39.908249,117.751417,112,80,18,56,6,6,24,18,1013,69,2,20140825180000
426,Tangshan,,39.632175,118.186472,152,107,31,44,33,5,24,18,1013,69,2,20140825180000
427,"City Monitoring Station, Qinhuangdao",,39.958109,119.607773,59,7,35,18,5,6,,,,,,20140825180000
428,"Beidaihe, Qinhuangdao",,39.829209,119.53194,124,41,23,31,14,13,,,,,,20140825180000
429,"Shanhai Pass, Qinhuangdao",,40.019298,119.767898,102,51,9,54,1,4,,,,,,20140825180000
430,"Contruction Plazz, Qinhuangdao",,39.943187,119.542912,53,76,24,31,8,5,,,,,,20140825180000
431,"City government, Qinhuangdao",,39.93711,119.612769,91,52,35,25,10,3,,,,,,20140825180000
1148,"Qinglong EPA, Qinhuangdao",,40.419223,118.958002,80,30,25,12,1,3,24,18,1013,69,2,20140825180000
1149,"Changli EPA, Qinhuangdao",,39.714369,119.173237,181,105,35,20,9,16,,,,,,20140825180000
1268,"Lulong County Bureau of Meteorology , Qinhuangdao",,39.901091,118.904857,167,76,26,17,7,7,24,18,1013,69,2,20140825180000
432,Qinhuangdao,,39.936485,119.606263,91,76,35,31,10,6,24,18,1013,69,2,20140825180000
433,"CongTai Park, Handan",,36.620197,114.501891,161,67,29,7,14,8,24,19,1013,62,1,20140825180000
434,"City EPA, Handan",,36.618145,114.518822,191,63,39,33,4,12,24,19,1013,62,1,20140825180000
435,"East Sewage Factory, Handan",,36.616064,114.548714,169,89,21,35,8,9,24,19,1013,62,1,20140825180000
436,"Mine Hospital, Handan",,36.578149,114.509854,155,76,28,15,8,8,24,19,1013,62,1,20140825180000
1150,"Fengfeng mine Inland Revenue Department, Handan",,36.423085,114.245994,167,91,22,22,11,14,24,21,1012,78,2,20140825180000
1151,"Shexian EPA, Handan",,36.589084,113.692341,173,93,49,11,8,14,,,,,,20140825180000
1152,"Ci County Vocational Education Center, Handan",,36.380247,114.390119,184,76,26,22,6,10,,,,,,20140825180000
1153,"Yongnian government guesthouse, Handan",,36.783297,114.502905,183,153,33,32,26,8,24,19,1013,62,1,20140825180000
1154,"Wuan BDA, Handan",,36.686223,114.269009,163,115,20,1,5,20,,,,,,20140825180000
1085,Handan,,36.625683,114.544812,191,89,39,35,14,12,24,19,1013,62,1,20140825180000
437,"Road and Bridge Corporation, Xingtai",,37.096415,114.538799,147,74,16,11,10,2,24,19,1013,62,1,20140825180000
438,"Dahuo fontain, Xingtai",,37.097563,114.488001,155,76,14,11,3,6,24,19,1013,62,1,20140825180000
439,"Xingtai Normal College, Xingtai",,37.053404,114.531819,154,87,7,37,13,10,24,19,1013,62,1,20140825180000
440,"Environment protection office, Xingtai",,37.06253,114.490985,117,81,5,20,11,6,24,19,1013,62,1,20140825180000
1155,"Cultural centers within the mound, Xingtai",,37.293569,114.524873,137,63,64,6,15,5,24,19,1013,62,1,20140825180000
383,Xingtai,,37.071066,114.510749,155,87,16,37,13,10,24,19,1013,62,1,20140825180000
441,"City Monitoring Station, Baoding",,38.871737,115.527103,152,71,41,8,12,10,25,18,1012,58,2,20140825180000
442,"Surface water Company, Baoding",,38.842891,115.467326,185,102,27,37,27,7,25,18,1012,58,2,20140825180000
443,"Huadian II, Baoding",,38.896748,115.528102,124,73,41,2,11,5,25,18,1012,58,2,20140825180000
444,"Reception Center, Baoding",,38.911905,115.477301,144,79,29,16,5,8,25,18,1012,58,2,20140825180000
445,"Film Factory, Baoding",,38.876949,115.448383,161,99,27,21,7,8,25,18,1012,58,2,20140825180000
446,"Natatorium, Baoding",,38.863815,115.499212,153,91,32,18,29,7,25,18,1012,58,2,20140825180000
1156,"Qingyuan City Hall, Baoding",,38.771758,115.502189,154,87,31,11,6,3,25,18,1012,58,2,20140825180000
1157,"Xushui EPA, Baoding",,39.025781,115.668023,13,104,44,21,18,7,25,18,1012,58,2,20140825180000
1158,"Zhouzhou Monitoring Stations, Baoding",,39.493241,116.040187,102,61,43,17,10,1,25,18,1012,58,2,20140825180000
1159,"Gaobeidian EPA, Baoding",,39.3329,115.885891,99,69,37,26,34,2,25,18,1012,58,2,20140825180000
447,Baoding,,38.874791,115.471124,185,102,41,37,29,10,25,18,1012,58,2,20140825180000
448,"Century Compound, Zhangjiakou",,40.770279,114.909106,57,38,11,7,11,2,20,2,1013,20,3,20140825180000
449,"North Pumping Station, Zhangjiakou",,40.874362,114.910119,91,19,20,5,17,10,20,2,1013,20,3,20140825180000
450,"Hardware Warehouse, Zhangjiakou",,40.81232,114.887119,21,27,25,10,12,14,20,2,1013,20,3,20140825180000
451,"Tanji Chang, Zhangjiakou",,40.796301,114.89811,59,20,19,4,9,4,20,2,1013,20,3,20140825180000
1160,"Xiahuayuan EPA, Zhangjiakou",,40.509345,115.302442,59,42,44,17,15,1,22,1,1013,15,2,20140825180000
1161,"Huaian EPA, Zhangjiakou",,40.68157,114.398646,55,40,21,7,16,0,20,2,1013,20,3,20140825180000
1162,"Huailai Fuqian Primary School, Zhangjiakou",,40.422204,115.530285,42,56,17,29,14,1,20,2,1013,20,3,20140825180000
1269,"Zhangbei EPA , Zhangjiakou",,41.166775,114.732369,78,54,16,23,3,1,20,2,1013,20,3,20140825180000
1270,"Kangbao County Environmental Protection Agency , Zhangjiakou",,41.837866,114.591246,76,68,4,2,5,3,20,2,1013,20,3,20140825180000
1271,"Guyuan County welfare , Zhangjiakou",,41.669984,115.687401,78,40,17,14,2,4,20,2,1013,20,3,20140825180000
1272,"Shangyi County Environmental Protection Bureau , Zhangjiakou",,41.086638,113.984688,95,46,17,6,4,3,20,2,1013,20,3,20140825180000
1273,"Yuxian Secondary School , Zhangjiakou",,39.84699,114.601986,97,57,30,10,5,4,20,2,1013,20,3,20140825180000
1274,"Yang County Vocational Education Center , Zhangjiakou",,40.106343,114.134732,76,54,32,8,4,6,20,2,1013,20,3,20140825180000
1275,"Wan county Environmental Protection Agency , Zhangjiakou",,40.770459,114.75033,72,36,34,15,3,2,20,2,1013,20,3,20140825180000
473,"Nankou road, Tianjin",,39.174022,117.199688,122,73,12,30,7,7,24,18,1013,69,2,20140825180000
1276,"Zhuolu County Environmental Protection Agency , Zhangjiakou",,40.374273,115.221393,63,27,26,1,2,2,20,2,1013,20,3,20140825180000
452,Zhangjiakou,,40.825744,114.893659,112,63,25,10,22,14,20,2,1013,20,3,20140825180000
453,"Railway, Chengde",,40.917557,117.972331,53,48,10,15,3,1,17,12,1013,65,1,20140825180000
454,"Cultural Center, Chengde",,40.974625,117.824437,57,34,10,17,3,4,17,12,1013,65,1,20140825180000
455,"Bank of China, Chengde",,40.985582,117.958304,68,31,13,19,20,5,17,12,1013,65,1,20140825180000
456,"BDA, Chengde",,40.937567,117.969325,72,52,15,21,29,4,17,12,1013,65,1,20140825180000
457,"Ligong, Chengde",,41.012579,117.94428,132,31,13,14,1,3,17,12,1013,65,1,20140825180000
1163,"Chengde County EPA, Chengde",,40.776643,118.17646,89,61,15,16,2,6,17,12,1013,65,1,20140825180000
1164,"Xinglong County City Hall, Chengde",,40.424301,117.513488,89,32,14,9,3,6,17,12,1013,65,1,20140825180000
1165,"Luanping EPA, Chengde",,40.950792,117.350715,53,32,16,9,7,4,17,12,1013,65,1,20140825180000
1166,"Fengning County City Hall, Chengde",,41.216739,116.658037,74,40,17,11,1,5,17,12,1013,65,1,20140825180000
1277,"Longhua EPA , Chengde",,41.311956,117.739605,70,51,11,13,6,3,17,12,1013,65,1,20140825180000
458,Chengde,,40.955652,117.968737,132,52,15,21,29,5,17,12,1013,65,1,20140825180000
459,"Municipal EPB, Cangzhou",,38.323507,116.876746,97,86,31,38,12,8,24,18,1012,69,3,20140825180000
460,"Cangxian Urban Construction Bureau, Cangzhou",,38.299495,116.890734,127,101,24,32,5,6,24,18,1012,69,3,20140825180000
461,"TV Broadcast Station, Cangzhou",,38.325525,116.863761,127,66,21,17,9,7,24,18,1012,69,3,20140825180000
1167,"Qing County City Hall, Cangzhou",,38.589643,116.815876,165,82,1,47,12,3,24,18,1012,69,3,20140825180000
1168,"Poyoushi City Hall, Cangzhou",,38.089516,116.590575,147,77,1,17,22,4,24,18,1012,69,3,20140825180000
1169,"Huanghua Finance Bureau Training Center, Cangzhou",,38.377793,117.343356,163,91,49,12,38,2,24,18,1012,69,3,20140825180000
462,Cangzhou,,38.305035,116.844625,127,101,31,38,12,8,24,18,1012,69,2,20140825180000
463,"Environmental Monitoring Supervision Center, Langfang",,39.558157,116.720995,25,13,0,5,2,0,24,18,1012,69,3,20140825180000
464,"TCM Medical Material Company, Langfang",,39.519096,116.689914,85,54,32,12,6,4,24,18,1012,69,3,20140825180000
465,"BDA, Langfang",,39.576175,116.779041,152,84,22,43,8,6,24,18,1012,69,3,20140825180000
466,"North China Institute of Aerospace, Langfang",,39.53517,116.743027,76,49,31,17,7,4,24,18,1012,69,3,20140825180000
1170,"Guan Party School, Langfang",,39.446185,116.311026,107,66,37,42,6,2,24,18,1012,69,3,20140825180000
1171,"Xianghe EPA, Langfang",,39.76725,117.015252,139,66,32,32,25,3,24,18,1012,69,3,20140825180000
1172,"Wenan County EPA, Langfang",,38.880927,116.47001,137,57,50,13,13,5,24,18,1012,69,3,20140825180000
1173,"Three Rivers Department of Transportation, Langfang",,39.989419,117.091528,104,58,24,33,3,3,24,18,1012,69,3,20140825180000
1278,"Yongqing EPA , Langfang",,39.329071,116.510917,129,104,38,35,17,4,24,18,1012,69,3,20140825180000
1279,"Dacheng EPA, Langfang",,38.712628,116.665751,151,81,47,22,36,9,24,18,1012,69,3,20140825180000
467,Langfang,,39.539148,116.689668,152,84,32,43,8,6,24,18,1012,69,2,20140825180000
468,"Hengshui City EPB, Hengshui",,37.739679,115.695929,173,76,40,7,9,10,17,14,0,79,1,20140825180000
469,"Environmental Monitoring Station, Hengshui",,37.738593,115.648837,156,103,38,28,4,9,17,14,0,79,1,20140825180000
470,"Electrical Machine North Factory, Hengshui",,37.758686,115.70094,139,75,78,11,4,8,20,13,0,60,2,20140825180000
1174,"Anping EPA, Hengshui",,38.238559,115.537988,200,105,38,21,13,9,17,14,0,79,1,20140825180000
1175,"Jizhou EPA, Hengshui",,37.548552,115.58679,174,68,43,14,11,9,17,14,0,79,1,20140825180000
1280,"Zaoqiang EPA, Hengshui",,37.520698,115.714936,170,77,57,11,13,8,17,14,0,79,1,20140825180000
1281,"Wuyi EPA, Hengshui",,37.801554,115.898697,180,105,41,13,27,8,17,14,0,79,1,20140825180000
1282,"Wuqiang EPA , Hengshui",,38.03557,115.959767,179,92,38,17,11,11,17,14,0,79,1,20140825180000
1283,"Raoyang EPA , Hengshui",,38.230652,115.741041,181,86,76,7,13,6,19,13,0,66,2,20140825180000
1284,"Gucheng County , Hengshui",,37.347569,115.966707,171,88,37,9,7,9,17,14,0,79,1,20140825180000
471,Hengshui,,37.739562,115.676066,173,103,40,28,9,10,17,14,0,79,1,20140825180000
1176,"Xinji City Hall, Xinji",,37.949711,115.230084,169,83,60,16,11,7,17,14,0,79,1,20140825180000
474,"Qinjian street, Tianjin",,39.166588,117.15104,149,95,20,27,13,6,24,18,1013,69,2,20140825180000
475,"Nanjing Road, Tianjin",,39.120958,117.195112,142,100,23,27,12,8,24,18,1013,69,2,20140825180000
476,"Dazhigu No.8 road, Tianjin",,39.111811,117.25147,119,90,24,24,16,14,24,18,1013,69,2,20140825180000
477,"Qianjin street, Tianjin",,39.09371,117.207981,144,108,20,33,13,9,24,18,1013,69,2,20140825180000
478,"Huaihe street, Tianjin",,39.227167,117.191293,95,9,14,50,4,4,24,18,1013,69,2,20140825180000
479,"Xiangshan street, Tianjin",,39.134752,117.275125,119,78,17,28,6,8,24,18,1013,69,2,20140825180000
480,"Yuejin Road, Tianjin",,39.088177,117.320884,127,83,22,23,5,7,24,18,1013,69,2,20140825180000
482,"No.4 street, Tianjin",,39.035228,117.713424,89,72,19,44,6,6,24,18,1013,69,2,20140825180000
483,"Yongming road, Tianjin",,38.840392,117.463805,112,46,26,16,6,7,24,18,1013,69,2,20140825180000
484,"Xinhua street, Tianjin",,39.138671,117.010083,156,101,24,37,20,11,24,18,1013,69,2,20140825180000
485,"Jingu Road, Tianjin",,38.985659,117.381254,139,77,33,11,10,11,24,18,1013,69,2,20140825180000
486,"Tanggu Yingkou street, Tianjin",,39.021768,117.656454,102,63,40,27,10,7,24,18,1013,69,2,20140825180000
487,"Hexi Yijing road, Tianjin",,39.248392,117.798043,127,60,26,25,12,11,24,18,1013,69,2,20140825180000
488,"Jianshe Road, Tianjin",,39.720075,117.310588,78,59,17,28,9,21,24,18,1013,69,2,20140825180000
489,"Quanzhou South road, Tianjin",,39.373857,117.050329,147,92,32,29,12,9,24,18,1013,69,2,20140825180000
490,"Donghuan road, Tianjin",,40.043144,117.451062,70,57,31,29,6,7,24,18,1013,69,2,20140825180000
491,"Tuanpowa, Tianjin",,38.920418,117.16299,175,126,28,24,19,19,24,18,1013,69,2,20140825180000
493,"Beiwei No.2 road, Tianjin",,38.943857,116.920624,157,99,37,36,37,10,24,18,1013,69,2,20140825180000
494,"Haitai fazhan No.2 road, Tianjin",,39.079608,117.096583,188,54,25,29,11,16,24,18,1013,69,2,20140825180000
495,"Hangtian road, Tianjin",,39.152244,117.381309,152,66,19,33,5,6,24,18,1013,69,2,20140825180000
496,"Hanbei road, Tianjin",,39.159768,117.770477,93,70,22,37,5,5,24,18,1013,69,2,20140825180000
497,"Baobai highway, Tianjin",,39.51757,117.349635,112,54,34,36,4,7,24,18,1013,69,2,20140825180000
498,Tianjin,,39.085164,117.207281,144,108,23,33,13,9,24,18,1013,69,2,20140825180000
499,"Wolong bridge, Hangzhou",,30.24371,120.132762,163,79,33,9,5,10,26,21,1013,74,1,20140825180000
500,"Hemu primary school, Hangzhou",,30.309669,120.124507,187,90,50,19,20,13,26,21,1013,74,1,20140825180000
501,"Zhejiang Agricultural University, Hangzhou",,30.265601,120.197583,186,113,43,21,29,11,26,21,1013,74,1,20140825180000
502,"Xiasha, Hangzhou",,30.303516,120.352618,195,97,45,19,18,9,26,21,1013,74,1,20140825180000
503,"Yunqi, Hangzhou",,30.178555,120.093142,158,77,20,14,4,11,26,21,1013,74,1,20140825180000
504,"Xixi, Hangzhou",,30.272425,120.068144,164,80,33,21,6,13,26,21,1013,74,1,20140825180000
505,"Chengxiang town, Hangzhou",,30.179493,120.274184,174,101,57,24,18,10,26,21,1013,74,1,20140825180000
506,"Qiandao lake, Hangzhou",,29.638139,119.031092,107,44,44,5,6,5,26,21,1013,74,1,20140825180000
507,"Linping town, Hangzhou",,30.415948,120.305059,192,103,50,18,29,11,26,21,1013,74,1,20140825180000
509,"No.2 Middle School, Hangzhou",,30.044303,119.956356,152,75,14,11,6,10,26,21,1013,74,1,20140825180000
510,"City Hall, Hangzhou",,30.234185,119.723503,160,73,48,6,5,9,26,21,1013,74,1,20140825180000
511,"No. 4 middle school, Hangzhou",,30.229428,119.699591,152,69,25,6,6,10,26,21,1013,74,1,20140825180000
512,Hangzhou,,30.271756,120.159765,187,113,84,21,29,13,26,21,1013,74,1,20140825180000
513,"City Station, Wenzhou",,28.009715,120.679129,85,37,12,24,5,6,25,24,0,96,1,20140825180000
514,"Ouhai, Wenzhou",,28.001846,120.641982,97,44,8,28,7,6,25,24,0,96,1,20140825180000
515,"Longwan, Wenzhou",,27.968122,120.768393,99,50,7,31,5,7,25,24,0,96,1,20140825180000
516,"Nanpu, Wenzhou",,27.981763,120.683685,82,41,8,24,4,14,25,24,0,96,1,20140825180000
517,Wenzhou,,27.990985,120.703425,99,50,8,31,5,14,25,24,0,96,1,20140825180000
518,"Monitoring station, Jiaxing",,30.75437,120.767373,188,94,50,18,17,15,26,23,1013,83,2,20140825180000
519,"Jiaxing University, Jiaxing",,30.745099,120.735004,188,117,51,18,20,12,25,23,1013,89,1,20140825180000
520,"Qinghe Primary School, Jiaxing",,30.775685,120.747969,183,110,55,24,22,12,25,23,1013,89,1,20140825180000
521,Jiaxing,,30.751627,120.762862,188,107,55,24,22,15,26,23,1013,83,2,20140825180000
522,"Chengbei water plant, Huzhou",,30.891155,120.096593,155,64,43,8,5,12,26,23,1013,83,2,20140825180000
523,"Jishan new village, Huzhou",,30.859939,120.120168,168,72,56,24,4,13,25,23,1013,89,1,20140825180000
524,"Town west water plant, Huzhou",,30.862371,120.084577,156,79,34,35,3,12,25,23,1013,89,1,20140825180000
525,Huzhou,,30.892304,120.091694,168,79,56,35,5,13,25,23,1013,89,1,20140825180000
526,"Donghu middle school, Shaoxing",,29.990447,120.647547,142,58,36,14,10,9,26,21,1013,74,1,20140825180000
527,"City EPA station, Shaoxing",,30.001695,120.584318,188,115,40,29,8,11,26,21,1013,74,1,20140825180000
528,"Chengdong BDA committee, Shaoxing",,29.986643,120.613578,154,60,41,17,7,8,26,21,1013,74,1,20140825180000
529,"Paojiang station, Shaoxing",,30.07574,120.62154,190,115,41,40,34,16,26,21,1013,74,1,20140825180000
530,"Shaoxing technical school, Shaoxing",,29.930983,120.577131,137,58,12,12,7,11,26,21,1013,74,1,20140825180000
531,"Library, Shaoxing",,29.706266,120.253183,159,83,35,10,7,12,26,21,1013,74,1,20140825180000
532,"Transporation management station, Shaoxing",,29.726405,120.221602,154,147,35,17,9,14,26,21,1013,74,1,20140825180000
533,"Dongpu Town Governement, Shaoxing",,30.049601,120.539893,171,84,29,22,28,12,26,21,1013,74,1,20140825180000
534,Shaoxing,,29.993122,120.590182,190,115,41,40,34,16,26,21,1013,74,1,20140825180000
535,"City Monitoring Station, Jinhua",,29.100031,119.690373,168,68,80,13,17,8,23,22,0,97,1,20140825180000
536,"No.15 middle school, Jinhua",,29.074022,119.652121,161,65,70,10,12,8,23,22,0,97,1,20140825180000
537,"No.4 middle school, Jinhua",,29.110109,119.653654,169,0,58,9,13,10,23,22,0,97,1,20140825180000
538,"Beiyuan, Jinhua",,29.332898,120.083351,149,68,38,15,26,9,23,22,0,97,1,20140825180000
539,"Jiangdong, Jinhua",,29.302486,120.095291,151,68,43,11,7,9,23,22,0,97,1,20140825180000
540,Jinhua,,29.076083,119.65215,169,68,80,13,17,10,23,22,0,97,1,20140825180000
541,"EPA building, Quzhou",,28.937291,118.876081,170,0,34,16,16,8,27,24,1012,81,3,20140825180000
542,"Experimental school, Quzhou",,28.961502,118.880916,168,0,33,12,11,4,27,24,1012,81,3,20140825180000
543,"Quzhou University, Quzhou",,28.971452,118.860052,153,72,15,6,5,9,27,24,1012,81,3,20140825180000
544,Quzhou,,28.966994,118.864252,170,72,34,16,16,9,27,24,1012,81,3,20140825180000
545,"Putuo east port, Zhoushan",,29.951412,122.317679,129,56,33,8,3,12,25,24,1013,94,2,20140825180000
546,"Dinghai tanfeng, Zhoushan",,30.018014,122.126566,89,57,29,6,2,10,25,24,1013,94,2,20140825180000
547,Zhoushan,,29.983049,122.210763,151,68,33,8,3,12,25,24,1013,94,2,20140825180000
548,"Taizhou EPA building, Taizhou",,28.651216,121.42331,122,59,16,5,5,10,25,24,0,96,1,20140825180000
549,"Luqiao Tian Yang Wang, Taizhou",,28.574364,121.381194,129,57,15,7,3,8,25,24,0,96,1,20140825180000
550,"Huangyan EPA building, Taizhou",,28.656151,121.285064,127,0,10,12,2,9,25,24,0,96,1,20140825180000
551,"Yu Zhuang Qian, Lishui",,28.419638,119.883884,80,33,16,23,14,7,26,25,1013,86,0,20140825180000
552,"Monitoring station building, Lishui",,28.444379,119.923103,157,38,10,15,6,5,26,25,1013,86,0,20140825180000
553,"Liandu primary school, Lishui",,28.450912,119.939332,93,44,10,13,5,8,26,25,1013,86,0,20140825180000
554,Lishui,,28.464224,119.927201,157,44,16,23,14,8,26,25,1013,86,0,20140825180000
1248,Jingningxian,,27.977454,119.634837,61,39,1,7,2,5,26,25,1013,86,0,20140825180000
555,Taigu Primary School,,29.858177,121.593738,-,-,-,-,-,-,-,-,0,-,-,20140825180000
556,Qianhu shuihan,,29.862459,121.5328,169,80,19,26,6,14,25,24,1012,94,0,20140825180000
557,Sanjiang secondary schools,,29.884687,121.562713,159,77,18,35,17,13,25,24,1013,94,2,20140825180000
558,Longsai Hospital,,29.949294,121.720671,163,73,21,44,13,14,25,24,1013,94,2,20140825180000
559,Beilun District EPB,,29.899544,121.827597,134,59,41,16,4,9,25,24,1012,94,0,20140825180000
560,Wanli University,,29.896155,121.541154,147,94,26,21,5,16,25,24,1013,94,2,20140825180000
561,Qianhu water plant,,29.788156,121.652415,112,51,27,7,4,9,25,24,1013,94,2,20140825180000
562,Municipal management station,,29.893743,121.620269,157,69,21,29,5,13,25,24,1013,94,2,20140825180000
1177,Daxie Literary Museum,,29.891281,121.952741,129,62,22,17,3,11,25,24,1013,94,2,20140825180000
1178,Cixi EPB,,30.159852,121.242331,154,96,37,15,7,15,25,24,1013,94,2,20140825180000
1179,Cixi Experimently Primary School,,30.174341,121.262169,153,79,45,6,4,14,25,24,1013,94,2,20140825180000
1180,"Yongsan Park, Yuyao",,30.045532,121.157602,-,-,-,-,-,-,-,-,0,-,-,20140825180000
1181,"Qilupu Water Company, Yuyao",,30.039112,121.133416,-,-,-,-,-,-,-,-,0,-,-,20140825180000
1182,Fenghua EPB,,29.660537,121.414074,102,60,29,6,3,9,25,24,1013,94,2,20140825180000
1183,"Yuelong station, Ninghai",,29.290223,121.439263,114,60,14,11,6,11,25,24,1013,94,2,20140825180000
1184,"Wenfeng Primary School, Xiangshan",,29.470841,121.895054,104,67,23,6,3,9,25,24,1013,94,2,20140825180000
1185,"Chengnan Primary School, Ninghai",,29.282647,121.428839,107,56,15,8,6,10,25,24,1013,94,2,20140825180000
1186,"Xingang Primary School, Xiangshan",,29.199718,121.935879,102,65,36,11,4,9,25,24,1013,94,2,20140825180000
1294,Ningbo,,29.865766,121.548164,163,94,26,44,13,16,25,24,1013,94,2,20140825180000
1187,Fuyang,,30.046157,119.96468,152,75,14,11,6,10,26,21,1013,74,1,20140825180000
1188,Yiwu,,29.304353,120.079794,151,68,43,15,26,9,-,-,0,-,-,20140825180000
1189,Zhuji,,29.711185,120.240748,159,147,35,17,9,14,26,21,1013,74,1,20140825180000
563,"Shanxi Road , Nanjing",,32.06795,118.779216,142,68,32,29,4,12,24,23,1013,94,2,20140825180000
564,"Ruijin Road , Nanjing",,32.029321,118.80817,107,62,20,31,3,11,24,23,1013,94,2,20140825180000
565,"Xuanwu Lake, Nanjing",,32.075423,118.800188,53,44,26,26,4,7,24,24,1013,100,1,20140825180000
566,"Olympic Center, Nanjing",,32.007171,118.742217,109,51,21,16,2,8,24,23,1013,94,2,20140825180000
567,"Xianlin University Town , Nanjing",,32.106958,118.919882,155,66,22,11,2,12,24,23,1013,94,2,20140825180000
568,Nanjing,,32.058179,118.802061,95,59,21,31,5,10,24,24,1013,100,1,20140825180000
569,"Shangfang hill , Suzhou",,31.24502,120.565211,184,95,24,24,10,12,25,23,1013,89,1,20140825180000
570,"Wuzhong District , Suzhou",,31.268105,120.61717,188,99,22,27,8,13,25,23,1013,89,1,20140825180000
571,"Suzhou New District , Suzhou",,31.297277,120.547262,190,102,31,20,13,12,25,23,1013,89,1,20140825180000
572,"Suzhou Industrial Area, Suzhou",,31.307603,120.673257,190,109,32,13,21,11,25,23,1013,89,1,20140825180000
573,"Xiangcheng district, Suzhou",,31.368674,120.645209,189,112,35,18,25,13,25,23,1013,89,1,20140825180000
574,Suzhou,,31.296701,120.589493,221,112,40,46,41,14,25,23,1013,89,1,20140825180000
575,"South suburb , Nantong",,31.957836,120.917218,163,78,35,11,10,9,20,20,1003,95,1,20140825180000
576,"Xinghu park, Nantong",,31.927873,120.944254,157,78,44,16,10,9,20,20,1003,95,1,20140825180000
577,"Zilang school, Nantong",,32.039638,120.814358,161,83,46,15,5,0,20,20,1003,95,1,20140825180000
578,Nantong,,31.978005,120.898555,163,69,45,25,12,10,20,20,1003,95,1,20140825180000
579,Lianyungang,,34.595509,119.226814,152,84,21,27,10,7,8,8,1016,96,0,20140825180000
580,"Hongmen police substation, Lianyungang",,34.588692,119.146693,161,95,29,36,4,12,23,22,1014,98,0,20140825180000
581,"Xugou Nuclear Expert Village , Lianyungang",,34.749957,119.373707,154,103,23,39,8,8,23,22,1014,98,0,20140825180000
582,"Hengrui pharmaceutical company, BDA, Lianyungang",,34.697574,119.353668,142,126,30,7,3,10,23,22,1014,98,0,20140825180000
583,"City Monitoring Station, Lianyungang",,34.586791,119.186929,160,85,30,22,5,11,23,22,1014,98,0,20140825180000
584,"Yellow river new village , Xuzhou",,34.271542,117.177241,119,72,45,12,18,12,23,22,1013,88,0,20140825180000
585,"Tongshan Veterinary Hospital , Xuzhou",,34.307086,117.197766,139,63,49,27,12,12,23,22,1013,90,0,20140825180000
586,"New Town , Xuzhou",,34.213992,117.261718,155,81,34,15,16,17,23,22,1013,90,0,20140825180000
587,"Taoyuan road, Xuzhou",,34.289822,117.249721,149,66,38,12,14,16,23,22,1013,88,0,20140825180000
588,"Agricultural Science Academy , Xuzhou",,34.27655,117.299079,151,72,54,8,27,12,23,22,1013,88,0,20140825180000
589,"Tongshan EPA, Xuzhou",,34.179384,117.171798,151,71,32,17,10,11,23,22,1013,88,0,20140825180000
590,Xuzhou,,34.20346,117.289825,155,86,49,27,40,19,23,22,1013,90,0,20140825180000
591,Yangzhou,,32.39233,119.418446,159,69,10,19,10,5,11,9,0,90,6,20140825180000
592,"Hanjiang Monitoring Station, Yangzhou",,32.374218,119.394484,182,95,32,9,11,10,20,20,0,94,1,20140825180000
593,"No. 4 Hospital, Yangzhou",,32.401394,119.44444,174,103,32,14,14,8,20,20,0,94,1,20140825180000
594,"City Monitoring Station, Yangzhou",,32.406588,119.41591,178,97,8,15,23,10,20,20,0,94,1,20140825180000
595,"University Town , Wuxi",,31.484752,120.273571,171,86,38,11,8,13,25,23,1013,89,1,20140825180000
596,"Shibei High School , Wuxi",,31.619969,120.279584,179,101,39,35,38,5,25,23,1013,89,1,20140825180000
597,"Yuhong Elementary School , Wuxi",,31.561155,120.249588,171,92,47,20,19,7,25,23,1013,89,1,20140825180000
598,Wuxi,,31.488746,120.31575,183,103,47,39,38,22,25,23,1013,89,1,20140825180000
599,Changzhou,,31.808037,119.979205,172,86,6,22,36,13,11,9,0,88,5,20140825180000
600,"Chengjian School, Changzhou",,31.776476,119.937681,164,87,37,26,12,11,22,21,1003,95,2,20140825180000
601,"Changzhou Engineering Institute , Changzhou",,31.806828,119.966724,163,69,42,19,11,9,22,21,1003,95,2,20140825180000
602,"Wujin Monitoring Station, Changzhou",,31.701788,119.939676,172,95,32,22,17,11,22,21,1003,95,2,20140825180000
603,"City Monitoring Station, Changzhou",,31.777201,119.979426,180,82,41,27,10,10,22,21,1003,95,2,20140825180000
604,Zhenjiang,,32.18597,119.431281,170,79,4,39,15,13,9,8,0,93,5,20140825180000
605,"New District Administrative office , Zhenjiang",,32.186174,119.685021,188,100,35,19,9,15,24,24,1013,100,1,20140825180000
606,"Vocational Education Center , Zhenjiang",,32.212973,119.496253,180,113,26,24,7,12,24,24,1013,100,1,20140825180000
764,"Lingbei, Haerbin",,45.756979,126.548008,53,29,35,9,6,5,19,18,1011,94,3,20140825180000
607,"Dantu Monitoring Station , Zhenjiang",,32.130026,119.435432,181,115,36,22,17,13,24,24,1013,100,1,20140825180000
608,"City Monitoring Station, Zhenjiang",,32.202178,119.439766,167,104,28,16,7,12,24,24,1013,100,1,20140825180000
609,"Gaogang Adminstrative office , Taizhoushi",,32.300768,119.886757,172,77,7,15,12,13,20,20,0,94,1,20140825180000
610,"Students Innovation Park , Taizhoushi",,32.461672,119.892761,180,110,37,13,11,10,20,20,0,94,1,20140825180000
611,Taizhoushi,,32.453555,119.927852,185,98,31,20,22,15,20,20,0,94,1,20140825180000
612,"Yancheng power station , Yancheng",,33.400859,120.123067,162,80,34,17,13,9,-,-,0,-,-,20140825180000
613,Yancheng,,33.345939,120.168504,144,52,30,5,3,7,11,10,1016,95,4,20140825180000
614,"Wenfeng Middle School , Yancheng",,33.370531,120.134041,152,60,16,18,6,11,-,-,0,-,-,20140825180000
615,"BDA Management Committe, Yancheng",,33.393191,120.22978,144,63,20,24,4,10,-,-,0,-,-,20140825180000
616,"City Monitoring Station, Yancheng",,33.390623,120.164423,162,89,22,25,3,12,20,20,0,94,1,20140825180000
617,Suqian,,33.960666,118.281004,160,87,24,7,5,7,11,10,0,91,6,20140825180000
618,"Suqian College , Suqian",,33.951472,118.298523,174,86,42,9,11,14,20,18,0,90,0,20140825180000
619,"Suqian Middle School , Suqian",,33.95784,118.249505,171,116,25,32,10,11,20,18,0,90,0,20140825180000
620,"Suyu District Environmental Protection Agency , Suqian",,33.94932,118.326569,183,107,31,13,12,16,20,18,0,90,0,20140825180000
621,"City Monitoring Station, Suqian",,33.956982,118.277022,170,89,46,11,13,14,20,18,0,90,0,20140825180000
622,Taizhou,,28.653436,121.425185,102,47,20,5,9,9,25,24,0,96,1,20140825180000
623,Donghu Liyuan,,30.572324,114.377844,163,74,35,14,3,9,27,26,1012,94,2,20140825180000
624,Yuehu Lake,,30.554662,114.256937,163,100,24,48,2,7,27,26,1012,94,2,20140825180000
625,Hankou Huaqiao ,,30.61724,114.287652,172,107,33,59,5,12,27,26,1012,94,2,20140825180000
626,Wuchang Ziyang ,,30.530801,114.309438,155,166,28,46,1,7,27,26,1012,94,2,20140825180000
627,Qingshan Ganghua,,30.622435,114.375599,177,133,28,62,16,12,27,26,1012,94,2,20140825180000
628,Dunkou Xinou,,30.480091,114.162176,162,79,27,31,0,15,27,26,1012,94,2,20140825180000
629,Donghu Gaoxin,,30.48095,114.40724,169,196,38,64,5,10,27,26,1012,94,2,20140825180000
630,Wujianshan,,30.63114,114.135907,155,68,22,21,1,13,27,26,1012,94,2,20140825180000
631,Yuanshun Road,,30.297142,113.858587,152,55,34,5,3,6,27,26,1012,94,2,20140825180000
632,Wuhan,,30.590689,114.310838,177,166,35,72,16,12,27,26,1012,94,2,20140825180000
1190,"Silingsan Factory, Yichang",,30.713288,111.306585,147,66,13,14,15,8,24,23,1012,90,1,20140825180000
633,Yichang,,30.689528,111.292131,158,77,13,28,32,10,24,23,1012,90,1,20140825180000
633,Yichang,,30.689528,111.292131,158,77,13,28,32,10,24,23,1012,90,1,20140825180000
1191,"City Library , Jingzhou",,30.31494,112.260844,142,52,28,10,11,12,27,25,1011,83,1,20140825180000
1192,"City committee communist party school, Jingzhou",,30.35054,112.20743,137,68,23,12,8,12,27,25,1011,83,1,20140825180000
1193,"kerong EPA, Jingzhou",,30.302965,112.29443,151,68,24,10,10,11,27,25,1011,83,1,20140825180000
634,Jingzhou,,30.332608,112.245451,151,68,28,12,11,12,27,25,1011,83,1,20140825180000
634,Jingzhou,,30.332608,112.245451,151,68,28,12,11,12,27,25,1011,83,1,20140825180000
635,Huangshi,,30.19723,115.043908,163,72,89,38,9,19,26,24,1014,91,2,20140825180000
635,Huangshi,,30.19723,115.043908,163,72,89,38,9,19,26,24,1014,91,2,20140825180000
1194,"Chenjiaying, Huangshi",,30.232823,115.067923,151,66,33,20,1,19,26,,1014,91,2,20140825180000
1195,"Chenjiawan , Huangshi",,30.200422,115.082138,155,70,37,12,4,18,26,,1014,91,2,20140825180000
1196,"Xinxialu, Huangshi",,30.17332,114.954357,147,72,89,38,3,14,26,,1014,91,2,20140825180000
1197,"Tie montian, Huangshi",,30.203885,114.906439,163,68,40,17,1,11,26,,1014,91,2,20140825180000
1198,"BDA, Huangshi",,30.207491,115.031739,154,71,50,4,9,16,26,,1014,91,2,20140825180000
636,Shiyan,,32.627208,110.803311,68,46,39,56,18,4,21,,947,74,1,20140825180000
636,Shiyan,,32.627208,110.803311,68,46,39,56,18,4,21,,947,74,1,20140825180000
1199,"Wudang Mountain , Shiyan",,32.392921,111.047655,55,14,24,2,4,4,21,,947,74,1,20140825190000
1200,"Riverside Village , Shiyan",,32.647286,110.785335,68,41,39,56,9,4,21,,947,74,1,20140825190000
1201,"Liujiagou , Shiyan",,32.636732,110.731129,53,26,36,32,18,1,21,,947,74,1,20140825190000
1202,"Yunyang County District automatic air station , Shiyan",,32.833065,110.816809,-,-,-,-,-,-,-,,0,-,-,20140825190000
637,Xiangyang,,32.007029,112.128496,87,62,49,31,13,2,31,,1012,67,2,20140825190000
637,Xiangyang,,32.007029,112.128496,87,62,49,31,13,2,31,,1012,67,2,20140825190000
638,Ezhou,,30.389244,114.899884,164,86,65,25,35,25,25,24,1021,99,2,20140825190000
638,Ezhou,,30.389244,114.899884,164,86,65,25,35,25,25,24,1021,99,2,20140825190000
1203,"City government, Ezhou",,30.391836,114.892822,152,60,43,12,8,10,25,,1021,99,2,20140825190000
1204,"Zhaojiaba, Ezhou",,30.368966,114.90365,159,75,49,11,3,13,25,,1021,99,2,20140825190000
1205,"Fankou BDA, Ezhou",,30.410759,114.818225,164,86,65,25,35,25,25,,1021,99,2,20140825190000
639,Jingmen,,31.033208,112.205093,102,-,10,-,-,12,-,25,0,-,-,20140825190000
639,Jingmen,,31.033208,112.205093,102,-,10,-,-,12,-,25,0,-,-,20140825190000
640,Xiaogan,,30.922089,113.922387,164,85,45,10,2,13,30,24,1010,70,3,20140825190000
640,Xiaogan,,30.922089,113.922387,164,85,45,10,2,13,30,24,1010,70,3,20140825190000
1206,"wenhua street, Shenyang , Xiaogan",,30.925856,113.92104,162,82,45,10,2,13,30,26,1010,70,3,20140825190000
1207,"Dongcheng District , Huludao , Xiaogan",,30.917963,113.943904,164,85,30,1,1,4,30,26,1010,70,3,20140825190000
641,Huanggang,,30.45124,114.877378,147,76,69,23,18,18,25,24,1021,99,2,20140825190000
641,Huanggang,,30.45124,114.877378,147,76,69,23,18,18,25,24,1021,99,2,20140825190000
1208,"Dazhou Island, Huanggang",,30.446205,114.900323,147,76,54,23,18,16,25,,1021,99,2,20140825190000
1209,"Workers Center , Huanggang",,30.469244,114.912504,137,56,69,22,6,18,25,,1021,99,2,20140825190000
642,Xianning,,29.838978,114.327898,158,74,68,17,7,15,24,24,987,90,1,20140825190000
642,Xianning,,29.838978,114.327898,158,74,68,17,7,15,24,24,987,90,1,20140825190000
1210,"Municipal Development and Reform Commission , Xianning",,29.818645,114.328461,153,72,37,17,1,15,24,,987,90,1,20140825190000
1211,"Xianan District Governement, Xianning",,29.51107,114.181864,154,75,24,18,16,20,25,,995,84,1,20140825190000
1212,"Yangtze River Industrial Park , Xianning",,29.883098,114.32909,158,74,68,14,5,10,24,,987,90,1,20140825190000
1213,"Qianshan Park, Xianning",,29.815351,114.328689,158,71,37,8,4,14,24,,987,90,1,20140825190000
643,Suizhou,,31.688342,113.388675,169,72,99,5,9,16,27,,1007,71,2,20140825190000
643,Suizhou,,31.688342,113.388675,169,72,99,5,9,16,27,,1007,71,2,20140825190000
644,Enshi,,30.292138,109.484562,34,-,42,-,-,30,-,23,0,-,-,20140825190000
644,Enshi,,30.269587,109.493042,34,-,42,-,-,30,-,23,0,-,-,20140825190000
645,Xiantao,,30.360228,113.460616,112,-,6,-,-,9,-,25,0,-,-,20140825190000
645,Xiantao,,30.360228,113.460616,112,-,6,-,-,9,-,25,0,-,-,20140825190000
646,Qianjiang,,30.399387,112.905661,102,-,10,-,-,12,-,25,0,-,-,20140825190000
646,Qianjiang,,30.399387,112.905661,102,-,10,-,-,12,-,25,0,-,-,20140825190000
647,Tianmen,,30.661027,113.172549,112,-,6,-,-,9,-,25,0,-,-,20140825190000
647,Tianmen,,30.661027,113.172549,112,-,6,-,-,9,-,25,0,-,-,20140825190000
1088,Shennongjia,,31.741307,110.685554,76,-,12,-,-,6,-,23,0,-,-,20140825190000
1088,Shennongjia,,31.741307,110.685554,76,-,12,-,-,6,-,23,0,-,-,20140825190000
1214,"Xiangcheng Yundong Street, Xiangfan",,32.017716,112.16102,87,62,0,31,13,0,28,,1012,67,2,20140825190000
655,"City Environmental Monitoring Station, Baotou",,40.657201,109.886738,137,123,11,33,11,9,,,,,,20140825190000
656,"Donghe EPB, Baotou",,40.586213,110.002224,159,209,12,40,36,16,,,,,,20140825190000
657,"Baotou shopping mall, Baotou",,40.508334,109.819085,159,163,14,40,18,9,,,,,,20140825190000
658,"Huilong logistics, Baotou",,40.633436,109.879821,109,135,15,38,12,9,,,,,,20140825190000
659,Baotou,,40.658597,109.846051,161,209,15,40,54,16,16,3,1014,28,2,20140825190000
660,"Huatai Automobile Mall, Eerduosi",,39.837048,109.972209,50,52,48,18,2,3,16,3,1014,28,2,20140825190000
661,"Olympus Garden, Eerduosi",,39.789171,109.987742,61,68,50,27,8,6,16,3,1014,28,2,20140825190000
662,Eerduosi,,39.609284,109.78704,68,68,53,27,20,10,16,3,1014,28,2,20140825190000
663,"Tianyi Road, Chifeng",,42.275552,118.88507,57,43,32,18,31,4,16,6,1014,38,1,20140825190000
664,"Songshan No.1 Middle School, Chifeng",,42.329307,118.793045,82,83,28,16,9,11,16,6,1014,38,1,20140825190000
665,"Hada Street, Chifeng",,42.280714,118.988235,61,59,13,11,18,5,16,6,1014,38,1,20140825190000
666,"Songshan Road, Chifeng",,42.171487,118.89501,70,66,36,8,9,5,16,6,1014,38,1,20140825190000
667,Chifeng,,42.259752,118.893027,82,83,36,18,31,11,16,6,1014,38,1,20140825190000
674,Fuzhou,,26.071406,119.301294,91,55,170,22,4,6,27,25,1012,89,1,20140825190000
675,"Xidong, Xiamen",,24.815345,118.161848,74,30,130,10,2,4,28,26,1011,89,1,20140825190000
676,"Hongwen, Xiamen",,24.473969,118.156281,38,19,38,14,5,6,28,26,1011,89,1,20140825190000
677,"Gulangyu, Xiamen",,24.443168,118.068571,63,30,46,16,11,5,28,26,1011,89,1,20140825190000
678,"Huli, Xiamen",,24.51235,118.099146,99,45,41,18,5,6,28,26,1011,89,1,20140825190000
679,Xiamen,,24.477187,118.094402,99,45,46,18,11,6,28,26,1011,89,1,20140825190000
680,"Qingyuan Montain, Quanzhou",,24.939503,118.598337,87,71,91,17,13,4,28,26,1011,89,1,20140825190000
681,"Tushan Street, Quanzhou",,24.90867,118.586397,99,72,31,6,9,5,28,26,1011,89,1,20140825190000
682,"Wanan, Quanzhou",,24.304154,118.070903,82,54,47,15,8,5,28,26,1011,89,1,20140825190000
683,Quanzhou,,24.87179,118.68001,99,72,31,6,9,5,28,26,1011,89,1,20140825190000
687,"Jiancaoping, Taiyuan",,37.887889,112.528383,46,40,11,14,4,6,14,6,1018,59,1,20140825190000
688,"Jianhe, Taiyuan",,37.910779,112.579258,107,84,16,10,7,5,14,6,1018,59,1,20140825190000
689,"Shanglan, Taiyuan",,38.011589,112.440679,21,21,27,6,4,2,14,5,1018,55,1,20140825190000
690,"Jinyuan, Taiyuan",,37.713164,112.475552,87,65,18,11,8,6,14,5,1018,55,1,20140825190000
691,"Xiaodian, Taiyuan",,37.782137,112.483533,97,60,6,10,25,6,14,5,1018,55,1,20140825190000
692,"Taoyuan, Taiyuan",,37.869752,112.543332,65,51,11,27,7,7,14,5,1018,55,1,20140825190000
693,"Wucheng, Taiyuan",,37.819998,112.576252,72,88,11,19,5,8,14,5,1018,55,1,20140825190000
694,"Nanzhai, Taiyuan",,37.985902,112.555312,61,52,19,18,7,9,14,5,1018,55,1,20140825190000
695,"Jinsheng, Taiyuan",,37.781205,112.494494,82,62,23,17,15,7,14,6,1018,59,1,20140825190000
696,Taiyuan,,37.871115,112.555178,65,51,11,27,7,7,-,-,0,-,-,20140825190000
697,"Monitoring station, Changzhi",,36.194062,113.10389,159,110,22,25,30,15,24,23,1014,94,1,20140825190000
698,"Auditing bureau, Changzhi",,36.212787,113.095221,161,112,29,24,14,15,24,23,1014,94,1,20140825190000
699,"Qinghua station, Changzhi",,36.154328,113.116385,152,68,23,18,10,18,24,23,1014,94,1,20140825190000
700,"No.8 middle school, Changzhi",,36.185451,113.099481,153,69,22,28,45,20,,,,,,20140825190000
701,Changzhi,,36.195553,113.12292,161,112,29,28,45,20,25,10,1012,28,2,20140825190000
702,"Yungang Hotel, Datong",,40.076997,113.278079,68,73,19,16,12,18,13,0,1015,39,1,20140825190000
703,"college of education, Datong",,40.085608,113.27808,127,58,17,15,10,16,13,0,1015,39,1,20140825190000
704,Datong,,40.078016,113.307143,127,73,22,21,24,28,13,0,1015,39,1,20140825190000
705,"Technical Schools, Linfen",,36.07131,111.509046,124,51,33,13,18,25,14,0,0,39,2,20140825190000
706,"Municipal party committee, Linfen",,36.087425,111.508771,93,52,21,1,20,17,14,0,0,39,2,20140825190000
1073,"City Monitoring Station, Linfen",,36.097676,111.518739,129,64,19,15,9,16,14,0,0,38,2,20140825190000
707,"South Airport, Linfen",,36.041614,111.497968,124,68,11,13,11,21,14,0,0,39,2,20140825190000
708,Linfen,,36.087944,111.525098,129,69,33,20,21,25,14,0,0,38,2,20140825190000
709,"City center, Yangquan",,37.848012,113.578636,63,68,21,36,46,4,14,6,1018,59,1,20140825190000
710,Yangquan,,37.857475,113.586921,127,119,34,100,46,23,14,5,1018,55,1,20140825190000
711,"Water Company, Jincheng",,35.504787,112.857245,158,95,43,15,1,10,25,10,1012,28,2,20140825190000
712,"Baiyun shopping mall, Jincheng",,35.492858,112.841566,147,103,17,19,11,12,25,10,1012,28,2,20140825190000
713,"City EPA, Jincheng",,35.488422,112.858528,99,56,15,28,4,13,25,10,1012,28,2,20140825190000
714,"Institute of Technology, Jincheng",,35.484844,112.878073,160,121,56,13,5,9,25,10,1012,28,2,20140825190000
715,"No.1 middle school, Jincheng",,35.478725,112.838636,104,76,19,13,4,6,25,10,1012,28,2,20140825190000
716,Jincheng,,35.490287,112.85794,160,121,56,28,11,13,25,10,1012,28,2,20140825190000
718,"District Government, Shuozhou",,39.320857,112.430641,107,18,14,24,7,9,16,5,1015,39,2,20140825190000
719,"City EPA, Shuozhou",,39.331495,112.407997,107,58,14,36,12,9,22,5,1014,22,1,20140825190000
720,"No.2 middle school, Shuozhou",,39.377963,112.432877,137,85,17,38,44,10,22,5,1014,22,1,20140825190000
721,Shuozhou,,39.332756,112.439672,137,85,17,38,44,10,-,-,0,-,-,20140825190000
722,"Jinlun compound, Jinzhong",,37.697891,112.771017,53,48,10,6,2,3,14,6,1018,59,1,20140825190000
723,"Hydraulic Component Factory, Jinzhong",,37.688355,112.725844,63,54,14,22,16,4,14,6,1018,59,1,20140825190000
724,"Nandu compound, Jinzhong",,37.713148,112.732036,50,51,5,12,3,5,14,6,1018,59,1,20140825190000
725,"Yuci district government, Jinzhong",,37.698228,112.714167,70,54,5,10,10,4,14,6,1018,59,1,20140825190000
726,Jinzhong,,37.687705,112.759187,70,54,14,22,16,5,14,6,1018,59,1,20140825190000
727,"Yuncheng Middle School, Yuncheng",,35.012345,111.003215,132,83,33,15,22,13,20,15,1013,64,1,20140825190000
728,"Yudou BDA, Yuncheng",,35.05065,111.029571,-,-,-,-,-,-,-,-,0,-,-,20140825190000
730,"Regional Technical School, Yuncheng",,35.028727,110.974076,160,98,20,12,35,25,20,15,1013,64,1,20140825190000
731,"Airport new district, Yuncheng",,35.084515,111.05339,129,95,23,38,53,21,20,15,1013,64,1,20140825190000
732,Yuncheng,,35.025675,111.013344,160,98,33,38,53,25,20,15,1013,64,1,20140825190000
733,"Jiyin, Xinzhou",,38.413292,112.742432,151,69,8,29,13,11,14,6,1018,59,1,20140825190000
734,"BDA, Xinzhou",,38.450069,112.736723,57,16,13,6,32,13,14,6,1018,59,1,20140825190000
735,"Convention Center, Xinzhou",,38.492043,112.709772,70,34,0,14,26,9,14,6,1018,59,1,20140825190000
736,Xinzhou,,38.417244,112.740742,151,69,13,29,32,13,14,6,1018,59,1,20140825190000
737,"City EPA, Luliang",,37.522189,111.144365,59,45,3,21,20,10,18,16,0,87,0,20140825190000
738,"Soybean factory, Luliang",,37.51689,111.135101,80,46,6,21,2,10,21,16,0,71,1,20140825190000
739,"Water Company, Luliang",,37.53394,111.138834,72,59,8,18,7,12,21,16,0,71,1,20140825190000
740,Luliang,,25.027007,103.668566,80,59,8,21,20,12,21,16,0,71,1,20140825190000
741,"City government, Sanmenxia",,34.776251,111.198781,107,82,24,39,35,4,19,15,1013,73,1,20140825190000
743,"BDA, Sanmenxia",,34.800434,111.204332,144,83,23,25,9,8,19,15,1013,73,1,20140825190000
744,Sanmenxia,,34.771506,111.206129,144,83,28,39,35,12,19,15,1013,73,1,20140825190000
745,"Food Factory, Changchun",,43.919094,125.329521,87,40,19,11,2,7,19,19,1011,100,1,20140825190000
746,"Bus Factory, Changchun",,43.912337,125.293431,57,34,13,12,2,6,19,19,1011,100,1,20140825190000
747,"Institute of Posts and Telecommunications, Changchun",,43.842368,125.285005,72,50,4,17,2,6,19,19,1011,100,1,20140825190000
748,"Laodong Park, Changchun",,43.877293,125.371519,74,31,9,23,4,9,19,19,1011,100,1,20140825190000
749,"Forest area, Changchun",,43.871825,125.331519,72,55,12,15,2,6,19,19,1011,100,1,20140825190000
750,"Jinyuetan, Changchun",,43.79031,125.460561,65,27,6,4,1,6,19,19,1011,100,1,20140825190000
751,"Shuaiwanzi, Changchun",,43.552321,125.639086,68,34,19,5,1,5,19,19,1011,100,1,20140825190000
752,"Economic Development Zone Sanitation Department, Changchun",,43.869221,125.42365,78,70,15,19,3,8,19,19,1011,100,1,20140825190000
753,"High-tech Zone Administrative Committee, Changchun",,43.819064,125.256375,68,35,11,17,2,4,19,19,1011,100,1,20140825190000
754,"Daishan Park, Changchun",,43.852365,125.223399,55,22,11,14,1,6,19,19,1011,100,1,20140825190000
755,Changchun,,43.819415,125.329977,74,50,9,23,4,9,-,-,0,-,-,20140825190000
756,"Hadawan, Jilin",,43.888081,126.545727,34,19,15,8,2,7,16,15,0,96,1,20140825190000
757,"Fengman, Jilin",,43.768169,126.678802,9,3,32,1,2,7,16,15,0,96,1,20140825190000
758,"Electric Power College, Jilin",,43.827403,126.502281,50,19,34,4,1,5,16,15,0,96,1,20140825190000
759,"Jiangnan Park, Jilin",,43.83531,126.556519,30,12,26,1,3,5,16,15,0,96,1,20140825190000
760,"Dongjuzi, Jilin",,43.838597,126.590068,13,10,27,6,2,5,16,15,0,96,1,20140825190000
763,Jilin,,43.840137,126.555262,68,35,40,8,3,7,16,15,0,96,1,20140825190000
765,"Songbei Commercial University, Haerbin",,45.818624,126.566963,42,27,32,6,5,4,19,18,1011,94,3,20140825190000
766,"Acheng huining, Haerbin",,45.544286,126.985183,46,18,47,54,10,7,19,18,1011,94,3,20140825190000
767,"Nangang College Street, Haerbin",,45.724121,126.604906,55,52,33,12,2,5,19,18,1011,94,3,20140825190000
768,"Taiping Hongwei Park, Haerbin",,45.775332,126.695101,74,41,35,12,3,7,19,18,1011,94,3,20140825190000
769,"Daowai Chengde Square, Haerbin",,45.768637,126.640955,59,44,31,15,4,5,19,18,1011,94,3,20140825190000
770,"Xiangfang Hongqi Street, Haerbin",,45.733936,126.691083,55,36,34,13,3,7,19,18,1011,94,3,20140825190000
771,"Dongli Heping Road, Haerbin",,45.727765,126.651974,74,37,34,11,5,4,19,18,1011,94,3,20140825190000
772,"Daoli Jianguo Road, Haerbin",,45.749715,126.59891,46,23,34,17,6,7,19,18,1011,94,3,20140825190000
773,"Pingfang Light Factory, Haerbin",,45.611951,126.620898,59,18,34,5,3,4,19,18,1011,94,3,20140825190000
774,"Hulan Normal College, Haerbin",,45.983745,126.616553,70,21,31,8,-,5,19,18,1011,94,3,20140825190000
775,"Provincial Academy of Agricultural Sciences, Haerbin",,45.686141,126.626517,57,22,32,-,2,5,19,18,1011,94,3,20140825190000
776,Haerbin,,45.805757,126.541007,53,29,35,9,6,5,-,-,0,-,-,20140825190000
777,"Anju Compound, Qiqihaer",,47.365672,123.937016,9,44,48,1,2,3,18,16,1009,84,3,20140825190000
778,"Farming Vehicule Factory, Qiqihaer",,47.326793,123.961427,25,8,41,1,2,6,18,16,1009,84,3,20140825190000
779,"Fuqu EPA, Qiqihaer",,47.1853,123.62322,25,26,49,1,1,6,18,16,1009,84,3,20140825190000
780,"City Center Square, Qiqihaer",,47.343096,123.96192,0,0,67,1,2,5,18,16,1009,84,3,20140825190000
1217,"City Environmental Monitoring Station, Qiqihaer",,47.303639,123.957551,0,9,40,1,4,3,18,16,1009,84,3,20140825190000
781,Qiqihaer,,47.356387,123.924736,25,44,67,1,4,6,18,16,1009,84,3,20140825190000
782,"Saertu District, Daqing",,46.582368,125.152904,9,6,29,8,5,3,17,17,1010,98,3,20140825190000
783,"Datong District, Daqing",,46.036786,124.842115,59,6,41,1,4,5,17,17,1010,98,3,20140825190000
784,"Honggang District, Daqing",,46.418381,124.88973,50,13,41,2,4,3,17,17,1010,98,3,20140825190000
785,"Longfeng District, Daqing",,46.535426,125.107043,34,18,29,1,3,5,17,17,1010,98,3,20140825190000
786,"Ranghulu District, Daqing",,46.635123,124.85648,34,6,47,5,7,4,17,17,1010,98,3,20140825190000
787,Daqing,,46.591414,125.110838,59,18,47,8,7,5,17,17,1010,98,3,20140825190000
788,"Locomotive Factory, Mudanjiang",,44.610589,129.652672,42,17,32,2,8,3,17,11,1015,57,1,20140825190000
789,"No. 1 hospital, Mudanjiang",,44.567775,129.617043,61,25,24,5,1,2,17,11,1015,57,1,20140825190000
1220,"EPA building, Mudanjiang",,44.567777,129.620658,46,20,19,1,4,2,17,11,1015,57,1,20140825190000
1221,"Cultural Square, Mudanjiang",,44.586388,129.623164,46,24,15,4,3,4,17,11,1015,57,1,20140825190000
790,Mudanjiang,,44.553619,129.640246,72,51,32,7,11,4,17,11,1015,57,1,20140825190000
791,"Mingzhu Plaza, Hefei",,31.782847,117.201512,164,84,94,12,4,13,24,23,1013,94,2,20140825190000
792,"Sanli Street, Hefei",,31.874637,117.312573,168,93,97,41,5,16,24,23,1013,94,2,20140825190000
793,"Hupo Compound, Hefei",,31.868583,117.264491,167,74,37,13,2,7,24,23,1013,94,2,20140825190000
794,"Dongpu Reservoir, Hefei",,31.90319,117.165584,162,64,81,18,12,7,24,23,1013,94,2,20140825190000
795,"Changjiang middle road, Hefei",,31.855185,117.255484,160,76,9,15,3,14,24,23,1013,94,2,20140825190000
796,"Luyang District, Hefei",,31.941771,117.271504,180,101,10,1,14,11,24,23,1013,94,2,20140825190000
797,"Yaohai District, Hefei",,31.856595,117.341644,178,-,14,5,4,11,24,23,1013,94,2,20140825190000
798,"Baohe District, Hefei",,31.793644,117.307554,172,81,6,1,1,13,24,23,1013,94,2,20140825190000
799,"Lake district, Hefei",,31.736619,117.283501,160,71,25,24,5,7,24,23,1013,94,2,20140825190000
800,"High-tech zone, Hefei",,31.849755,117.129624,161,86,27,13,8,6,24,23,1013,94,2,20140825190000
801,Hefei,,31.819449,117.232753,164,84,94,15,4,14,24,23,1013,94,2,20140825190000
802,"Hudong Road No.4 Elementary School, Maanshan",,31.684121,118.511017,174,76,42,14,9,14,24,24,1013,100,1,20140825190000
803,"Tianping Garment Factory, Maanshan",,31.64197,118.488043,168,88,83,7,7,11,24,24,1013,100,1,20140825190000
804,"City education base, Maanshan",,31.711216,118.648913,152,65,10,4,1,10,24,24,1013,100,1,20140825190000
805,"Cihu No.2 elementary school, Maanshan",,31.748546,118.515729,181,113,24,12,4,13,24,24,1013,100,1,20140825190000
806,"Maanshan steel factory power plant, Maanshan",,31.690864,118.48528,173,95,2,1,4,13,24,24,1013,100,1,20140825190000
807,Maanshan,,31.668461,118.511939,181,113,83,14,9,14,24,24,1013,100,1,20140825190000
808,"Science Innovation Center, Wuhu",,31.417056,118.375406,185,88,12,6,3,0,24,24,1013,100,1,20140825190000
809,"No.4 Water Plant, Wuhu",,31.315914,118.376231,53,53,27,17,6,9,24,24,1013,100,1,20140825190000
810,"Monitoring station, Wuhu",,31.348955,118.358154,171,67,13,5,14,8,24,24,1013,100,1,20140825190000
811,"Wuqierling Factory, Wuhu",,31.382068,118.407639,170,97,17,7,2,11,24,24,1013,100,1,20140825190000
812,Wuhu,,31.351007,118.438322,185,97,27,17,14,11,24,24,1013,100,1,20140825190000
1331,Chuzhou,,32.299549,118.322508,-,-,-,-,-,-,-,23,0,-,-,20140825190000
813,"Jiangxi Foreign Affairs Office, Nanchang",,28.678027,115.903436,152,75,37,3,3,8,27,23,1011,71,1,20140825190000
814,"Provincial forestry company, Nanchang",,28.69065,115.898546,159,85,30,2,3,10,27,23,1011,71,1,20140825190000
815,"Institute of Forestry, Nanchang",,28.731518,115.82478,119,66,43,4,3,7,27,23,1011,71,1,20140825190000
816,"Jingdong town government, Nanchang",,28.680659,115.972736,159,71,47,1,3,9,27,23,1011,71,1,20140825190000
817,"Contruction Industry College, Nanchang",,28.684018,115.865891,158,80,42,15,19,10,27,23,1011,71,1,20140825190000
818,"Xianghu, Nanchang",,28.637831,115.9033,160,71,49,13,21,10,27,23,1011,71,1,20140825190000
819,"Martial Arts School, Nanchang",,28.794538,115.752876,89,50,17,4,5,8,27,23,1011,71,1,20140825190000
820,"Petrifaction Company, Nanchang",,28.608634,115.912999,157,83,38,2,4,20,27,23,1011,71,1,20140825190000
821,"Provincial Station, Nanchang",,28.677155,115.941896,157,73,39,2,5,11,27,23,1011,71,1,20140825190000
822,Nanchang,,28.679883,115.863022,160,86,49,15,21,20,27,23,1011,71,1,20140825190000
823,"Lushan Mountain Observatory, Jiujiang",,29.5751,115.998926,70,39,48,1,2,3,20,16,1014,69,1,20140825190000
824,"Shili, Jiujiang",,29.668119,115.992381,164,86,32,6,12,8,20,16,1014,69,1,20140825190000
825,"Maoshantou, Jiujiang",,29.700819,115.967192,155,78,37,4,7,8,20,16,1014,69,1,20140825190000
826,"Xiyuan, Jiujiang",,29.723929,115.998206,158,83,31,5,6,6,20,16,1014,69,1,20140825190000
827,"Wuqierling Factory, Jiujiang",,29.640802,116.022713,157,86,34,6,16,4,20,16,1014,69,1,20140825190000
828,"Water Scientific Research Institute, Jiujiang",,29.679179,116.068081,159,95,23,9,29,6,20,16,1014,69,1,20140825190000
829,"Zonghe Industrial Park, Jiujiang",,29.592047,115.916335,155,86,37,21,20,5,20,16,1014,69,1,20140825190000
830,"Petrochemical General Plant, Jiujiang",,29.738832,116.09463,156,71,40,7,10,9,20,16,1014,69,1,20140825190000
831,Jiujiang,,29.70254,116.007025,164,95,48,21,29,9,20,16,1014,69,1,20140825190000
1332,"Feiyu, Xinyu",,27.844697,115.000136,154,83,29,10,24,,26,,1011,92,1,20140825190000
1333,"Beigang, Xinyu",,27.932491,115.103767,152,78,22,2,7,,26,,1011,92,1,20140825190000
1334,"No.2 water factory, Xinyu",,27.839577,114.933915,151,97,16,12,13,,26,,1011,92,1,20140825190000
1335,"Bureau of Meteorology, Xinyu",,27.81048,114.936507,153,91,23,10,17,,26,,1011,92,1,20140825190000
1336,Xinyu,,27.814351,114.922194,155,97,29,17,24,20,26,23,1011,92,1,20140825190000
832,"Tobacco Factory, Zhengzhou",,34.753419,113.687131,134,73,17,13,4,11,24,23,1014,94,1,20140825190000
833,"Textile Machinery Factory, Zhengzhou",,34.773366,113.647067,142,88,12,18,9,10,24,23,1014,94,0,20140825190000
834,"Banking College, Zhengzhou",,34.800856,113.681126,132,83,23,21,10,7,24,23,1014,94,1,20140825190000
835,"Water Supply Company, Zhengzhou",,34.807188,113.571089,158,93,17,26,9,12,24,23,1014,94,1,20140825190000
836,"Economic Development Zone Management Committee, Zhengzhou",,34.717652,113.733182,147,89,18,27,6,7,24,23,1014,94,1,20140825190000
837,"No. 47 middle school, Zhengzhou",,34.772211,113.74009,159,89,17,23,7,3,24,23,1014,94,1,20140825190000
838,"City Monitoring Station, Zhengzhou",,34.748404,113.60514,127,76,20,25,10,10,24,23,1014,94,1,20140825190000
839,"Henan Medical University, Zhengzhou",,34.752637,113.641658,152,73,16,22,8,9,24,23,1014,94,1,20140825190000
840,"Gangli Reservoir, Zhengzhou",,34.952652,113.64248,164,78,19,27,18,10,24,23,1014,94,1,20140825190000
841,Zhengzhou,,34.745417,113.631415,152,76,20,25,10,10,-,-,0,-,-,20140825190000
842,"Henan University No.1 Hospital, Kaifeng",,34.799302,114.352706,167,86,38,17,12,8,24,23,1014,94,1,20140825190000
843,"Maternity And Child Hospital, Kaifeng",,34.795803,114.386103,163,87,25,12,2,13,24,23,1014,94,1,20140825190000
844,"Cancer Hospital, Kaifeng",,34.775428,114.350292,159,83,37,17,18,8,24,23,1014,94,1,20140825190000
845,"Yellow River Conservancy Institute, Kaifeng",,34.826066,114.324772,158,85,25,8,13,11,24,23,1014,94,0,20140825190000
846,"Shijixing Kindergarden, Kaifeng",,34.793606,114.302744,158,-,34,12,15,12,24,23,1014,94,1,20140825190000
847,Kaifeng,,34.796346,114.313426,167,86,38,17,18,12,24,23,1014,94,1,20140825190000
852,Jiaozuo,,35.215381,113.248188,147,72,72,17,19,11,24,23,1014,94,1,20140825190000
853,"Cotton Research Institute, Anyang",,36.081435,114.486451,102,90,13,26,10,16,22,19,1014,83,2,20140825190000
854,"Hongmiao Street, Anyang",,36.086733,114.326,157,70,12,20,31,25,22,19,1014,83,2,20140825190000
855,"Yinxing Compound, Anyang",,36.056519,114.36495,156,69,11,32,17,15,22,19,1014,83,2,20140825190000
856,"Tiefo Temple, Anyang",,36.110041,114.309309,178,88,12,23,21,19,22,19,1014,83,2,20140825190000
857,Anyang,,36.097767,114.398846,178,94,12,32,23,19,22,19,1014,83,2,20140825190000
858,"City Monitoring Station, Luoyang",,34.669055,112.439633,154,80,37,14,25,12,29,,1012,41,1,20140825190000
859,"BDA Management Committee, Luoyang",,34.622084,112.390759,122,56,43,9,20,18,29,,1012,41,1,20140825190000
860,"New municipal office, Luoyang",,34.623745,112.432973,160,72,36,12,27,19,29,,1012,41,1,20140825190000
861,"City committee communist party school, Luoyang",,34.650169,112.400212,99,66,47,21,18,11,29,,1012,41,1,20140825190000
862,"Henan Forestry College, Luoyang",,34.685566,112.509429,155,87,38,28,22,17,29,,1012,41,1,20140825190000
