locationid,stationname,chinesename,latitude,longitude,pm25,pm10,o3,no2,so2,co,temperature,dewpoint,pressure,humidity,wind,est_time
1,Dongcheng Dongsi,,39.9304,116.423239,162,99,86,23,5,11,23,18,1007,73,2,20140808170000
2,"Temple of Heaven, Dongcheng",,39.887403,116.41324,162,87,111,32,3,11,23,18,1007,73,2,20140808170000
3,West Park officials,,39.930333,116.345162,165,80,96,21,6,10,23,18,1007,73,2,20140808170000
4,West Wanshou Nishinomiya,,39.879354,116.358183,153,81,90,27,4,12,23,18,1007,73,2,20140808170000
5,Chaoyang Olympic Sports Center,,39.983406,116.403253,157,87,90,22,5,9,23,18,1007,73,2,20140808170000
6,Chaoyang Agricultural Exhibition Hall,,39.938331,116.46715,156,78,145,28,8,12,23,18,1007,73,2,20140808170000
7,Haidian Wanliu,,39.988245,116.293062,158,94,46,33,8,7,23,18,1007,73,2,20140808170000
8,The Haidian northern New Area,,40.091313,116.180194,152,76,50,16,5,7,23,18,1007,73,2,20140808170000
9,Haidian Beijing Botanical Garden,,40.003252,116.213097,156,74,99,21,4,11,23,18,1007,73,2,20140808170000
10,Fengtai garden,,39.86423,116.285037,160,93,62,32,6,9,23,18,1007,73,2,20140808170000
11,Fengtai Yungang,,39.82535,116.152237,159,85,48,25,3,8,23,18,1007,73,2,20140808170000
12,Shijingshan city,,39.915286,116.190144,164,118,50,40,4,9,23,18,1007,73,2,20140808170000
13,"Fangshan, Liangxiang",,39.743357,116.14225,159,81,38,22,3,9,23,18,1007,73,2,20140808170000
14,"Huangcunzhen, Daxing",,39.719389,116.410219,163,84,112,22,6,11,23,18,1007,73,2,20140808170000
15,BDA,,39.796197,116.51197,172,83,187,20,6,15,23,18,1007,73,2,20140808170000
16,Tongzhou New Town,,39.887113,116.6689,178,108,99,50,5,14,23,18,1007,73,2,20140808170000
17,Shunyi New Town ,,40.128111,116.660908,181,124,115,24,5,14,23,18,1007,73,2,20140808170000
18,Changping Town,,40.218245,116.236084,154,88,65,23,3,7,23,18,1007,73,2,20140808170000
19,"Mentougou, Longquan Town",,39.938397,116.112323,152,92,55,36,2,7,23,18,1007,73,2,20140808170000
20,Pinggu town,,40.144433,117.106563,168,80,114,8,5,12,23,18,1007,73,2,20140808170000
21,Huairou town,,40.329104,116.63387,188,128,118,26,6,13,23,18,1007,73,2,20140808170000
22,The town of Miyun,,40.371186,116.838053,165,78,160,9,8,14,23,18,1007,73,2,20140808170000
23,Yanqing town,,40.454217,115.978106,147,60,87,12,4,7,23,18,1007,73,2,20140808170000
24,Changping Dingling,,40.293269,116.226108,143,53,72,7,2,7,23,18,1007,73,2,20140808170000
25,Badaling Northwest,,40.36623,115.994146,151,54,38,61,4,8,23,18,1007,73,2,20140808170000
26,Miyun Reservoir,,40.500157,116.91701,168,66,161,4,9,12,23,18,1007,73,2,20140808170000
27,"Donggaocun Zhen, Pinggu",,40.10142,117.126556,154,80,127,14,4,10,23,18,1007,73,2,20140808170000
28,"Yongledianzhen, Tongzhou",,39.713192,116.78905,173,82,40,19,5,13,23,18,1007,73,2,20140808170000
29,"Yufazhen, Daxing",,39.521203,116.306026,161,75,52,7,2,12,23,18,1007,73,2,20140808170000
30,"Liulihezhen, Fangshan",,39.581169,116.006089,154,77,35,6,9,6,23,18,1007,73,2,20140808170000
31,"Qianmen E St, Dongcheng",,39.900402,116.401242,165,99,25,47,2,12,23,18,1007,73,2,20140808170000
32,Yongdingmen Inner St,,39.877401,116.400238,167,101,73,55,6,12,23,18,1007,73,2,20140808170000
33,Xizhimen N St,,39.955352,116.355187,165,87,42,30,9,11,23,18,1007,73,2,20140808170000
34,South Ring Road,,39.857377,116.37421,161,103,30,57,4,12,23,18,1007,73,2,20140808170000
35,East Fourth Ring Road,,39.940273,116.489075,167,78,102,61,2,12,23,18,1007,73,2,20140808170000
36,Beijing,,39.955906,116.474246,159,78,160,25,7,11,23,18,1007,73,2,20140808170000
37,Putuo,,31.232979,121.415378,83,51,6,20,5,4,26,25,1004,94,2,20140808170000
38,Yangpu Sipiao,,31.263795,121.540311,85,50,24,8,5,2,26,25,1004,94,2,20140808170000
39,Shanghai Normal College Primary Division,,31.199031,121.487719,85,35,9,14,3,7,26,25,1004,94,2,20140808170000
40,Dianshan Lake,,31.091338,120.982293,70,50,37,6,3,9,26,25,1004,94,2,20140808170000
41,Hongkou Liangcheng,,31.298906,121.47155,95,41,16,9,6,4,26,25,1004,94,2,20140808170000
42,Jingan,,31.224251,121.429637,86,29,11,13,4,8,26,25,1004,94,2,20140808170000
43,Shanghai Normal University,,31.163531,121.416643,90,36,9,17,3,6,26,25,1004,94,2,20140808170000
44,Chuansha,,31.188626,121.707342,96,34,18,5,4,4,26,25,1004,94,2,20140808170000
45,Zhangjiang,,31.204896,121.581215,97,53,18,8,3,4,26,25,1004,94,2,20140808170000
46,Lingshan Road,,31.226286,121.537317,88,42,18,10,6,4,26,25,1004,94,2,20140808170000
1080,City average,,31.228451,121.478227,89,41,14,12,4,5,26,25,1004,94,2,20140808170000
47,Shanghai,,31.202842,121.453493,86,35,11,14,4,8,26,25,1004,94,2,20140808170000
48,Guangzhou,,23.138517,113.263701,80,36,33,23,17,9,31,25,1003,70,3,20140808170000
49,"Huadu town, Guangzhou",,23.389121,113.220062,87,40,49,23,13,10,30,26,1003,79,2,20140808170000
50,"Luogang Zhenlong, Guangzhou",,23.308027,113.567032,102,58,92,38,8,4,30,26,1003,79,2,20140808170000
51,"LuHu, Guangzhou",,23.151743,113.281842,80,33,32,23,16,7,30,26,1003,79,2,20140808170000
52,"Tianhu, Guangzhou",,23.647433,113.629715,89,47,133,11,11,6,30,26,1003,79,2,20140808170000
53,"Zhudong, Guangzhou",,23.418406,113.078552,89,42,57,25,17,10,30,26,1003,79,2,20140808170000
54,"Modiesha station, Guangzhou",,23.103814,113.338238,38,28,27,16,7,8,30,26,1003,79,2,20140808170000
55,Zhuhai,,22.225269,113.304202,50,43,26,16,3,10,30,26,1004,79,5,20140808170000
1075,"Huicai technical school, Foshan",,23.039667,113.105492,59,20,26,8,6,7,30,26,1003,79,2,20140808170000
56,"Sanshuiyun donghai, Foshan",,23.185788,112.865368,74,35,35,9,7,6,30,26,1003,79,2,20140808170000
57,"Nanhai Bureau of Meteorology, Foshan",,23.046836,113.145764,72,34,23,10,3,8,30,26,1003,79,2,20140808170000
58,"Sanshui Monitoring Station, Foshan",,23.163551,112.890843,85,43,33,11,8,6,30,26,1003,79,2,20140808170000
1087,Foshan,,22.999349,113.110189,72,34,26,10,6,8,31,25,1003,70,3,20140808170000
59,"Ronggui street committee, Shunde",,22.762729,113.258356,55,30,21,9,8,12,30,26,1003,79,2,20140808170000
60,Shunde,,22.806658,113.293112,55,30,21,9,15,12,31,25,1003,70,3,20140808170000
61,"Donghu, Jiangmen",,22.590411,113.087351,25,24,19,7,5,4,30,26,1004,79,5,20140808170000
62,"Taoyuan Atmosphere Premier Station, Jiangmen",,22.72489,112.93404,42,24,21,4,3,6,30,26,1004,79,5,20140808170000
63,Jiangmen,,22.604218,113.109062,53,27,19,7,14,9,29,26,1004,84,5,20140808170000
64,"Kengkouzi station, Zhaoqing",,23.158865,112.570287,42,35,34,9,10,7,30,26,1003,79,2,20140808170000
65,"Mugangzi station, Zhaoqing",,23.067961,112.431934,82,37,34,8,6,7,30,26,1003,79,2,20140808170000
66,"Qixingyanzi station, Zhaoqing",,23.075974,112.477437,-,-,41,-,-,7,-,-,0,-,-,20140808170000
67,Zhaoqing,,23.050167,112.476039,82,47,36,12,50,7,31,25,1003,70,3,20140808170000
68,"Jinguo Bay, Huizhou",,22.937223,114.385567,9,4,31,21,8,6,30,26,1004,79,4,20140808170000
1091,"Xiabu, Huizhou",,23.077493,114.410275,91,36,36,33,9,5,30,26,1004,79,4,20140808170000
69,"Xijiao, Huizhou",,23.338178,114.112867,91,41,47,17,5,10,30,26,1004,79,4,20140808170000
70,"Jiangbei, Huizhou",,23.111706,114.415274,85,46,117,38,10,4,30,26,1004,79,4,20140808170000
71,"Huiyang chuanhu, Huizhou",,22.814485,114.329292,70,37,18,18,8,9,30,26,1004,79,4,20140808170000
72,"Daya bay management committee, Huizhou",,22.739283,114.53631,65,38,9,18,5,6,30,26,1004,79,4,20140808170000
73,Huizhou,,23.079716,114.410253,91,46,36,38,10,6,30,26,1004,79,4,20140808170000
74,"Guancheng No.2 water plant, Dongguan",,23.057294,113.753254,68,27,36,13,8,7,30,26,1004,79,4,20140808170000
75,"Dongcheng Shijing, Dongguan",,23.010039,113.799529,53,20,35,11,4,5,30,26,1004,79,4,20140808170000
76,"Nancheng Xiping, Dongguan",,22.963051,113.743494,65,20,33,12,5,5,30,26,1004,79,4,20140808170000
77,"Nancheng Yuanling, Dongguan",,23.025058,113.751308,65,20,34,8,7,6,30,26,1004,79,4,20140808170000
78,Dongguan,,23.050873,113.787057,68,27,36,13,8,7,30,26,1004,79,4,20140808170000
79,"Zimaling, Zhongshan",,22.505112,113.407183,30,15,21,1,7,7,30,26,1004,79,5,20140808170000
80,"Yangtze River tourist area, Zhongshan",,22.48589,113.439054,42,10,24,5,6,6,30,26,1004,79,5,20140808170000
81,"Huabai Park, Zhongshan",,22.51839,113.374362,34,15,14,6,4,11,30,26,1004,79,5,20140808170000
82,Zhongshan,,22.545387,113.370459,42,15,24,6,7,11,30,26,1004,79,5,20140808170000
83,"No.8 middle school, Shaoguan",,24.767777,113.583537,127,61,41,15,36,8,29,24,1003,73,2,20140808170000
83,"No.8 middle school, Shaoguan",,24.767777,113.583537,127,61,41,15,36,8,29,24,1003,73,2,20140808170000
84,"Forest area, Shaoguan",,24.796106,113.612131,139,53,59,11,74,11,29,24,1003,73,2,20140808170000
84,"Forest area, Shaoguan",,24.796107,113.612131,139,53,59,11,74,11,29,24,1003,73,2,20140808170000
86,"Shaoguan University, Shaoguan",,24.790864,113.646599,107,54,56,14,11,5,29,24,1003,73,2,20140808170000
86,"Shaoguan University, Shaoguan",,24.790864,113.646598,107,54,56,14,11,5,29,24,1003,73,2,20140808170000
88,"Qujiang Monitoring Station, Shaoguan",,24.683042,113.60157,144,72,40,27,10,11,29,24,1003,73,2,20140808170000
88,"Qujiang Monitoring Station, Shaoguan",,24.683042,113.60157,144,72,40,27,10,11,29,24,1003,73,2,20140808170000
89,Shaoguan,,24.807342,113.602712,147,72,60,27,74,11,29,24,1003,73,2,20140808170000
90,"Chaonanzi Station, Shantou",,23.251213,116.406762,99,40,41,8,23,9,28,27,1004,94,2,20140808170000
91,Shantou,,23.350642,116.686306,109,56,40,15,21,12,28,27,1004,94,2,20140808170000
92,"City Environmental Monitoring Station, Zhanjiang",,21.220431,110.397317,30,19,6,8,6,3,26,24,1004,87,1,20140808170000
93,"EPB Dormitory, Zhanjiang",,21.197376,110.406487,34,17,5,8,1,5,26,24,1004,87,1,20140808170000
94,"Xiashan Swimming Park, Zhanjiang",,21.200431,110.415655,34,25,6,8,36,11,26,24,1004,87,1,20140808170000
95,"Zhanjiang Theatre, Zhanjiang",,21.268177,110.366445,38,36,4,6,4,5,26,24,1004,87,1,20140808170000
96,"Mazhang EPA, Zhanjiang",,21.265486,110.335993,34,20,16,5,4,12,26,24,1004,87,1,20140808170000
97,"Potou District EPB, Zhanjiang",,21.247604,110.454508,42,20,14,12,12,18,26,24,1004,87,1,20140808170000
98,Zhanjiang,,21.26832,110.363883,42,36,16,12,36,18,26,24,1004,87,1,20140808170000
99,"Maogang sub-office EPB, Maoming",,21.466435,111.033462,50,20,19,4,4,4,27,25,0,83,2,20140808170000
100,"Petrochemical No. 7 elementaty school, Maoming",,21.648905,110.937861,55,27,14,9,6,10,27,25,0,83,2,20140808170000
101,"Jiankang road, Maoming",,21.662211,110.909482,25,23,12,5,5,10,27,25,0,83,2,20140808170000
102,"Gaoling, Maoming",,21.690558,110.871146,50,27,14,6,20,10,27,25,0,83,2,20140808170000
1094,Maoming,,21.660223,110.929968,55,27,14,9,20,10,27,25,0,83,2,20140808170000
103,"Jiaying University, Meizhou",,24.325415,116.12816,65,30,28,6,4,6,28,26,1004,89,1,20140808170000
104,"Mexian new town, Meizhou",,24.269283,116.084546,76,50,27,12,5,9,28,26,1004,89,1,20140808170000
105,"Environmental Monitoring Center, Meizhou",,24.262778,116.129621,72,53,23,9,9,7,28,26,1004,89,1,20140808170000
1095,Meizhou,,24.285988,116.127065,76,53,28,12,9,9,28,26,1004,89,1,20140808170000
106,"City EPA, Shanwei",,22.772349,115.370227,38,12,30,5,4,8,29,27,1003,82,4,20140808170000
107,"City government, Shanwei",,22.787161,115.375536,38,14,31,7,4,7,29,27,1003,82,4,20140808170000
108,"Xincheng Middle School, Shanwei",,22.789851,115.367124,38,14,29,9,5,5,29,27,1003,82,4,20140808170000
1099,Shanwei,,22.783576,115.38022,38,14,31,9,5,8,29,27,1003,82,4,20140808170000
109,"No.3 elementary school, Heyuan",,23.755946,114.699091,72,48,48,11,1,10,30,25,1004,71,1,20140808170000
109,"No.3 elementary school, Heyuan",,23.75435,114.703514,72,48,48,11,1,10,30,25,1004,71,1,20140808170000
111,"City water company, Heyuan",,23.688709,114.954652,114,47,75,11,6,8,30,25,1004,71,1,20140808170000
111,"City water company, Heyuan",,23.754246,114.682459,114,47,75,11,6,8,30,25,1004,71,1,20140808170000
113,"Heyuan high school, Heyuan",,23.720037,114.699563,122,59,65,8,8,8,30,25,1004,71,1,20140808170000
113,"Heyuan high school, Heyuan",,23.720666,114.693879,122,59,65,8,8,8,30,25,1004,71,1,20140808170000
115,Heyuan,,23.740888,114.705147,122,59,75,11,8,10,30,25,1004,71,1,20140808170000
116,"Yuanyang Lake, Yangjiang",,21.855869,111.983676,30,16,29,2,1,5,28,26,1004,82,3,20140808170000
1100,Yangjiang,,21.855227,111.987308,42,26,29,3,3,9,28,26,1004,82,3,20140808170000
118,"Town governement, Qingyuan",,23.708005,113.026215,34,38,25,19,9,9,30,26,1003,79,2,20140808170000
119,"Fupin district, Qingyuan",,23.624781,113.067713,50,20,23,22,9,9,30,26,1003,79,2,20140808170000
119,"Fupin district, Qingyuan",,24.185415,113.419369,50,20,23,22,9,9,30,26,1003,79,2,20140808170000
121,"Environment protection office, Qingyuan",,23.685931,113.053239,87,28,28,16,12,11,30,26,1003,79,2,20140808170000
121,"Environment protection office, Qingyuan",,23.691109,113.047948,87,28,28,16,12,11,30,26,1003,79,2,20140808170000
123,"Fengcheng Subdistrict, Qingyuan",,23.695447,113.068189,34,38,25,19,9,9,30,26,1003,79,2,20140808170000
124,Qingyuan,,23.679304,113.061513,87,38,28,22,12,11,31,25,1003,70,3,20140808170000
125,"Xiyuan Road, Chaozhou",,23.668654,116.638272,153,74,36,11,11,15,28,26,1004,89,1,20140808170000
126,"Archives Bureau, Chaozhou",,23.667881,116.649104,160,84,43,10,17,15,28,27,1004,94,2,20140808170000
127,"Municipal Corporation, Chaozhou",,23.65035,116.621859,162,63,39,11,17,18,28,27,1004,94,2,20140808170000
1101,Chaozhou,,23.654204,116.626969,153,74,36,11,11,15,28,26,1004,89,1,20140808170000
128,"Donghu Park, Jieyang",,23.532877,116.374427,99,50,33,6,12,10,28,26,1004,89,1,20140808170000
129,"Yuhu Middle School, Jieyang",,23.52682,116.414123,132,73,34,23,27,11,28,26,1004,89,1,20140808170000
130,"Experimental Primary School, Jieyang",,23.571473,116.364137,93,43,38,8,9,9,28,26,1004,89,1,20140808170000
1102,Jieyang,,23.547596,116.37754,132,73,38,23,27,11,28,26,1004,89,1,20140808170000
131,"City Environmental Monitoring Station, Yunfu",,22.936779,112.042248,63,45,17,7,3,12,30,26,1003,79,2,20140808170000
132,"The new city government headquarters, Yunfu",,22.914275,112.044475,55,18,17,6,4,11,30,26,1003,79,2,20140808170000
133,"Muyang police sub-station, Yunfu",,22.951267,112.05923,55,40,23,8,6,7,30,26,1003,79,2,20140808170000
1103,Yunfu,,22.912436,112.049811,63,45,23,8,6,12,31,25,1003,70,3,20140808170000
134,Yantian,,22.587949,114.266899,38,11,29,11,3,5,30,26,1004,79,4,20140808170000
135,Kwai Chung,,22.354168,114.134558,46,14,17,17,2,10,30,26,1004,79,4,20140808170000
135,Kwai Chung,,22.572837,113.867166,46,14,17,17,2,10,30,26,1004,79,4,20140808170000
135,Kwai Chung,,22.627947,114.428875,46,14,17,17,2,10,30,26,1004,79,4,20140808170000
137,Nanyou,,22.513802,113.928051,38,11,31,8,10,4,30,26,1004,79,4,20140808170000
138,Meisha,,22.59611,114.318345,55,18,6,24,5,11,30,26,1004,79,4,20140808170000
139,Xi xiang,,22.717524,114.252304,59,21,10,32,4,8,30,26,1004,79,4,20140808170000
140,Liyuan,,22.54732,114.101205,38,28,11,18,2,6,30,26,1004,79,4,20140808170000
1072,Kwai Chung,,22.354168,114.134558,46,39,16,22,3,16,30,26,1004,79,4,20140808170000
1072,Kwai Chung,,22.627947,114.428875,46,39,16,22,3,16,30,26,1004,79,4,20140808170000
141,OCT,,22.539549,113.992458,38,10,20,11,3,13,30,26,1004,79,4,20140808170000
142,Honghu,,22.559647,114.121976,46,19,16,20,2,4,30,26,1004,79,4,20140808170000
143,Mission Hills,,22.694131,114.050496,46,30,20,12,3,10,30,26,1004,79,4,20140808170000
144,Shenzhen,,22.540382,114.062982,59,39,31,32,10,16,30,26,1004,79,4,20140808170000
145,Chengdu,,30.622581,104.069564,102,21,16,15,6,9,25,20,1003,74,4,20140808170000
146,"Jinquan lianghe, Chengdu",,30.710359,103.974209,59,26,12,11,5,8,25,21,1004,78,3,20140808170000
147,"Shilidian, Chengdu",,30.684718,104.17845,53,14,15,13,6,8,25,21,1004,78,3,20140808170000
148,"Sanwayao, Chengdu",,30.568159,104.081524,50,18,12,13,5,10,25,21,1004,78,3,20140808170000
149,"Shahepu, Chengdu",,30.633685,104.120536,30,14,12,13,5,9,25,21,1004,78,3,20140808170000
150,"Liang Lane, Chengdu",,30.682601,104.076522,53,21,16,15,6,8,25,21,1004,78,3,20140808170000
151,"Caotang Temple, Chengdu",,30.651891,104.0284,38,14,12,5,4,9,25,21,1004,78,3,20140808170000
152,"Lingyansi, Chengdu",,31.025729,103.615022,9,2,25,1,1,2,25,21,1004,78,3,20140808170000
153,"Fuleshan, Mianyang",,31.472493,104.7806,9,8,25,4,4,7,24,21,1001,77,3,20140808170000
154,"High-tech Zone Water Company, Mianyang",,31.463309,104.674293,25,11,18,5,3,3,24,21,1001,77,3,20140808170000
155,"No.3 water company, Mianyang",,31.505002,104.731054,21,4,21,5,4,3,24,21,1001,77,3,20140808170000
156,Mianyang,,31.465174,104.681731,25,11,25,11,5,7,24,21,1001,77,3,20140808170000
157,"Dongshan Park, Deyang",,31.118648,104.424587,42,19,20,1,1,8,25,21,1004,78,3,20140808170000
158,"Xixiaoqu, Deyang",,31.131159,104.390972,21,12,13,6,7,6,25,21,1004,78,3,20140808170000
159,"City Procuratorate, Deyang",,31.114554,104.407986,13,3,22,5,10,7,25,21,1004,78,3,20140808170000
160,"Refractory Factory, Deyang",,31.108606,104.356506,38,15,14,5,12,4,25,21,1004,78,3,20140808170000
161,Deyang,,31.124715,104.400703,42,19,22,6,12,8,25,21,1004,78,3,20140808170000
162,"Nongnongping, Panzhihua",,26.566698,101.695438,107,55,21,17,3,12,26,18,0,56,1,20140808170000
163,"Hemenkou, Panzhihua",,26.589072,101.578312,132,70,31,11,8,13,26,18,0,56,1,20140808170000
164,"Bingcaogang, Panzhihua",,26.58143,101.718473,127,110,19,32,13,12,26,18,0,56,1,20140808170000
165,"Renhe, Panzhihua",,26.498166,101.746887,76,49,14,8,2,12,26,18,0,56,1,20140808170000
166,"Jinjina, Panzhihua",,26.553226,101.84862,91,60,25,9,37,17,26,18,0,56,1,20140808170000
167,Panzhihua,,26.578779,101.720211,132,110,31,32,37,17,26,18,0,56,1,20140808170000
168,"Shima Middle School, Yibin",,28.815979,104.599199,80,35,35,6,7,7,27,24,1000,76,1,20140808170000
169,"Municipal party committee, Yibin",,28.762654,104.624834,82,30,23,4,2,10,27,24,1000,76,1,20140808170000
170,"No. 4 middle school, Yibin",,28.783257,104.608407,93,36,24,6,3,5,27,24,1000,76,1,20140808170000
171,"City government, Yibin",,28.760477,104.644079,80,53,34,6,5,7,27,24,1000,76,1,20140808170000
172,"Huangjinzui, Yibin",,28.712319,104.578389,72,37,43,4,2,7,27,24,1000,76,1,20140808170000
173,"Shaping Middle School, Yibin",,28.795569,104.681393,-,-,-,-,-,-,-,-,0,-,-,20140808170000
174,Yibin,,28.748384,104.645766,93,53,43,6,7,10,27,24,1000,76,1,20140808170000
175,"Datang Hill, Zigong",,29.359969,104.757388,152,66,21,9,5,15,26,25,1001,90,3,20140808170000
176,"Yanma Road, Zigong",,29.355752,104.724036,112,64,85,1,4,7,26,25,1001,91,3,20140808170000
177,"Tanmulin Street, Zigong",,29.353555,104.777397,93,39,25,7,7,5,26,25,1001,91,3,20140808170000
178,"Chunhua Road, Zigong",,29.33825,104.771895,114,61,17,10,10,8,26,25,1001,91,3,20140808170000
179,Zigong,,29.33617,104.781138,152,66,85,10,10,15,26,25,1001,91,3,20140808170000
180,"Jiushi Hill, Luzhou",,28.955347,105.434207,164,70,72,3,7,4,27,25,1001,86,2,20140808170000
181,"Xiaoshishang Port, Luzhou",,28.899583,105.447192,154,66,64,7,4,8,27,25,1001,86,2,20140808170000
182,"Lantianxian Bridge, Luzhou",,28.852766,105.4358,157,59,94,7,2,3,27,25,1001,86,2,20140808170000
183,"City Environment Monitoring Station, Luzhou",,28.895898,105.435802,154,66,48,12,2,5,27,25,1001,86,2,20140808170000
184,Luzhou,,28.868782,105.445938,164,70,94,12,7,8,27,25,1001,86,2,20140808170000
185,"City Committee, Nanchong",,30.799993,106.082906,119,56,19,8,17,6,27,24,0,77,2,20140808170000
186,"Refinery Factory, Nanchong",,30.819412,106.10712,89,33,46,14,13,4,27,24,0,77,2,20140808170000
187,"Gaoping District Monitoring Station, Nanchong",,30.783291,106.110417,114,21,31,10,13,6,27,24,0,77,2,20140808170000
188,"Jialing District EPB, Nanchong",,30.761255,106.06818,91,33,18,4,2,9,27,24,0,77,2,20140808170000
189,"City Environmental Monitoring Station, Nanchong",,30.836519,106.11272,59,40,14,3,18,4,27,24,0,77,2,20140808170000
190,Nanchong,,30.835511,106.114717,119,56,46,14,18,9,27,24,0,77,2,20140808170000
1249,"City Monitoring Station, Neijiang",,29.592673,105.036234,153,63,31,4,3,4,26,25,1001,91,3,20140808170000
1250,"Dongxing District Government , Neijiang",,29.592148,105.074966,139,47,31,3,2,5,26,25,1001,91,3,20140808170000
1251,"No 2 middle school, Neijiang",,29.579135,105.068548,114,58,33,6,2,5,26,25,1001,91,3,20140808170000
1252,Neijiang,,29.577653,105.06166,153,63,33,6,12,5,26,25,1001,91,3,20140808170000
1253,"City Monitoring Station, Suining",,30.610641,105.683583,104,51,38,4,1,5,25,24,0,92,3,20140808170000
1254,"Administrative center , Suining",,30.63206,105.819747,63,52,50,3,1,2,25,24,0,92,3,20140808170000
1255,Suining,,30.530053,105.596307,104,52,50,4,3,12,25,24,0,92,3,20140808170000
1256,"City Monitoring Station, Leshan",,29.560651,103.759211,76,34,24,12,12,10,24,23,0,95,3,20140808170000
1257,"Leshan Giant Buddha Scenic Area , Leshan",,29.543938,103.772706,65,31,26,9,6,9,24,23,0,95,3,20140808170000
1258,Leshan,,29.54935,103.767777,80,40,27,15,12,11,24,23,0,95,3,20140808170000
1259,"Heilongtan , Meishan",,30.047726,103.900649,151,65,14,8,1,7,25,21,1004,78,3,20140808170000
1260,"Bureau of Meteorology, Meishan",,30.084591,103.843715,137,52,18,6,5,5,25,21,1004,78,3,20140808170000
1261,"Xuguang Community , Meishan",,30.066277,103.8516,99,50,12,7,3,10,25,21,1004,78,3,20140808170000
1262,"City Monitoring Station, Meishan",,30.059205,103.836229,122,54,15,6,1,6,25,21,1004,78,3,20140808170000
1263,Meishan,,30.072618,103.85064,142,56,16,9,7,9,25,20,1003,74,4,20140808170000
1264,"Ziyang middle school, Ziyang",,30.147763,104.638024,112,52,28,3,1,4,26,25,1001,91,3,20140808170000
1265,Ziyang,,30.126054,104.63004,112,58,33,5,8,7,26,25,1001,91,3,20140808170000
191,Shenyang US Consulate,,41.785668,123.432865,149,72,30,35,9,5,19,15,1009,78,2,20140808170000
192,"Huishan, Shenyang",,41.835421,123.647773,112,52,30,7,2,5,20,14,1009,68,2,20140808170000
193,"Hunnan, Shenyang",,41.758263,123.540809,144,73,39,30,14,6,20,14,1009,68,2,20140808170000
194,"Zhangshi, Shenyang",,41.771679,123.289859,155,75,44,35,44,6,22,14,1008,60,2,20140808170000
195,"Artillery College, Shenyang",,41.835749,123.547799,70,66,51,25,5,5,20,14,1009,68,2,20140808170000
196,"Beiling, Shenyang",,41.849633,123.434146,154,104,38,44,8,6,20,14,1009,68,2,20140808170000
197,"Wenyi Road, Shenyang",,41.767444,123.416144,127,72,46,35,9,6,20,14,1009,68,2,20140808170000
198,"Xiaoheyan, Shenyang",,41.779828,123.484015,144,73,47,35,4,7,20,14,1009,68,2,20140808170000
199,"Taiyuan Street, Shenyang",,41.799646,123.406146,152,73,15,30,17,7,19,15,1009,78,2,20140808170000
200,"Ermao, Shenyang",,41.783011,123.366679,137,75,51,47,13,6,20,14,1009,68,2,20140808170000
201,"Liaoning University, Shenyang",,41.830704,123.361071,127,61,37,31,4,5,21,15,1009,68,2,20140808170000
202,Shenyang,,41.808126,123.437611,149,104,38,44,9,6,19,15,1009,78,2,20140808170000
1104,"wenhua street, Shenyang , Shenyang",,41.774139,123.441839,127,72,46,35,9,7,20,14,1009,68,2,20140808170000
1105,"Tanglin Road , Shenyang , Shenyang",,41.823665,123.562317,70,66,51,25,5,5,20,14,1009,68,2,20140808170000
203,"Ganjingzi, Dalian",,38.9747,121.616893,117,72,31,14,1,4,23,21,1008,88,0,20140808170000
204,"Zhoushuizi, Dalian",,38.951928,121.569981,63,50,33,8,2,5,23,21,1008,88,0,20140808170000
205,"Xinghai No 3 station, Dalian",,38.885779,121.568864,76,28,48,9,3,5,23,21,1008,88,0,20140808170000
206,"Qingniwa Bridge, Dalian",,38.91274,121.638018,63,48,35,7,1,7,23,21,1008,88,0,20140808170000
207,"Fujiazhuang, Dalian",,38.864647,121.629947,53,38,36,6,3,8,23,21,1008,88,0,20140808170000
208,"Qixianling, Dalian",,38.856978,121.523169,82,50,40,10,3,11,23,21,1008,88,0,20140808170000
209,"Lushun, Dalian",,38.808946,121.264063,104,49,22,2,1,5,23,21,1008,88,0,20140808170000
210,"Jinzhou, Dalian",,39.132192,121.753259,76,38,23,22,2,2,23,21,1008,88,0,20140808170000
211,"BDA, Dalian",,39.05213,121.782022,76,36,16,17,6,6,23,21,1008,88,0,20140808170000
212,"D&D Port, Dalian",,39.064087,121.981874,53,34,23,8,1,8,23,21,1008,88,0,20140808170000
213,Dalian,,38.91478,121.619625,63,48,36,7,3,8,23,21,1008,88,0,20140808170000
214,"Bearing Factory, Dandong",,40.068929,124.345703,87,59,26,17,10,8,23,18,1010,63,2,20140808170000
215,"Financial school, Dandong",,40.158723,124.432593,95,54,27,14,7,18,23,18,1010,63,2,20140808170000
216,"Yuanbaoshan water, Dandong",,40.149431,124.391698,82,42,34,11,11,14,23,18,1010,63,2,20140808170000
217,"Experimental Primary School, Dandong",,39.887343,124.158056,134,77,21,30,15,23,23,18,1010,63,2,20140808170000
218,Dandong,,40.002046,124.360479,104,60,32,18,11,18,23,18,1010,63,2,20140808170000
1106,"minzhu bridge, Dandong , Dandong",,40.112974,124.373604,119,69,16,23,10,23,23,18,1010,63,2,20140808170000
1107,"yuanbaoshan, Dandong , Dandong",,40.146298,124.399081,78,34,32,10,11,14,23,18,1010,63,2,20140808170000
1108,"linjiang houjie, Dandong , Dandong",,40.152757,124.431745,104,60,22,18,6,18,23,18,1010,63,2,20140808170000
219,"BDA, Panjin",,41.157144,122.06645,122,67,45,15,11,14,16,12,0,79,2,20140808170000
220,"Xinglongtai, Panjin",,41.140948,122.111343,122,73,35,13,14,7,16,12,0,79,2,20140808170000
221,"Dingxiang, Panjin",,41.16139,121.928781,95,33,38,11,10,5,16,12,0,78,2,20140808170000
222,Panjin,,41.122089,122.076206,122,67,45,22,11,14,16,12,0,79,2,20140808170000
223,"No.3 water company, Yingkou",,40.682052,122.385352,50,30,50,10,4,7,25,18,1009,58,2,20140808170000
224,"Yingkou University, Yingkou",,40.683689,122.388285,55,35,75,11,5,7,25,18,1009,58,2,20140808170000
225,"Botanical garden, Yingkou",,40.711674,122.281568,78,30,35,22,3,6,25,18,1009,58,2,20140808170000
226,Yingkou,,40.668578,122.24059,68,35,52,29,4,7,25,18,1009,58,2,20140808170000
1109,"jinghu west street, Yingkou , Yingkou",,40.653831,122.221943,46,28,45,11,3,8,25,18,1009,58,2,20140808170000
1110,"Daqing Road , Yingkou , Yingkou",,40.709181,122.28243,68,29,30,29,2,7,25,18,1009,58,2,20140808170000
227,"Xishanpo, Huludao",,40.724078,120.921974,97,69,64,16,7,4,16,12,0,78,2,20140808170000
228,"Huagong hospital, Huludao",,40.755662,120.848435,112,75,33,32,4,10,16,12,0,78,2,20140808170000
229,"New district park, Huludao",,40.723415,120.853801,137,62,18,38,2,9,16,12,0,78,2,20140808170000
230,"Lianshan district governement, Huludao",,40.775488,120.872292,122,90,37,47,10,5,16,12,0,78,2,20140808170000
231,Huludao,,40.712501,120.842107,163,80,48,44,7,10,-,-,0,-,-,20140808170000
1111,"Dongcheng District , Huludao , Huludao",,40.775362,120.871706,112,79,29,37,7,5,,,,,,20140808170000
1112,"huagong street, Huludao , Huludao",,40.758901,120.842935,59,75,27,46,3,10,,,,,,20140808170000
232,Anshan,,41.110466,123.000147,127,71,37,15,10,16,19,14,1009,73,3,20140808170000
233,"Qianshan Park, Anshan",,41.033486,123.143897,78,37,78,8,5,4,19,14,1009,73,3,20140808170000
234,"Tiexi, Anshan",,41.121636,122.97506,144,74,45,14,7,11,19,14,1009,73,3,20140808170000
235,"Taiping Station, Anshan",,41.153322,123.052433,153,85,42,21,13,16,19,14,1009,73,3,20140808170000
236,"Central Station, Anshan",,41.106731,123.002736,99,62,94,8,14,14,19,14,1009,73,3,20140808170000
237,"Shengou Temple, Anshan",,41.137157,123.031901,93,53,47,10,5,8,19,14,1009,73,3,20140808170000
1113,"Qianshan , Anshan , Anshan",,41.014521,123.122538,78,36,52,5,5,4,19,14,1009,73,3,20140808170000
1114,"Tiexi Sandao jie, Anshan",,41.103264,122.978613,95,57,38,6,6,10,19,15,1009,78,2,20140808170000
1115,"Taiyang, Anshan",,41.094946,123.019037,87,55,72,5,13,13,19,15,1009,78,2,20140808170000
238,Fushun,,41.883028,123.962984,159,85,41,38,24,12,19,14,1009,73,3,20140808170000
239,"Shenfu new town, Fushun",,41.804638,123.631684,127,85,31,25,11,7,19,14,1009,73,3,20140808170000
240,"Reservoir, Fushun",,41.8464,123.802857,158,55,43,10,8,10,19,14,1009,73,3,20140808170000
241,"Train Station, Fushun",,41.89726,124.017604,147,105,36,24,13,8,19,14,1009,73,3,20140808170000
242,"Dongzhou, Fushun",,41.855578,124.044738,139,59,45,11,7,9,19,14,1009,73,3,20140808170000
243,"Xinhua, Fushun",,41.888598,123.932932,117,85,34,35,8,9,19,14,1009,73,3,20140808170000
244,"Wanghua, Fushun",,41.888825,123.093723,157,80,45,40,22,11,19,14,1009,73,3,20140808170000
245,Benxi,,41.296267,123.772371,506,999,57,30,12,30,19,14,1009,73,3,20140808170000
246,"Weining, Benxi",,41.349663,123.826071,102,68,16,15,3,23,19,14,1009,73,3,20140808170000
247,"Occupational disease hospital, Benxi",,41.305432,123.74645,72,33,33,31,5,22,19,14,1009,73,3,20140808170000
248,"Dongming, Benxi",,41.292369,123.765058,119,55,22,27,12,30,19,14,1009,73,3,20140808170000
249,"Caitun, Benxi",,41.301591,123.746039,147,80,32,9,3,12,19,14,1009,73,3,20140808170000
250,"Xihu, Benxi",,41.331332,123.773537,506,999,57,30,1,13,19,14,1009,73,3,20140808170000
251,"Dayu, Benxi",,41.308091,123.818442,82,34,39,6,9,18,19,14,1009,73,3,20140808170000
1116,"Xinlitun , Benxi , Benxi",,41.264104,123.811523,70,34,26,28,5,22,19,14,1009,73,3,20140808170000
252,Jinzhou,,41.097169,121.132647,153,164,38,48,26,10,23,14,1009,46,-,20140808170000
253,"Beihu Park, Jinzhou",,41.141447,121.137339,151,96,38,17,17,10,23,14,1009,46,0,20140808170000
254,"Monitoring station, Jinzhou",,41.113441,121.140911,153,89,40,39,23,9,23,14,1009,46,0,20140808170000
255,"Nanshan, Jinzhou",,41.570689,122.046753,151,105,37,38,6,8,23,14,1009,46,0,20140808170000
1118,"BDA, Jinzhou",,40.853915,121.061756,153,164,28,48,26,8,23,14,1009,46,0,20140808170000
1119,"tianan street, Jinzhou , Jinzhou",,41.124468,121.126119,154,101,32,42,22,10,23,14,1009,46,0,20140808170000
1120,"baigu street, Jinzhou, Jinzhou",,41.12214,121.21027,122,71,23,16,3,5,23,14,1009,46,0,20140808170000
1121,Chaoyang,,41.576022,120.456053,183,61,80,17,5,12,-,-,0,-,-,20140808170000
472,"Fukang road, Tianjin",,39.098136,117.157621,127,89,45,23,8,10,24,20,1007,78,2,20140808170000
1122,"Agricultural Area, Chaoyang",,43.93968,125.247371,119,55,7,6,5,12,26,12,1008,31,4,20140808170000
1123,Tieling,,42.225197,123.732174,132,77,33,17,9,16,19,14,1009,73,3,20140808170000
260,"Waterpark, Tieling",,42.297031,123.880748,99,55,16,13,9,5,19,14,1009,73,3,20140808170000
1124,"Huigong Street West , Tieling , Tieling",,42.311115,123.845614,132,72,31,12,7,16,19,14,1009,73,3,20140808180000
1125,Liaoyang,,41.269312,123.24268,124,99,47,20,18,22,19,15,1009,78,2,20140808180000
1126,"Riverside Road , Liaoyang , Liaoyang",,41.176884,123.419859,124,91,45,12,13,14,19,15,1009,78,2,20140808180000
1127,Fuxin,,42.02373,121.675733,139,80,34,29,16,9,-,-,0,-,-,20140808180000
266,"Agricultural Area, Fuxin",,42.071291,121.696445,89,88,33,29,17,8,14,11,0,84,1,20140808180000
267,"Industrial Area, Fuxin",,42.041052,121.715554,139,69,31,27,11,6,14,11,0,84,1,20140808180000
1128,"Yulong Metro , Fuxin , Fuxin",,42.035091,121.666531,99,64,31,29,9,6,14,11,0,84,1,20140808180000
1129,"Dongyuan , Fuxin , Fuxin",,42.029119,121.681553,-,-,-,-,-,-,-,-,0,-,-,20140808180000
268,"City Monitoring Station, Jinan",,36.662614,117.054645,160,86,34,35,25,11,23,17,1007,60,1,20140808180000
269,"Shandong Institute of Economics, Jinan",,36.63819,117.074975,129,55,40,12,16,9,23,17,1007,60,1,20140808180000
270,"Quancheng Plaza, Jinan",,36.661711,117.027043,153,80,25,32,27,12,23,17,1007,60,1,20140808180000
271,"Kegansuo, Jinan",,36.611582,116.99384,144,83,36,38,14,10,23,17,1007,60,1,20140808180000
272,"Agriculture Science Institute, Jinan",,36.663115,116.95063,155,98,32,41,16,13,23,17,1007,60,1,20140808180000
273,"Lanxiang technical school, Jinan",,36.700421,116.95342,167,133,35,50,31,9,23,17,1007,60,1,20140808180000
274,"Chemical factory, Jinan",,36.687463,116.994406,119,76,30,48,24,9,23,17,1007,60,1,20140808180000
275,"Provincial Seed Warehouse, Jinan",,36.685706,117.066348,153,75,40,41,24,13,23,17,1007,60,1,20140808180000
276,"Shandong Architecture University, Jinan",,36.681732,117.191868,157,74,31,14,20,11,23,17,1007,60,1,20140808180000
277,"Baosheng cable company, Jinan",,36.724638,117.130855,163,141,9,47,9,9,23,17,1007,60,1,20140808180000
278,"Paomaling, Jinan",,36.47869,117.219027,149,54,126,6,18,12,23,17,1007,60,1,20140808180000
279,"Changqing District Communist Party School, Jinan",,36.548797,116.770859,152,80,42,29,19,12,23,17,1007,60,1,20140808180000
280,"BDA, Jinan",,36.685835,117.130851,147,81,32,34,15,12,23,17,1007,60,1,20140808180000
281,Jinan,,36.651426,117.126625,167,133,47,50,31,13,23,17,1007,60,1,20140808180000
282,"Shinan district No. 1, Qingdao",,36.065534,120.40839,78,37,78,6,7,4,24,20,1007,78,2,20140808180000
283,"Shibei district No. 1, Qingdao",,36.069919,120.341264,53,19,48,1,13,6,24,20,1007,78,2,20140808180000
284,"Shibei district No. 2, Qingdao",,36.104146,120.36637,21,26,110,3,4,5,24,20,1007,78,2,20140808180000
285,"Huangdao District No. 1, Qingdao",,35.958935,120.191041,74,52,59,2,11,4,24,20,1007,78,2,20140808180000
286,"Huangdao District No. 2, Qingdao",,35.970487,120.160339,76,65,16,1,7,7,24,20,1007,78,2,20140808180000
287,"Laoshan District No. 1, Qingdao",,36.085881,120.451839,95,30,0,8,13,7,24,20,1007,78,2,20140808180000
288,"Laoshan District No. 2, Qingdao",,36.091075,120.490388,74,20,124,5,7,5,24,20,1007,78,2,20140808180000
289,"Licang District No. 1, Qingdao",,36.184872,120.38533,55,54,29,12,13,4,24,20,1007,78,2,20140808180000
290,"Licang District No. 2, Qingdao",,36.154369,120.432287,65,45,44,8,7,4,24,20,1007,78,2,20140808180000
291,"Chengyang District No. 1, Qingdao",,36.308502,120.40008,82,43,11,11,8,5,24,20,1007,78,2,20140808180000
292,"Chengyang District No. 2, Qingdao",,36.308429,120.465806,65,2,66,12,9,3,24,20,1007,78,2,20140808180000
293,Qingdao,,36.067358,120.387773,95,65,102,8,13,7,24,20,1007,78,2,20140808180000
294,"Zichuan Meteo. Stations, Zibo",,36.637916,117.960222,175,137,37,38,53,11,21,17,0,78,1,20140808180000
295,"Dongfeng Chemical factory, Zibo",,36.838576,118.050785,109,79,30,49,22,19,21,17,0,78,1,20140808180000
296,"Boshan shuangshan, Zibo",,36.497278,117.853581,162,83,22,39,43,14,21,17,0,78,1,20140808180000
297,"Linzi Putian Park, Zibo",,36.820171,118.315022,158,78,44,45,25,13,21,17,0,78,1,20140808180000
298,"Qilu Petrochemical, Zibo",,36.765907,118.254967,153,118,25,41,9,11,21,17,0,78,1,20140808180000
299,"Zhoucun sanjin Group, Zibo",,36.8044,117.85694,157,73,25,141,70,16,21,17,0,78,1,20140808180000
300,"Vocational College, Zibo",,36.825208,117.926305,155,77,26,62,32,16,21,17,0,78,1,20140808180000
301,"BDA, Zibo",,36.905214,118.021824,122,77,16,34,25,9,21,17,0,78,1,20140808180000
302,Zibo,,36.813618,118.060948,175,137,39,52,53,19,21,17,0,78,1,20140808180000
303,"Shizhong District Government, Zaozhuang",,34.850397,117.569545,157,99,50,21,73,9,24,20,1007,75,0,20140808180000
304,"Sewage treatment plant, Zaozhuang",,34.818951,117.595345,171,97,34,46,52,7,24,20,1007,75,0,20140808180000
305,"Xuecheng EPA, Zaozhuang",,34.790214,117.272455,167,87,33,45,42,6,24,20,1007,75,0,20140808180000
306,"Yicheng District government, Zaozhuang",,34.772806,117.57647,161,95,55,11,15,5,24,20,1007,75,0,20140808180000
307,"Taierzhuang EPA, Zaozhuang",,34.579462,117.741067,153,78,40,8,7,10,24,20,1007,75,0,20140808180000
308,"Shanting EPA, Zaozhuang",,35.070373,117.457691,139,62,49,7,11,8,24,20,1007,75,0,20140808180000
309,"City EPA, Zaozhuang",,34.809466,117.320608,144,70,59,10,24,4,24,20,1007,75,0,20140808180000
310,"High-tech zone, Zaozhuang",,34.821779,117.363495,155,67,35,7,9,5,24,20,1007,75,0,20140808180000
311,Zaozhuang,,34.809693,117.329634,167,99,55,45,73,10,24,20,1007,75,2,20140808180000
312,"City EPA, Dongying",,37.432052,118.672871,91,50,60,7,14,9,24,20,0,79,3,20140808180000
313,"Vocational College, Dongying",,37.438653,118.630567,82,49,74,8,13,7,24,20,0,79,3,20140808180000
314,"Xianhe Oil Production Plant, Dongying",,37.442419,118.510222,97,70,70,12,10,6,24,20,0,79,3,20140808180000
315,"Gengjin village, Dongying",,37.445072,118.55839,87,60,47,12,10,7,24,20,0,79,2,20140808180000
316,"City environmental company, Dongying",,37.466599,118.508012,114,62,65,11,10,7,24,20,0,79,3,20140808180000
317,"Hekou  district, Dongying",,37.883786,118.522171,112,56,76,9,5,10,24,20,0,79,3,20140808180000
318,"BDA, Dongying",,37.435162,118.701827,76,49,91,7,8,9,24,20,0,79,3,20140808180000
319,Dongying,,37.435429,118.680434,114,70,76,12,14,10,24,20,0,79,3,20140808180000
320,"Bearing Factory, Yantai",,37.544126,121.376956,85,53,39,25,8,4,,,,,,20140808180000
321,"Xijiao Chemical Station, Yantai",,37.547148,121.323695,61,13,101,10,4,7,,,,,,20140808180000
322,"Fushan Monitoring Stations, Yantai",,37.472245,121.260116,87,-,36,4,2,7,,,,,,20140808180000
323,"Mouping EPA, Yantai",,37.376681,121.586509,89,39,30,12,6,4,,,,,,20140808180000
324,"Laishan EPA, Yantai",,37.478422,121.44829,72,31,43,5,6,5,,,,,,20140808180000
325,"Laishan Shengquan Industrial Park, Yantai",,37.4271,121.408386,78,46,46,19,11,4,,,,,,20140808180000
326,"China Agricultural University, Yantai",,37.423568,121.511838,193,53,46,46,16,4,,,,,,20140808180000
327,"BDA EPA, Yantai",,37.560827,121.257954,85,55,29,13,8,6,,,,,,20140808180000
329,"Dajijia, Yantai",,37.673849,121.071465,74,21,47,9,7,4,,,,,,20140808180000
330,Yantai,,37.464793,121.453142,89,53,101,25,11,7,23,20,0,82,4,20140808180000
331,"BDA, Weifang",,36.720022,119.054064,119,71,41,15,12,5,,,,,,20140808180000
332,"Business School, Weifang",,36.682442,119.105909,147,77,48,22,9,5,,,,,,20140808180000
333,"Hanting District, Weifang",,36.773484,119.199705,95,58,65,12,9,5,,,,,,20140808180000
334,"Gongda Company, Weifang",,36.657635,119.167266,109,71,50,11,6,5,,,,,,20140808180000
335,"City EPA, Weifang",,36.701272,119.16838,102,65,57,7,6,6,,,,,,20140808180000
336,"City Arbitration Committee, Weifang",,36.702422,119.145927,119,59,59,10,8,5,,,,,,20140808180000
337,"Xinhui Group, Weifang",,36.641581,119.11679,129,83,59,12,8,6,,,,,,20140808180000
338,"Jincheng Middle School, Weifang",,36.773611,119.115539,117,64,68,14,8,5,,,,,,20140808180000
339,Weifang,,36.707217,119.167638,147,83,70,22,15,6,24,20,0,79,3,20140808180000
340,"City Monitoring Station, Jining",,35.408443,116.623917,172,116,32,19,15,13,25,21,1007,71,0,20140808180000
1090,"Shengdi Hollidays Resort, Jining",,35.424746,116.699093,165,94,28,18,-,17,25,21,1007,71,0,20140808180000
341,"Sewage treatment plant, Jining",,35.364286,116.609177,176,87,36,17,21,9,25,21,1007,71,0,20140808180000
342,"Electrochemical Factory, Jining",,35.390473,116.552956,158,80,33,14,13,12,25,21,1007,71,0,20140808180000
343,"Rencheng BDA, Jining",,35.390484,116.662995,181,98,41,15,15,17,25,21,1007,71,0,20140808180000
344,"Agricultural School, Jining",,35.44235,116.601682,95,94,27,20,12,10,25,21,1007,71,0,20140808180000
345,"BDA Huojucheng, Jining",,35.436377,116.642953,172,90,37,17,28,15,25,21,1007,71,0,20140808180000
346,Jining,,35.414473,116.59239,181,116,41,20,28,17,25,21,1007,71,7,20140808180000
347,"Taishan monitoring station, Taian",,36.194362,117.159648,144,75,73,17,10,13,15,13,0,89,7,20140808180000
348,"Shandong Electric Power School, Taian",,36.176071,117.12413,162,98,31,44,14,15,15,13,0,89,7,20140808180000
349,"Population Education school, Taian",,36.194417,117.104131,149,79,45,6,15,14,15,13,0,89,7,20140808180000
350,"Houfeng company, Taian",,36.204863,117.19015,147,82,55,7,10,13,15,13,0,89,7,20140808180000
351,"Nongda new campus, Taian",,36.170179,117.165191,158,116,24,33,11,18,15,13,0,89,7,20140808180000
352,"Transportation technical school, Taian",,36.202126,117.047068,129,70,29,25,6,13,15,13,0,89,7,20140808180000
353,"ICT Technology, Taian",,36.116621,117.107458,156,98,25,33,14,17,15,13,0,89,7,20140808180000
354,Taian,,36.200502,117.093682,162,116,73,44,15,18,15,13,0,89,7,20140808180000
355,"City Environmental Monitoring Station, Weihai",,37.513939,122.067058,65,26,47,8,2,4,23,20,0,82,4,20140808180000
356,"Woodworking Factory, Weihai",,37.325455,122.160777,50,26,57,8,4,2,23,20,0,82,4,20140808180000
357,"Lantian Hotel, Weihai",,37.514641,122.146276,57,29,63,7,6,5,23,20,0,82,4,20140808180000
358,"Zhang village government, Weihai",,37.485561,122.049436,57,22,40,16,4,4,23,19,0,79,3,20140808180000
359,"Gao District Bank, Weihai",,37.534919,122.056294,78,21,51,4,6,3,23,20,0,82,4,20140808180000
360,"Huxia technical school, Weihai",,37.427951,122.130811,59,30,33,8,5,4,23,20,0,82,4,20140808180000
361,Weihai,,37.5141,122.125477,78,30,63,28,6,5,23,20,0,82,4,20140808180000
362,"City governement square, Rizhao",,35.4075,119.526008,61,30,50,2,6,2,24,22,1008,85,1,20140808180000
363,"Port Authority, Rizhao",,35.381297,119.55396,59,30,36,3,2,5,24,22,1008,85,1,20140808180000
364,"City Monitoring Station, Rizhao",,35.388683,119.496405,68,30,46,9,5,2,24,22,1008,85,1,20140808180000
365,"Professor Garden, Rizhao",,35.462161,119.574193,63,40,52,3,4,6,24,22,1008,85,1,20140808180000
366,"Vocational and Technical College, Rizhao",,35.441939,119.538187,68,28,48,3,4,3,24,22,1008,85,1,20140808180000
367,"Lanshan EPA branch, Rizhao",,35.293405,119.345716,74,40,27,11,9,5,24,22,1008,85,1,20140808180000
368,"Jinma Industrial Park, Rizhao",,35.373339,119.514108,61,50,44,8,6,3,24,22,1008,85,1,20140808180000
369,Rizhao,,35.416089,119.532316,74,50,52,11,9,6,24,22,1008,85,1,20140808180000
370,"Vegetable oil factory, Laiwu",,36.205028,117.700917,157,75,33,21,26,10,24,17,1008,58,0,20140808180000
371,"Nursing home, Laiwu",,36.266067,117.652769,144,99,29,17,22,13,24,17,1008,58,0,20140808180000
372,"Xinyi middle school, Laiwu",,36.245086,117.739025,99,87,26,17,27,10,24,17,1008,58,0,20140808180000
373,"Risheng International School, Laiwu",,36.208125,117.730959,151,79,27,4,10,9,24,17,1008,58,0,20140808180000
374,"Gangcheng EPA, Laiwu",,36.066836,117.871823,153,112,21,47,54,25,24,17,1008,58,0,20140808180000
375,"City EPA, Laiwu",,36.228913,117.694797,139,66,31,37,13,18,24,17,1008,58,0,20140808180000
376,Laiwu,,36.213688,117.682612,157,112,33,47,54,25,24,17,1008,58,0,20140808180000
377,"Lunan Pharmaceutical Factory, Linyi",,35.061671,118.299527,80,72,33,6,9,14,20,19,0,92,2,20140808180000
378,"Yihe compound, Linyi",,35.056752,118.34739,76,55,32,13,6,12,20,19,0,92,2,20140808180000
379,"Linyi University, Linyi",,35.114777,118.293414,124,67,27,11,9,14,20,19,0,92,2,20140808180000
380,City EPA,Nanfang,35.104871,118.353518,85,65,36,7,5,13,20,19,0,92,2,20140808180000
381,"Xinguang woolen factory, Linyi",,34.981004,118.282,95,72,28,18,14,12,20,19,0,92,2,20140808180000
382,"Hongfu Baijiu Factory, Linyi",,34.998788,118.257275,97,77,24,13,7,18,20,19,0,92,2,20140808180000
384,"Hedong insurance company, Linyi",,35.089354,118.40812,97,69,37,17,5,10,20,19,0,92,2,20140808180000
385,"Jianghua vehicule center, Linyi",,35.010082,118.435749,119,72,27,13,5,15,20,19,0,92,2,20140808180000
386,Linyi,,35.10428,118.362202,124,77,37,18,14,18,20,19,0,92,2,20140808180000
387,"Heima group, Dezhou",,37.466063,116.314134,161,106,43,26,16,13,26,19,1007,61,0,20140808180000
388,"Monitoring station, Dezhou",,37.433107,116.377312,159,94,22,53,5,13,26,19,1007,61,0,20140808180000
389,"Supervision Station, Dezhou",,37.449689,116.324709,160,96,36,39,13,15,26,19,1007,61,0,20140808180000
390,"Huayu technical school, Dezhou",,37.462809,116.357559,157,127,39,47,8,12,26,19,1007,61,0,20140808180000
391,"Shuangyi group, Dezhou",,37.478848,116.316362,192,232,26,51,8,16,26,19,1007,61,0,20140808180000
392,Dezhou,,37.434959,116.363366,192,232,43,53,16,16,26,19,1007,61,0,20140808180000
393,"Dongchang District Government, Liaocheng",,36.444473,115.971733,127,50,39,12,9,18,24,21,1008,86,2,20140808180000
394,"Light Machinery Factory No. 2, Liaocheng",,36.456788,116.002383,154,66,44,12,11,17,24,21,1008,86,2,20140808180000
395,"City committee communist party school, Liaocheng",,36.479537,115.989288,161,66,26,16,8,13,24,21,1008,86,2,20140808180000
396,"Customs, Liaocheng",,36.431933,115.956974,154,84,24,25,14,15,24,21,1008,86,2,20140808180000
397,"Hongshun Garden, Liaocheng",,36.471124,115.960319,117,64,24,22,8,18,24,21,1008,86,2,20140808180000
398,"BDA, Liaocheng",,36.459407,116.043621,160,68,31,13,3,16,24,21,1008,86,2,20140808180000
399,Liaocheng,,36.456792,115.991051,161,84,44,25,14,18,24,21,1008,86,2,20140808180000
400,"City EPA, Binzhou",,37.38024,118.026895,132,63,23,17,18,13,26,17,1008,51,1,20140808180000
401,"Beizhong new school, Binzhou",,37.38374,117.988996,114,61,21,13,16,9,26,17,1008,51,1,20140808180000
402,"No.2 water factory, Binzhou",,37.36155,118.002648,144,58,25,12,16,5,26,17,1008,51,1,20140808180000
403,"Keling Chemical factory, Binzhou",,37.396138,117.943609,104,51,15,16,18,8,26,17,1008,51,1,20140808180000
404,"Yinhe logistics company, Binzhou",,37.356122,117.943326,119,69,11,11,14,9,26,17,1008,51,1,20140808180000
405,"Bilin compond, Binzhou",,37.36815,117.978964,112,64,21,8,17,9,26,17,1008,51,1,20140808180000
406,Binzhou,,37.382639,117.976606,144,69,25,17,18,13,26,17,1008,51,1,20140808180000
407,"Bureau of Meteorology, Heze",,35.248625,115.428775,99,44,27,11,14,13,21,14,0,65,4,20140808180000
408,"Sewage treatment plant, Heze",,35.222517,115.531511,122,44,32,6,10,12,21,14,0,65,4,20140808180000
409,"Municipal CPPCC, Heze",,35.237125,115.480591,104,38,27,12,32,14,21,14,0,65,4,20140808180000
410,"Huarun Pharmaceutical Company, Heze",,35.261463,115.524873,74,28,28,6,7,16,21,14,0,65,4,20140808180000
411,"Heze University, Heze",,35.269706,115.460934,114,40,31,6,8,11,21,14,0,65,4,20140808180000
412,Heze,,35.233354,115.486503,119,50,35,12,32,16,21,14,0,65,4,20140808180000
413,"Shiji Park, Shijiazhuang",,38.03155,114.547873,167,94,25,30,11,7,22,20,1007,88,0,20140808180000
414,"Xinan College, Shijiazhuang",,38.012764,114.473163,169,105,17,30,17,6,22,20,1007,88,0,20140808180000
415,"Chemical College, Shijiazhuang",,38.055503,114.569816,152,85,11,31,8,5,22,20,1007,88,0,20140808180000
416,"Worker hospital, Shijiazhuang",,38.051784,114.461209,155,78,26,34,12,7,22,20,1007,88,0,20140808180000
417,"Northwest Water Company, Shijiazhuang",,38.140638,114.508038,161,95,19,41,19,7,22,20,1007,88,0,20140808180000
418,"High-tech zone, Shijiazhuang",,38.040482,114.610775,149,95,18,30,13,8,22,20,1007,88,0,20140808180000
419,"Fenglong Montain, Shijiazhuang",,37.910829,114.360264,137,62,112,2,26,4,22,20,1007,88,0,20140808180000
1130,"Zhengding Unicom, Shijiazhuang",,38.159458,114.59879,189,168,36,61,18,7,22,20,1008,88,1,20140808180000
1131,"Luancheng Communications, Shijiazhuang",,37.906534,114.638785,204,158,30,46,52,9,22,20,1008,88,1,20140808180000
1132,"Gaocheng Experimental School, Shijiazhuang",,38.039518,114.867812,178,126,41,38,82,11,22,20,1008,88,1,20140808180000
1133,"Wuji EPA, Shijiazhuang",,38.17862,114.997012,163,101,49,18,20,10,22,20,1008,88,1,20140808180000
1134,"Shenze Power Supply Bureau, Shijiazhuang",,38.197674,115.219126,162,105,65,30,43,8,22,20,1008,88,1,20140808180000
1135,"Zhaoxian EPA, Shijiazhuang",,37.77171,114.775957,152,89,44,23,46,8,22,20,1008,88,1,20140808180000
1136,"Gaoyi County City Hall, Shijiazhuang",,37.623535,114.612729,165,106,52,44,53,10,24,18,1008,69,1,20140808180000
1137,"Zanhuang County City Hall, Shijiazhuang",,37.672898,114.398269,174,109,30,23,8,6,22,20,1008,88,1,20140808180000
1138,"Jingxing Bureau of Meteorology, Shijiazhuang",,38.038788,114.158406,159,122,26,36,15,10,22,20,1008,88,1,20140808180000
1139,"Pingshan Ye River, Shijiazhuang",,38.266657,114.210275,168,100,50,21,17,8,22,20,1008,88,0,20140808180000
420,Shijiazhuang,,38.042926,114.520834,169,105,36,34,17,8,22,20,1007,88,0,20140808180000
421,"No. 12 middle school, Tangshan",,39.659306,118.190271,151,51,40,15,15,36,-,-,0,-,-,20140808180000
422,"Ceramics Company, Tangshan",,39.669255,118.225185,171,132,44,19,14,9,24,20,1007,78,2,20140808180000
1089,"Xiaoshanzi Station, Tangshan",,39.631273,118.206223,-,-,-,-,-,-,-,-,0,-,-,20140808180000
423,"Commodities Bureau, Tangshan",,39.642301,118.191265,162,101,43,17,20,10,24,20,1007,78,2,20140808180000
424,"Leidazhanzi Station, Tangshan",,39.644375,118.150383,165,111,59,13,17,9,24,20,1007,78,2,20140808180000
425,"Supply and marketing cooperatives, Tangshan",,39.632334,118.17232,179,126,40,17,18,8,24,20,1007,78,2,20140808180000
1140,"Guye District City Hall, Tangshan",,39.741379,118.460246,173,118,107,25,8,17,25,20,1008,74,1,20140808180000
1141,"Kaiping Stations, Tangshan",,39.675246,118.275149,178,137,95,20,11,7,25,20,1008,74,1,20140808180000
1142,"Fengnan District City Hall, Tangshan",,39.5834,118.097454,165,92,104,30,14,14,25,20,1008,74,1,20140808180000
1143,"Fengrun City Hall, Tangshan",,39.840355,118.175338,196,178,60,49,36,17,25,20,1008,74,1,20140808180000
1144,"Qianxi EPA, Tangshan",,40.153339,118.317265,157,74,122,19,24,14,25,20,1008,74,1,20140808180000
1145,"Caofeidian Xinli  Primary School, Tangshan",,39.291232,118.462182,180,91,170,2,7,7,25,20,1008,74,1,20140808180000
1146,"Zunhua EPA, Tangshan",,40.206249,117.997315,180,120,148,27,13,17,25,20,1008,74,1,20140808180000
1147,"Qianan No.1 middle school, Tangshan",,40.004248,118.717055,179,102,119,12,3,9,25,20,1008,74,1,20140808180000
1266,"Luannan County , Tangshan",,39.511132,118.686928,198,148,108,26,11,12,25,20,1008,74,1,20140808180000
1267,"Yutian County , Tangshan",,39.908249,117.751417,210,200,72,73,13,16,25,20,1008,74,1,20140808180000
426,Tangshan,,39.632175,118.186472,179,132,59,19,20,10,24,20,1007,78,2,20140808180000
427,"City Monitoring Station, Qinhuangdao",,39.958109,119.607773,169,25,129,44,7,11,,,,,,20140808180000
428,"Beidaihe, Qinhuangdao",,39.829209,119.53194,38,70,39,12,12,11,,,,,,20140808180000
429,"Shanhai Pass, Qinhuangdao",,40.019298,119.767898,144,89,19,39,12,10,,,,,,20140808180000
430,"Contruction Plazz, Qinhuangdao",,39.943187,119.542912,151,168,78,46,12,7,,,,,,20140808180000
431,"City government, Qinhuangdao",,39.93711,119.612769,155,79,114,52,11,8,,,,,,20140808180000
1148,"Qinglong EPA, Qinhuangdao",,40.419223,118.958002,132,57,113,8,1,1,25,20,1008,74,1,20140808180000
1149,"Changli EPA, Qinhuangdao",,39.714369,119.173237,208,138,137,47,10,8,,,,,,20140808180000
1268,"Lulong County Bureau of Meteorology , Qinhuangdao",,39.901091,118.904857,195,101,145,12,10,7,25,20,1008,74,1,20140808180000
432,Qinhuangdao,,39.936485,119.606263,155,79,114,52,11,8,24,20,1007,78,2,20140808180000
433,"CongTai Park, Handan",,36.620197,114.501891,153,114,19,19,29,18,24,13,1008,39,1,20140808180000
434,"City EPA, Handan",,36.618145,114.518822,102,65,23,32,5,20,24,13,1008,39,1,20140808180000
435,"East Sewage Factory, Handan",,36.616064,114.548714,74,40,23,10,20,7,24,13,1008,39,1,20140808180000
436,"Mine Hospital, Handan",,36.578149,114.509854,144,51,31,17,18,7,24,13,1008,39,1,20140808180000
1150,"Fengfeng mine Inland Revenue Department, Handan",,36.423085,114.245994,107,56,21,9,5,13,21,16,1010,66,4,20140808180000
1151,"Shexian EPA, Handan",,36.589084,113.692341,114,48,18,18,5,13,,,,,,20140808180000
1152,"Ci County Vocational Education Center, Handan",,36.380247,114.390119,151,45,32,28,43,7,,,,,,20140808180000
1153,"Yongnian government guesthouse, Handan",,36.783297,114.502905,162,85,29,33,71,11,24,13,1008,39,1,20140808180000
1154,"Wuan BDA, Handan",,36.686223,114.269009,157,65,27,1,34,15,,,,,,20140808180000
1085,Handan,,36.625683,114.544812,153,114,31,32,29,20,24,13,1008,39,1,20140808180000
437,"Road and Bridge Corporation, Xingtai",,37.096415,114.538799,82,52,24,26,7,6,24,13,1008,39,1,20140808180000
438,"Dahuo fontain, Xingtai",,37.097563,114.488001,109,49,24,24,4,6,24,13,1008,39,1,20140808180000
439,"Xingtai Normal College, Xingtai",,37.053404,114.531819,78,66,18,17,12,7,24,13,1008,39,1,20140808180000
440,"Environment protection office, Xingtai",,37.06253,114.490985,97,50,16,19,7,6,24,13,1008,39,1,20140808180000
1155,"Cultural centers within the mound, Xingtai",,37.293569,114.524873,154,58,45,5,7,6,24,13,1008,39,1,20140808180000
383,Xingtai,,37.071066,114.510749,109,66,24,26,12,7,24,13,1008,39,1,20140808180000
441,"City Monitoring Station, Baoding",,38.871737,115.527103,157,94,52,38,14,8,25,21,1008,72,0,20140808180000
442,"Surface water Company, Baoding",,38.842891,115.467326,155,162,36,35,25,5,25,21,1008,72,0,20140808180000
443,"Huadian II, Baoding",,38.896748,115.528102,165,129,47,17,10,1,25,21,1008,72,0,20140808180000
444,"Reception Center, Baoding",,38.911905,115.477301,174,103,37,42,6,7,25,21,1008,72,0,20140808180000
445,"Film Factory, Baoding",,38.876949,115.448383,169,120,36,28,9,12,25,21,1008,72,0,20140808180000
446,"Natatorium, Baoding",,38.863815,115.499212,129,100,46,34,28,8,25,21,1008,72,0,20140808180000
1156,"Qingyuan City Hall, Baoding",,38.771758,115.502189,164,92,50,31,3,5,25,21,1008,72,0,20140808180000
1157,"Xushui EPA, Baoding",,39.025781,115.668023,170,93,92,10,16,8,25,21,1008,72,0,20140808180000
1158,"Zhouzhou Monitoring Stations, Baoding",,39.493241,116.040187,167,104,88,21,19,4,25,21,1008,72,0,20140808180000
1159,"Gaobeidian EPA, Baoding",,39.3329,115.885891,169,96,130,22,33,4,25,21,1008,72,0,20140808180000
447,Baoding,,38.874791,115.471124,174,129,52,42,28,12,25,21,1008,72,1,20140808180000
448,"Century Compound, Zhangjiakou",,40.770279,114.909106,21,31,17,3,6,4,22,12,1006,43,6,20140808180000
449,"North Pumping Station, Zhangjiakou",,40.874362,114.910119,68,45,128,11,19,14,22,12,1006,43,6,20140808180000
450,"Hardware Warehouse, Zhangjiakou",,40.81232,114.887119,50,33,25,10,15,14,22,12,1006,43,6,20140808180000
451,"Tanji Chang, Zhangjiakou",,40.796301,114.89811,72,44,45,6,42,7,22,12,1006,43,6,20140808180000
1160,"Xiahuayuan EPA, Zhangjiakou",,40.509345,115.302442,153,64,87,14,7,3,22,12,1006,43,6,20140808180000
1161,"Huaian EPA, Zhangjiakou",,40.68157,114.398646,154,66,56,15,26,2,22,12,1006,43,6,20140808180000
1162,"Huailai Fuqian Primary School, Zhangjiakou",,40.422204,115.530285,142,54,58,10,14,4,22,12,1006,43,6,20140808180000
1269,"Zhangbei EPA , Zhangjiakou",,41.166775,114.732369,153,70,46,1,4,5,22,12,1006,43,6,20140808180000
1270,"Kangbao County Environmental Protection Agency , Zhangjiakou",,41.837866,114.591246,152,59,17,3,6,4,22,12,1006,43,6,20140808180000
1271,"Guyuan County welfare , Zhangjiakou",,41.669984,115.687401,74,66,9,6,14,7,22,12,1006,43,6,20140808180000
1272,"Shangyi County Environmental Protection Bureau , Zhangjiakou",,41.086638,113.984688,127,67,66,1,5,8,22,12,1006,43,6,20140808180000
1273,"Yuxian Secondary School , Zhangjiakou",,39.84699,114.601986,172,80,104,8,12,5,22,12,1006,43,6,20140808180000
1274,"Yang County Vocational Education Center , Zhangjiakou",,40.106343,114.134732,165,25,78,6,4,10,22,12,1006,43,6,20140808180000
1275,"Wan county Environmental Protection Agency , Zhangjiakou",,40.770459,114.75033,161,67,84,12,8,7,22,12,1006,43,6,20140808180000
473,"Nankou road, Tianjin",,39.174022,117.199688,153,91,41,28,8,14,24,20,1007,78,2,20140808180000
1276,"Zhuolu County Environmental Protection Agency , Zhangjiakou",,40.374273,115.221393,161,76,48,1,5,3,22,12,1006,43,6,20140808180000
452,Zhangjiakou,,40.825744,114.893659,122,47,45,7,42,12,22,12,1006,43,6,20140808180000
453,"Railway, Chengde",,40.917557,117.972331,119,75,50,42,6,8,21,16,1008,63,1,20140808180000
454,"Cultural Center, Chengde",,40.974625,117.824437,137,83,41,15,3,7,21,16,1008,63,1,20140808180000
455,"Bank of China, Chengde",,40.985582,117.958304,109,65,45,18,24,7,21,16,1008,63,1,20140808180000
456,"BDA, Chengde",,40.937567,117.969325,155,76,88,12,19,8,21,16,1008,63,1,20140808180000
457,"Ligong, Chengde",,41.012579,117.94428,155,100,40,8,1,6,21,16,1008,63,1,20140808180000
1163,"Chengde County EPA, Chengde",,40.776643,118.17646,168,101,114,19,6,10,21,16,1008,63,1,20140808180000
1164,"Xinglong County City Hall, Chengde",,40.424301,117.513488,163,66,76,16,3,10,21,16,1008,63,1,20140808180000
1165,"Luanping EPA, Chengde",,40.950792,117.350715,155,77,124,24,1,8,21,16,1008,63,1,20140808180000
1166,"Fengning County City Hall, Chengde",,41.216739,116.658037,154,66,155,5,5,9,21,16,1008,63,1,20140808180000
1277,"Longhua EPA , Chengde",,41.311956,117.739605,153,62,109,1,12,8,21,16,1008,63,1,20140808180000
458,Chengde,,40.955652,117.968737,155,100,88,42,24,8,21,16,1008,63,1,20140808180000
459,"Municipal EPB, Cangzhou",,38.323507,116.876746,129,76,64,21,4,8,24,20,1008,78,1,20140808180000
460,"Cangxian Urban Construction Bureau, Cangzhou",,38.299495,116.890734,122,76,41,27,6,6,24,20,1007,78,2,20140808180000
461,"TV Broadcast Station, Cangzhou",,38.325525,116.863761,129,52,40,10,7,6,24,20,1007,78,2,20140808180000
1167,"Qing County City Hall, Cangzhou",,38.589643,116.815876,177,109,45,8,4,4,24,20,1008,78,1,20140808180000
1168,"Poyoushi City Hall, Cangzhou",,38.089516,116.590575,172,105,1,27,22,5,24,20,1008,78,1,20140808180000
1169,"Huanghua Finance Bureau Training Center, Cangzhou",,38.377793,117.343356,129,10,88,20,20,3,24,20,1008,78,1,20140808180000
462,Cangzhou,,38.305035,116.844625,129,76,41,27,7,6,24,20,1007,78,2,20140808180000
463,"Environmental Monitoring Supervision Center, Langfang",,39.558157,116.720995,169,80,91,25,14,14,25,20,1008,74,1,20140808180000
464,"TCM Medical Material Company, Langfang",,39.519096,116.689914,169,126,71,18,11,14,24,20,1007,78,2,20140808180000
465,"BDA, Langfang",,39.576175,116.779041,179,101,72,24,20,15,24,20,1007,78,2,20140808180000
466,"North China Institute of Aerospace, Langfang",,39.53517,116.743027,168,98,46,24,11,18,25,20,1008,74,1,20140808180000
1170,"Guan Party School, Langfang",,39.446185,116.311026,177,97,152,14,8,11,25,20,1008,74,1,20140808180000
1171,"Xianghe EPA, Langfang",,39.76725,117.015252,187,127,151,25,13,12,25,20,1008,74,1,20140808180000
1172,"Wenan County EPA, Langfang",,38.880927,116.47001,166,91,125,14,17,10,25,20,1008,74,1,20140808180000
1173,"Three Rivers Department of Transportation, Langfang",,39.989419,117.091528,173,115,137,26,18,14,25,20,1008,74,1,20140808180000
1278,"Yongqing EPA , Langfang",,39.329071,116.510917,175,130,128,24,10,14,25,20,1008,74,1,20140808180000
1279,"Dacheng EPA, Langfang",,38.712628,116.665751,195,98,149,18,21,10,25,20,1008,74,1,20140808180000
467,Langfang,,39.539148,116.689668,179,126,72,24,20,15,24,20,1007,78,2,20140808180000
468,"Hengshui City EPB, Hengshui",,37.739679,115.695929,171,95,44,14,21,6,21,13,0,58,1,20140808180000
469,"Environmental Monitoring Station, Hengshui",,37.738593,115.648837,169,80,64,22,14,8,22,14,0,59,0,20140808180000
470,"Electrical Machine North Factory, Hengshui",,37.758686,115.70094,154,107,35,28,17,7,21,13,0,58,1,20140808180000
1174,"Anping EPA, Hengshui",,38.238559,115.537988,178,86,52,24,13,7,22,14,0,58,0,20140808180000
1175,"Jizhou EPA, Hengshui",,37.548552,115.58679,170,90,48,10,19,18,22,14,0,58,0,20140808180000
1280,"Zaoqiang EPA, Hengshui",,37.520698,115.714936,173,94,42,22,6,7,22,14,0,58,0,20140808180000
1281,"Wuyi EPA, Hengshui",,37.801554,115.898697,177,107,44,20,12,8,22,14,0,58,0,20140808180000
1282,"Wuqiang EPA , Hengshui",,38.03557,115.959767,169,-,46,18,9,14,22,14,0,58,0,20140808180000
1283,"Raoyang EPA , Hengshui",,38.230652,115.741041,-,-,-,-,-,-,-,-,0,-,-,20140808180000
1284,"Gucheng County , Hengshui",,37.347569,115.966707,168,86,48,16,9,7,22,14,0,58,0,20140808180000
471,Hengshui,,37.739562,115.676066,171,107,48,28,21,7,21,13,0,58,1,20140808180000
1176,"Xinji City Hall, Xinji",,37.949711,115.230084,179,125,48,31,15,8,22,14,0,58,0,20140808180000
474,"Qinjian street, Tianjin",,39.166588,117.15104,119,74,37,20,6,12,24,20,1007,78,1,20140808180000
475,"Nanjing Road, Tianjin",,39.120958,117.195112,142,63,42,14,6,12,24,20,1007,78,1,20140808180000
476,"Dazhigu No.8 road, Tianjin",,39.111811,117.25147,132,65,30,24,3,8,24,20,1007,78,1,20140808180000
477,"Qianjin street, Tianjin",,39.09371,117.207981,144,57,40,16,7,11,24,20,1007,78,1,20140808180000
478,"Huaihe street, Tianjin",,39.227167,117.191293,178,173,22,14,10,18,24,20,1007,78,1,20140808180000
479,"Xiangshan street, Tianjin",,39.134752,117.275125,153,118,29,17,6,16,24,20,1007,78,1,20140808180000
480,"Yuejin Road, Tianjin",,39.088177,117.320884,142,58,32,36,4,11,24,20,1007,78,1,20140808180000
481,"Zhujiang street, Tianjin",,39.064463,117.231268,-,-,-,-,-,-,-,-,0,-,-,20140808180000
482,"No.4 street, Tianjin",,39.035228,117.713424,117,64,32,27,10,9,24,20,1007,78,1,20140808180000
483,"Yongming road, Tianjin",,38.840392,117.463805,137,56,52,12,4,11,24,20,1007,78,1,20140808180000
484,"Xinhua street, Tianjin",,39.138671,117.010083,155,83,43,17,7,8,24,20,1007,78,1,20140808180000
485,"Jingu Road, Tianjin",,38.985659,117.381254,99,62,61,7,6,10,24,20,1007,78,1,20140808180000
486,"Tanggu Yingkou street, Tianjin",,39.021768,117.656454,-,-,-,-,-,-,-,-,0,-,-,20140808180000
487,"Hexi Yijing road, Tianjin",,39.248392,117.798043,127,57,61,8,5,11,24,20,1007,78,1,20140808180000
488,"Jianshe Road, Tianjin",,39.720075,117.310588,162,89,76,35,7,12,24,20,1007,78,1,20140808180000
489,"Quanzhou South road, Tianjin",,39.373857,117.050329,159,157,31,71,5,14,24,20,1007,78,1,20140808180000
490,"Donghuan road, Tianjin",,40.043144,117.451062,149,65,105,24,4,22,24,20,1007,78,1,20140808180000
491,"Tuanpowa, Tianjin",,38.920418,117.16299,151,66,6,14,4,12,24,20,1007,78,1,20140808180000
493,"Beiwei No.2 road, Tianjin",,38.943857,116.920624,183,113,60,22,15,11,24,20,1007,78,1,20140808180000
494,"Haitai fazhan No.2 road, Tianjin",,39.079608,117.096583,163,73,50,41,7,14,24,20,1007,78,1,20140808180000
495,"Hangtian road, Tianjin",,39.152244,117.381309,152,67,31,28,5,17,24,20,1007,78,1,20140808180000
496,"Hanbei road, Tianjin",,39.159768,117.770477,127,55,60,16,5,13,24,20,1007,78,1,20140808180000
497,"Baobai highway, Tianjin",,39.51757,117.349635,177,154,48,12,4,11,24,20,1007,78,1,20140808180000
498,Tianjin,,39.085164,117.207281,144,63,42,16,7,12,24,20,1007,78,1,20140808180000
499,"Wolong bridge, Hangzhou",,30.24371,120.132762,102,54,23,8,4,5,26,22,1004,78,2,20140808180000
500,"Hemu primary school, Hangzhou",,30.309669,120.124507,147,60,34,19,5,7,26,22,1004,78,2,20140808180000
501,"Zhejiang Agricultural University, Hangzhou",,30.265601,120.197583,147,60,20,24,8,9,26,22,1004,78,2,20140808180000
502,"Xiasha, Hangzhou",,30.303516,120.352618,151,51,28,12,5,5,26,22,1004,78,2,20140808180000
503,"Yunqi, Hangzhou",,30.178555,120.093142,107,50,21,7,4,4,26,22,1004,78,2,20140808180000
504,"Xixi, Hangzhou",,30.272425,120.068144,124,53,24,11,4,8,26,22,1004,78,2,20140808180000
505,"Chengxiang town, Hangzhou",,30.179493,120.274184,129,57,28,12,5,6,26,22,1004,78,2,20140808180000
506,"Qiandao lake, Hangzhou",,29.638139,119.031092,76,23,38,4,2,11,26,22,1004,78,2,20140808180000
507,"Linping town, Hangzhou",,30.415948,120.305059,139,52,30,10,6,6,26,22,1004,78,2,20140808180000
509,"No.2 Middle School, Hangzhou",,30.044303,119.956356,102,47,20,6,9,7,26,22,1004,78,2,20140808180000
510,"City Hall, Hangzhou",,30.234185,119.723503,122,61,34,6,4,6,26,22,1004,78,2,20140808180000
511,"No. 4 middle school, Hangzhou",,30.229428,119.699591,122,56,10,6,8,7,26,22,1004,78,2,20140808180000
512,Hangzhou,,30.271756,120.159765,151,64,34,24,8,12,26,22,1004,78,2,20140808180000
513,"City Station, Wenzhou",,28.009715,120.679129,102,45,16,21,4,10,24,23,0,94,0,20140808180000
514,"Ouhai, Wenzhou",,28.001846,120.641982,112,50,11,26,3,12,24,23,0,94,0,20140808180000
515,"Longwan, Wenzhou",,27.968122,120.768393,95,45,17,23,8,6,24,23,0,94,0,20140808180000
516,"Nanpu, Wenzhou",,27.981763,120.683685,89,47,15,18,8,15,24,23,0,94,0,20140808180000
517,Wenzhou,,27.990985,120.703425,112,50,17,26,8,15,24,23,0,94,0,20140808190000
518,"Monitoring station, Jiaxing",,30.75437,120.767373,144,57,23,12,11,8,26,25,1003,94,1,20140808190000
519,"Jiaxing University, Jiaxing",,30.745099,120.735004,144,60,27,21,11,6,26,25,1003,94,2,20140808190000
520,"Qinghe Primary School, Jiaxing",,30.775685,120.747969,142,64,22,22,13,6,26,25,1003,94,1,20140808190000
521,Jiaxing,,30.751627,120.762862,144,64,23,22,13,8,26,25,1003,94,1,20140808190000
522,"Chengbei water plant, Huzhou",,30.891155,120.096593,89,52,19,22,3,7,26,25,1003,94,2,20140808190000
523,"Jishan new village, Huzhou",,30.859939,120.120168,114,54,24,14,3,8,26,25,1003,94,2,20140808190000
524,"Town west water plant, Huzhou",,30.862371,120.084577,93,58,19,18,4,6,26,25,1003,94,2,20140808190000
525,Huzhou,,30.892304,120.091694,114,58,24,22,4,8,26,25,1003,94,2,20140808190000
526,"Donghu middle school, Shaoxing",,29.990447,120.647547,117,49,39,18,26,7,26,22,1004,78,2,20140808190000
527,"City EPA station, Shaoxing",,30.001695,120.584318,127,54,35,8,7,3,26,22,1004,78,2,20140808190000
528,"Chengdong BDA committee, Shaoxing",,29.986643,120.613578,139,51,36,9,23,2,26,22,1004,78,2,20140808190000
529,"Paojiang station, Shaoxing",,30.07574,120.62154,117,49,33,17,30,0,26,22,1004,78,2,20140808190000
530,"Shaoxing technical school, Shaoxing",,29.930983,120.577131,122,50,18,8,7,7,26,22,1004,78,2,20140808190000
531,"Library, Shaoxing",,29.706266,120.253183,109,53,33,6,4,17,26,22,1004,78,2,20140808190000
532,"Transporation management station, Shaoxing",,29.726405,120.221602,102,54,35,5,5,20,26,22,1004,78,2,20140808190000
533,"Dongpu Town Governement, Shaoxing",,30.049601,120.539893,107,47,28,12,11,6,26,22,1004,78,2,20140808190000
534,Shaoxing,,29.993122,120.590182,139,51,36,9,23,3,26,22,1004,78,2,20140808190000
535,"City Monitoring Station, Jinhua",,29.100031,119.690373,169,68,50,9,12,8,24,23,0,98,1,20140808190000
536,"No.15 middle school, Jinhua",,29.074022,119.652121,165,75,50,6,11,8,24,23,0,98,1,20140808190000
537,"No.4 middle school, Jinhua",,29.110109,119.653654,169,0,48,9,12,9,24,23,0,98,1,20140808190000
538,"Beiyuan, Jinhua",,29.332898,120.083351,151,61,42,6,15,10,24,23,0,98,1,20140808190000
539,"Jiangdong, Jinhua",,29.302486,120.095291,139,65,48,8,16,11,24,23,0,98,1,20140808190000
540,Jinhua,,29.076083,119.65215,169,75,50,9,12,9,24,23,0,98,1,20140808190000
541,"EPA building, Quzhou",,28.937291,118.876081,151,59,35,19,24,8,27,25,1003,87,2,20140808190000
542,"Experimental school, Quzhou",,28.961502,118.880916,137,49,29,8,10,8,27,25,1003,87,2,20140808190000
543,"Quzhou University, Quzhou",,28.971452,118.860052,109,45,39,14,9,7,27,25,1003,87,2,20140808190000
544,Quzhou,,28.966994,118.864252,151,59,39,19,24,8,27,25,1003,87,2,20140808190000
545,"Putuo east port, Zhoushan",,29.951412,122.317679,65,25,26,1,2,8,27,25,1003,89,1,20140808190000
546,"Dinghai tanfeng, Zhoushan",,30.018014,122.126566,61,31,27,4,2,4,27,25,1003,89,1,20140808190000
547,Zhoushan,,29.983049,122.210763,65,31,27,4,2,8,27,25,1003,89,1,20140808190000
548,"Taizhou EPA building, Taizhou",,28.651216,121.42331,99,49,9,10,1,8,23,23,0,96,0,20140808190000
549,"Luqiao Tian Yang Wang, Taizhou",,28.574364,121.381194,87,48,6,13,2,5,23,23,0,96,0,20140808190000
550,"Huangyan EPA building, Taizhou",,28.656151,121.285064,85,34,9,7,1,15,23,23,0,96,0,20140808190000
551,"Yu Zhuang Qian, Lishui",,28.419638,119.883884,91,29,37,22,12,3,28,26,1003,80,0,20140808190000
552,"Monitoring station building, Lishui",,28.444379,119.923103,95,39,31,12,2,5,28,26,1003,80,0,20140808190000
553,"Liandu primary school, Lishui",,28.450912,119.939332,85,47,23,11,2,6,28,26,1003,80,0,20140808190000
554,Lishui,,28.464224,119.927201,95,47,37,22,12,6,28,26,1003,80,0,20140808190000
555,Taigu Primary School,,29.858177,121.593738,89,48,10,12,7,7,27,25,1003,89,0,20140808190000
556,Qianhu shuihan,,29.862459,121.5328,161,72,22,12,7,10,27,25,1004,89,3,20140808190000
557,Sanjiang secondary schools,,29.884687,121.562713,119,54,10,17,12,7,27,25,1003,89,0,20140808190000
558,Longsai Hospital,,29.949294,121.720671,93,35,8,17,6,5,27,25,1003,89,0,20140808190000
559,Beilun District EPB,,29.899544,121.827597,89,50,9,22,7,4,27,25,1003,89,1,20140808190000
560,Wanli University,,29.896155,121.541154,61,25,17,3,4,7,27,25,1003,89,0,20140808190000
561,Qianhu water plant,,29.788156,121.652415,91,41,9,16,4,5,27,25,1003,89,0,20140808190000
562,Municipal management station,,29.893743,121.620269,78,38,6,20,5,7,27,25,1003,89,0,20140808190000
1177,Daxie Literary Museum,,29.891281,121.952741,82,34,12,11,3,4,27,25,1003,89,0,20140808190000
1178,Cixi EPB,,30.159852,121.242331,65,37,18,6,7,10,27,25,1003,89,0,20140808190000
1179,Cixi Experimently Primary School,,30.174341,121.262169,74,30,18,5,4,10,27,25,1003,89,0,20140808190000
1180,"Yongsan Park, Yuyao",,30.045532,121.157602,-,-,-,-,-,-,-,-,0,-,-,20140808190000
1181,"Qilupu Water Company, Yuyao",,30.039112,121.133416,-,-,-,-,-,-,-,-,0,-,-,20140808190000
1182,Fenghua EPB,,29.660537,121.414074,152,63,28,14,11,11,27,25,1003,89,0,20140808190000
1183,"Yuelong station, Ninghai",,29.290223,121.439263,82,20,19,5,3,25,27,25,1003,89,0,20140808190000
1184,"Wenfeng Primary School, Xiangshan",,29.470841,121.895054,85,31,14,2,3,5,27,25,1003,89,0,20140808190000
1185,"Chengnan Primary School, Ninghai",,29.282647,121.428839,61,19,20,1,5,5,27,25,1003,89,0,20140808190000
1186,"Xingang Primary School, Xiangshan",,29.199718,121.935879,68,54,19,4,4,5,27,25,1003,89,0,20140808190000
1187,Fuyang,,30.046157,119.96468,104,51,20,6,9,7,26,21,1004,74,2,20140808190000
1188,Yiwu,,29.304353,120.079794,147,61,45,8,20,10,-,-,0,-,-,20140808190000
1189,Zhuji,,29.711185,120.240748,114,55,31,6,6,20,26,21,1004,74,2,20140808190000
563,"Shanxi Road , Nanjing",,32.06795,118.779216,59,13,7,11,4,3,24,23,1004,94,1,20140808190000
564,"Ruijin Road , Nanjing",,32.029321,118.80817,78,21,4,12,3,5,24,23,1004,94,1,20140808190000
565,"Xuanwu Lake, Nanjing",,32.075423,118.800188,57,18,6,5,2,2,24,23,1004,94,1,20140808190000
566,"Olympic Center, Nanjing",,32.007171,118.742217,68,24,6,5,2,4,24,23,1004,94,1,20140808190000
567,"Xianlin University Town , Nanjing",,32.106958,118.919882,34,16,5,6,1,3,24,23,1003,94,3,20140808190000
568,Nanjing,,32.058179,118.802061,76,29,8,15,5,5,24,23,1003,94,3,20140808190000
569,"Shangfang hill , Suzhou",,31.24502,120.565211,155,55,10,17,4,11,26,25,1003,94,1,20140808190000
570,"Wuzhong District , Suzhou",,31.268105,120.61717,87,67,21,14,1,10,26,25,1003,94,2,20140808190000
571,"Suzhou New District , Suzhou",,31.297277,120.547262,160,60,19,17,12,14,26,25,1003,94,1,20140808190000
572,"Suzhou Industrial Area, Suzhou",,31.307603,120.673257,80,93,15,7,6,9,26,25,1003,94,1,20140808190000
573,"Xiangcheng district, Suzhou",,31.368674,120.645209,57,105,19,18,4,12,26,25,1003,94,1,20140808190000
574,Suzhou,,31.296701,120.589493,160,49,19,18,12,9,26,25,1003,94,1,20140808190000
575,"South suburb , Nantong",,31.957836,120.917218,97,39,20,6,11,3,24,23,1003,95,2,20140808190000
576,"Xinghu park, Nantong",,31.927873,120.944254,97,44,20,3,5,3,24,23,1003,95,2,20140808190000
577,"Zilang school, Nantong",,32.039638,120.814358,97,31,20,8,2,0,24,23,1003,95,2,20140808190000
578,Nantong,,31.978005,120.898555,112,47,20,8,9,5,24,23,1003,95,2,20140808190000
579,Lianyungang,,34.595509,119.226814,152,84,21,27,10,7,8,8,1016,96,0,20140808190000
580,"Hongmen police substation, Lianyungang",,34.588692,119.146693,152,67,24,25,13,7,23,23,1006,95,1,20140808190000
581,"Xugou Nuclear Expert Village , Lianyungang",,34.749957,119.373707,57,26,32,3,4,6,23,23,1006,95,1,20140808190000
582,"Hengrui pharmaceutical company, BDA, Lianyungang",,34.697574,119.353668,80,27,41,6,3,3,23,23,1006,95,1,20140808190000
583,"City Monitoring Station, Lianyungang",,34.586791,119.186929,74,44,30,16,5,5,23,23,1006,95,1,20140808190000
584,"Yellow river new village , Xuzhou",,34.271542,117.177241,112,67,21,21,33,17,24,21,1006,80,0,20140808190000
585,"Tongshan Veterinary Hospital , Xuzhou",,34.307086,117.197766,134,58,30,35,22,15,24,21,1006,80,0,20140808190000
586,"New Town , Xuzhou",,34.213992,117.261718,153,98,35,8,9,12,24,21,1006,80,0,20140808190000
587,"Taoyuan road, Xuzhou",,34.289822,117.249721,158,85,30,28,33,13,24,21,1006,80,0,20140808190000
588,"Agricultural Science Academy , Xuzhou",,34.27655,117.299079,155,98,35,36,40,11,24,21,1006,80,0,20140808190000
589,"Tongshan EPA, Xuzhou",,34.179384,117.171798,129,75,29,16,21,11,24,21,1006,80,0,20140808190000
590,Xuzhou,,34.20346,117.289825,158,85,35,35,42,13,24,21,1006,80,3,20140808190000
591,Yangzhou,,32.39233,119.418446,159,69,10,19,10,5,11,9,0,90,6,20140808190000
592,"Hanjiang Monitoring Station, Yangzhou",,32.374218,119.394484,72,26,13,9,2,3,22,22,0,97,2,20140808190000
593,"No. 4 Hospital, Yangzhou",,32.401394,119.44444,61,22,13,1,5,0,22,22,0,97,2,20140808190000
594,"City Monitoring Station, Yangzhou",,32.406588,119.41591,50,15,11,5,15,3,22,22,0,97,2,20140808190000
595,"University Town , Wuxi",,31.484752,120.273571,102,48,34,5,6,10,26,25,1003,94,2,20140808190000
596,"Shibei High School , Wuxi",,31.619969,120.279584,132,73,18,17,9,28,26,25,1003,94,2,20140808190000
597,"Yuhong Elementary School , Wuxi",,31.561155,120.249588,127,52,22,9,10,11,26,25,1003,94,2,20140808190000
598,Wuxi,,31.488746,120.31575,117,42,32,22,11,29,26,25,1003,94,2,20140808190000
599,Changzhou,,31.808037,119.979205,172,86,6,22,36,13,11,9,0,88,5,20140808190000
600,"Chengjian School, Changzhou",,31.776476,119.937681,142,50,13,15,9,10,23,23,1003,98,2,20140808190000
601,"Changzhou Engineering Institute , Changzhou",,31.806828,119.966724,99,47,13,12,7,7,23,23,1003,98,2,20140808190000
602,"Wujin Monitoring Station, Changzhou",,31.701788,119.939676,153,52,21,14,6,12,23,23,1003,98,2,20140808190000
603,"City Monitoring Station, Changzhou",,31.777201,119.979426,139,60,18,14,12,9,23,23,1003,98,2,20140808190000
604,Zhenjiang,,32.18597,119.431281,170,79,4,39,15,13,9,8,0,93,5,20140808190000
605,"New District Administrative office , Zhenjiang",,32.186174,119.685021,97,32,17,6,5,11,24,23,1003,94,3,20140808190000
606,"Vocational Education Center , Zhenjiang",,32.212973,119.496253,65,31,23,5,3,8,24,23,1003,94,3,20140808190000
607,"Dantu Monitoring Station , Zhenjiang",,32.130026,119.435432,74,37,12,5,7,6,24,23,1003,94,3,20140808190000
608,"City Monitoring Station, Zhenjiang",,32.202178,119.439766,65,32,11,7,5,10,24,23,1003,94,3,20140808190000
609,"Gaogang Adminstrative office , Taizhoushi",,32.300768,119.886757,122,13,6,6,9,5,22,22,0,98,2,20140808190000
610,"Students Innovation Park , Taizhoushi",,32.461672,119.892761,137,37,19,1,9,2,22,22,0,98,2,20140808190000
611,Taizhoushi,,32.453555,119.927852,137,43,19,6,13,7,22,22,0,98,2,20140808190000
612,"Yancheng power station , Yancheng",,33.400859,120.123067,112,44,29,5,4,4,-,-,0,-,-,20140808190000
613,Yancheng,,33.345939,120.168504,144,52,30,5,3,7,11,10,1016,95,4,20140808190000
614,"Wenfeng Middle School , Yancheng",,33.370531,120.134041,65,19,20,10,2,5,-,-,0,-,-,20140808190000
615,"BDA Management Committe, Yancheng",,33.393191,120.22978,34,10,32,6,1,4,-,-,0,-,-,20140808190000
616,"City Monitoring Station, Yancheng",,33.390623,120.164423,87,40,31,10,5,4,22,22,0,98,2,20140808190000
617,Suqian,,33.960666,118.281004,160,87,24,7,5,7,11,10,0,91,6,20140808190000
618,"Suqian College , Suqian",,33.951472,118.298523,63,46,39,13,3,4,21,21,0,97,3,20140808190000
619,"Suqian Middle School , Suqian",,33.95784,118.249505,87,48,21,6,5,5,21,21,0,97,3,20140808190000
620,"Suyu District Environmental Protection Agency , Suqian",,33.94932,118.326569,70,46,27,6,3,5,21,21,0,97,3,20140808190000
621,"City Monitoring Station, Suqian",,33.956982,118.277022,124,59,31,11,7,6,21,21,0,97,3,20140808190000
622,Taizhou,,28.653436,121.425185,93,51,9,10,3,15,23,23,0,96,1,20140808190000
623,Donghu Liyuan,,30.572324,114.377844,61,27,26,3,2,4,25,22,1005,83,2,20140808190000
624,Yuehu Lake,,30.554662,114.256937,80,28,23,9,0,4,25,22,1005,83,2,20140808190000
625,Hankou Huaqiao ,,30.61724,114.287652,119,34,22,22,0,7,25,22,1005,83,2,20140808190000
626,Wuchang Ziyang ,,30.530801,114.309438,1,29,22,16,0,5,25,22,1005,83,0,20140808190000
627,Qingshan Ganghua,,30.622435,114.375599,95,65,24,15,6,5,25,22,1005,83,2,20140808190000
628,Dunkou Xinou,,30.480091,114.162176,85,52,18,18,2,7,25,22,1005,83,2,20140808190000
629,Donghu Gaoxin,,30.48095,114.40724,78,44,13,22,6,8,25,22,1005,83,2,20140808190000
630,Wujianshan,,30.63114,114.135907,112,43,22,12,0,4,25,22,1005,83,2,20140808190000
631,Yuanshun Road,,30.297142,113.858587,63,10,31,2,0,6,25,22,1005,83,2,20140808190000
632,Wuhan,,30.591973,114.306887,119,65,26,22,6,7,25,22,1005,83,2,20140808190000
1190,"Silingsan Factory, Yichang",,30.713288,111.306585,153,76,15,8,6,7,21,21,1007,94,2,20140808190000
633,Yichang,,30.689528,111.292131,153,76,20,8,15,13,21,21,1007,94,2,20140808190000
633,Yichang,,30.689528,111.292131,153,76,20,8,15,13,21,21,1007,94,2,20140808190000
1191,"City Library , Jingzhou",,30.31494,112.260844,158,64,22,9,8,9,23,21,1006,81,2,20140808190000
1192,"City committee communist party school, Jingzhou",,30.35054,112.20743,158,81,24,7,7,10,23,21,1006,81,2,20140808190000
1193,"kerong EPA, Jingzhou",,30.302965,112.29443,154,76,25,12,19,12,23,21,1006,81,2,20140808190000
634,Jingzhou,,30.332608,112.245451,158,81,25,12,19,12,23,21,1006,81,2,20140808190000
634,Jingzhou,,30.332608,112.245451,158,81,25,12,19,12,23,21,1006,81,2,20140808190000
635,Huangshi,,30.19723,115.043908,134,75,11,22,7,18,26,22,1007,86,2,20140808190000
635,Huangshi,,30.19723,115.043908,134,75,11,22,7,18,26,22,1007,86,2,20140808190000
1194,"Chenjiaying, Huangshi",,30.232823,115.067923,93,50,7,4,1,11,26,,1007,86,2,20140808190000
1195,"Chenjiawan , Huangshi",,30.200422,115.082138,132,63,8,7,7,12,26,,1007,86,2,20140808190000
1196,"Xinxialu, Huangshi",,30.17332,114.954357,107,57,8,22,6,11,26,,1007,86,2,20140808190000
1197,"Tie montian, Huangshi",,30.203885,114.906439,134,75,6,11,1,18,26,,1007,86,2,20140808190000
1198,"BDA, Huangshi",,30.207491,115.031739,117,61,11,2,1,10,26,,1007,86,2,20140808190000
636,Shiyan,,32.627208,110.803311,152,62,8,4,3,12,19,21,942,100,1,20140808190000
636,Shiyan,,32.627208,110.803311,152,62,8,4,3,12,19,21,942,100,1,20140808190000
1199,"Wudang Mountain , Shiyan",,32.392921,111.047655,53,14,8,1,1,5,19,,957,100,1,20140808200000
1200,"Riverside Village , Shiyan",,32.647286,110.785335,151,62,8,4,1,0,19,,942,100,1,20140808200000
1201,"Liujiagou , Shiyan",,32.636732,110.731129,152,61,8,3,3,12,19,,942,100,1,20140808200000
1202,"Yunyang County District automatic air station , Shiyan",,32.833065,110.816809,95,40,3,2,3,3,19,,942,100,1,20140808200000
637,Xiangyang,,32.007029,112.128496,104,44,13,2,2,7,23,,1008,59,4,20140808200000
637,Xiangyang,,32.007029,112.128496,104,44,13,2,2,7,23,,1008,59,4,20140808200000
638,Ezhou,,30.389244,114.899884,72,40,11,4,4,12,26,22,1014,88,2,20140808200000
638,Ezhou,,30.389244,114.899884,72,40,11,4,4,12,26,22,1014,88,2,20140808200000
1203,"City government, Ezhou",,30.391836,114.892822,70,22,8,4,2,1,26,,1014,88,2,20140808200000
1204,"Zhaojiaba, Ezhou",,30.368966,114.90365,63,35,8,4,1,7,26,,1014,88,2,20140808200000
1205,"Fankou BDA, Ezhou",,30.410759,114.818225,72,40,11,3,4,12,26,,1014,88,2,20140808200000
639,Jingmen,,31.033208,112.205093,157,69,27,10,20,12,23,19,1001,80,3,20140808200000
639,Jingmen,,31.033208,112.205093,157,69,27,10,20,12,23,19,1001,80,3,20140808200000
640,Xiaogan,,30.922089,113.922387,107,49,8,1,59,3,25,22,1005,83,4,20140808200000
640,Xiaogan,,30.922089,113.922387,107,49,8,1,59,3,25,22,1005,83,4,20140808200000
1206,"wenhua street, Shenyang , Xiaogan",,30.925856,113.92104,-,-,-,-,-,-,-,23,0,-,-,20140808200000
1207,"Dongcheng District , Huludao , Xiaogan",,30.917963,113.943904,107,49,8,1,1,3,25,22,1005,83,4,20140808200000
641,Huanggang,,30.45124,114.877378,38,20,12,1,4,10,26,22,1014,88,2,20140808200000
641,Huanggang,,30.45124,114.877378,38,20,12,1,4,10,26,22,1014,88,2,20140808200000
1208,"Dazhou Island, Huanggang",,30.446205,114.900323,-,-,-,-,-,-,-,,0,-,-,20140808200000
1209,"Workers Center , Huanggang",,30.469244,114.912504,38,20,12,1,4,10,26,,1014,88,2,20140808200000
642,Xianning,,29.838978,114.327898,157,82,12,2,1,13,25,22,980,88,1,20140808200000
642,Xianning,,29.838978,114.327898,157,82,12,2,1,13,25,22,980,88,1,20140808200000
1210,"Municipal Development and Reform Commission , Xianning",,29.818645,114.328461,155,82,9,-,1,13,25,,980,88,1,20140808200000
1211,"Xianan District Governement, Xianning",,29.51107,114.181864,153,87,7,5,5,13,25,,988,87,1,20140808200000
1212,"Yangtze River Industrial Park , Xianning",,29.883098,114.32909,157,80,12,1,1,13,25,,980,88,1,20140808200000
1213,"Qianshan Park, Xianning",,29.815351,114.328689,151,72,11,2,1,13,25,,980,88,1,20140808200000
644,Enshi,,30.269587,109.493042,164,21,43,8,8,15,20,21,908,90,1,20140808200000
644,Enshi,,30.269587,109.493042,164,21,43,8,8,15,20,21,908,90,1,20140808200000
645,Xiantao,,30.360228,113.460616,107,58,8,4,7,3,26,22,1014,74,4,20140808200000
645,Xiantao,,30.360228,113.460616,107,58,8,4,7,3,26,22,1014,74,4,20140808200000
646,Qianjiang,,30.399387,112.905661,157,69,27,11,6,12,26,19,1014,72,4,20140808200000
646,Qianjiang,,30.399387,112.905661,157,69,27,11,6,12,26,19,1014,72,4,20140808200000
647,Tianmen,,30.661027,113.172549,107,29,8,16,4,3,26,19,1014,74,4,20140808200000
647,Tianmen,,30.661027,113.172549,107,29,8,16,4,3,26,19,1014,74,4,20140808200000
1088,Shennongjia,,31.741307,110.685554,152,20,8,9,1,12,17,21,876,100,1,20140808200000
1088,Shennongjia,,31.741307,110.685554,152,20,8,9,1,12,17,21,876,100,1,20140808200000
1214,"Xiangcheng Yundong Street, Xiangfan",,32.017716,112.16102,104,57,13,2,4,7,23,,1008,59,4,20140808200000
655,"City Environmental Monitoring Station, Baotou",,40.657201,109.886738,102,45,34,8,7,6,,,,,,20140808200000
656,"Donghe EPB, Baotou",,40.586213,110.002224,119,56,31,12,8,7,,,,,,20140808200000
657,"Baotou shopping mall, Baotou",,40.508334,109.819085,144,56,36,10,6,11,,,,,,20140808200000
658,"Huilong logistics, Baotou",,40.633436,109.879821,85,61,36,11,5,6,,,,,,20140808200000
659,Baotou,,40.658597,109.846051,157,82,36,15,8,11,14,13,1007,85,4,20140808200000
660,"Huatai Automobile Mall, Eerduosi",,39.837048,109.972209,87,36,50,4,4,5,14,13,1007,85,4,20140808200000
661,"Olympus Garden, Eerduosi",,39.789171,109.987742,53,41,54,7,4,6,14,13,1007,85,4,20140808200000
662,Eerduosi,,39.609284,109.78704,104,49,64,7,4,8,14,13,1007,85,4,20140808200000
663,"Tianyi Road, Chifeng",,42.275552,118.88507,117,58,78,7,22,10,18,12,1007,57,1,20140808200000
664,"Songshan No.1 Middle School, Chifeng",,42.329307,118.793045,127,71,48,8,11,14,18,12,1007,57,1,20140808200000
665,"Hada Street, Chifeng",,42.280714,118.988235,114,63,28,4,12,7,18,12,1007,57,1,20140808200000
666,"Songshan Road, Chifeng",,42.171487,118.89501,132,68,89,4,13,6,18,12,1007,57,1,20140808200000
667,Chifeng,,42.259752,118.893027,132,71,89,8,22,14,18,12,1007,57,1,20140808200000
674,Fuzhou,,26.071406,119.301294,109,62,151,21,2,14,28,25,1002,84,1,20140808200000
675,"Xidong, Xiamen",,24.815345,118.161848,97,37,126,7,2,5,30,28,1002,89,1,20140808200000
676,"Hongwen, Xiamen",,24.473969,118.156281,93,62,117,25,19,8,30,28,1002,89,1,20140808200000
677,"Gulangyu, Xiamen",,24.443168,118.068571,151,67,89,20,19,7,30,28,1002,89,1,20140808200000
678,"Huli, Xiamen",,24.51235,118.099146,119,64,159,32,15,0,30,28,1002,89,1,20140808200000
679,Xiamen,,24.477187,118.094402,151,67,159,32,19,7,30,28,1002,89,1,20140808200000
680,"Qingyuan Montain, Quanzhou",,24.939503,118.598337,153,63,44,8,6,5,30,28,1002,89,1,20140808200000
681,"Tushan Street, Quanzhou",,24.90867,118.586397,119,54,43,3,6,6,30,28,1002,89,1,20140808200000
682,"Wanan, Quanzhou",,24.304154,118.070903,104,46,40,3,3,7,30,28,1002,89,1,20140808200000
683,Quanzhou,,24.87179,118.68001,153,63,47,12,10,7,30,28,1002,89,1,20140808200000
687,"Jiancaoping, Taiyuan",,37.887889,112.528383,173,106,7,32,38,19,17,15,1012,88,1,20140808200000
688,"Jianhe, Taiyuan",,37.910779,112.579258,185,100,11,33,25,17,17,15,1012,88,1,20140808200000
689,"Shanglan, Taiyuan",,38.011589,112.440679,162,120,17,42,30,16,17,15,1012,88,1,20140808200000
690,"Jinyuan, Taiyuan",,37.713164,112.475552,170,88,12,19,22,22,17,15,1012,88,1,20140808200000
691,"Xiaodian, Taiyuan",,37.782137,112.483533,171,79,17,27,28,17,17,15,1012,88,1,20140808200000
692,"Taoyuan, Taiyuan",,37.869752,112.543332,170,103,9,36,45,19,17,15,1012,88,1,20140808200000
693,"Wucheng, Taiyuan",,37.819998,112.576252,183,121,18,25,17,19,17,15,1012,88,1,20140808200000
694,"Nanzhai, Taiyuan",,37.985902,112.555312,178,117,16,32,29,18,17,15,1012,88,1,20140808200000
695,"Jinsheng, Taiyuan",,37.781205,112.494494,189,88,11,22,14,31,17,15,1012,88,1,20140808200000
696,Taiyuan,,37.871115,112.555178,173,106,7,32,38,19,17,15,1012,88,1,20140808200000
697,"Monitoring station, Changzhi",,36.194062,113.10389,59,26,20,10,6,8,19,13,1009,68,5,20140808200000
698,"Auditing bureau, Changzhi",,36.212787,113.095221,50,22,20,20,14,13,19,13,1009,68,5,20140808200000
699,"Qinghua station, Changzhi",,36.154328,113.116385,30,20,16,6,6,13,19,13,1009,68,5,20140808200000
700,"No.8 middle school, Changzhi",,36.185451,113.099481,42,21,21,12,10,10,,,,,,20140808200000
701,Changzhi,,36.195553,113.12292,59,26,21,12,10,10,14,13,1011,92,2,20140808200000
702,"Yungang Hotel, Datong",,40.076997,113.278079,152,70,32,19,14,12,17,13,1006,69,0,20140808200000
703,"college of education, Datong",,40.085608,113.27808,154,54,30,14,26,11,17,13,1006,69,0,20140808200000
704,Datong,,40.078016,113.307143,154,71,48,19,26,12,17,13,1006,69,0,20140808200000
705,"Technical Schools, Linfen",,36.07131,111.509046,119,14,24,3,2,29,13,11,0,87,2,20140808200000
706,"Municipal party committee, Linfen",,36.087425,111.508771,95,32,19,1,3,11,13,11,0,87,2,20140808200000
1073,"City Monitoring Station, Linfen",,36.097676,111.518739,122,44,6,2,4,16,13,11,0,87,2,20140808200000
707,"South Airport, Linfen",,36.041614,111.497968,104,24,8,2,2,24,13,11,0,87,2,20140808200000
708,Linfen,,36.087944,111.525098,119,44,24,3,4,29,13,11,0,87,2,20140808200000
709,"City center, Yangquan",,37.848012,113.578636,154,84,24,25,27,9,17,15,1012,88,1,20140808200000
710,Yangquan,,37.857475,113.586921,167,94,32,33,54,26,17,15,1012,88,1,20140808200000
711,"Water Company, Jincheng",,35.504787,112.857245,114,41,22,3,8,12,14,13,1011,92,2,20140808200000
712,"Baiyun shopping mall, Jincheng",,35.492858,112.841566,74,51,8,15,8,12,14,13,1011,92,2,20140808200000
713,"City EPA, Jincheng",,35.488422,112.858528,91,43,9,10,24,21,14,13,1011,92,2,20140808200000
714,"Institute of Technology, Jincheng",,35.484844,112.878073,25,38,29,10,6,12,14,13,1011,92,2,20140808200000
715,"No.1 middle school, Jincheng",,35.478725,112.838636,85,47,7,10,7,8,14,13,1011,92,2,20140808200000
716,Jincheng,,35.490287,112.85794,114,51,29,15,24,21,14,13,1011,92,2,20140808200000
718,"District Government, Shuozhou",,39.320857,112.430641,132,30,41,8,5,10,11,10,1007,89,2,20140808200000
719,"City EPA, Shuozhou",,39.331495,112.407997,132,53,41,4,5,10,20,13,1007,59,2,20140808200000
720,"No.2 middle school, Shuozhou",,39.377963,112.432877,50,40,38,6,9,10,20,13,1007,59,2,20140808200000
721,Shuozhou,,39.332756,112.439672,137,45,41,7,37,10,20,13,1007,59,2,20140808200000
722,"Jinlun compound, Jinzhong",,37.697891,112.771017,154,66,25,12,67,10,17,15,1012,88,1,20140808200000
723,"Hydraulic Component Factory, Jinzhong",,37.688355,112.725844,163,63,20,15,46,10,17,15,1012,88,1,20140808200000
724,"Nandu compound, Jinzhong",,37.713148,112.732036,159,60,13,23,71,12,17,15,1012,88,1,20140808200000
725,"Yuci district government, Jinzhong",,37.698228,112.714167,157,62,20,13,26,11,17,15,1012,88,1,20140808200000
726,Jinzhong,,37.687705,112.759187,163,66,25,23,71,12,17,15,1012,88,1,20140808200000
727,"Yuncheng Middle School, Yuncheng",,35.012345,111.003215,57,39,24,1,6,31,16,15,1010,88,1,20140808200000
728,"Yudou BDA, Yuncheng",,35.05065,111.029571,65,40,25,1,7,20,16,15,1010,88,1,20140808200000
730,"Regional Technical School, Yuncheng",,35.028727,110.974076,95,40,27,3,1,33,16,15,1010,88,1,20140808200000
731,"Airport new district, Yuncheng",,35.084515,111.05339,63,42,18,0,0,21,16,15,1010,88,1,20140808200000
732,Yuncheng,,35.025675,111.013344,55,31,27,3,7,33,16,15,1010,88,1,20140808200000
733,"Jiyin, Xinzhou",,38.413292,112.742432,185,88,11,37,36,16,17,15,1012,88,1,20140808200000
734,"BDA, Xinzhou",,38.450069,112.736723,185,64,11,16,51,16,17,15,1012,88,1,20140808200000
735,"Convention Center, Xinzhou",,38.492043,112.709772,-,-,-,-,-,-,-,-,0,-,-,20140808200000
736,Xinzhou,,38.417244,112.740742,185,88,11,37,51,16,17,15,1012,88,1,20140808200000
737,"City EPA, Luliang",,37.522189,111.144365,149,61,6,22,12,18,21,18,0,78,3,20140808200000
738,"Soybean factory, Luliang",,37.51689,111.135101,149,62,10,32,27,17,21,18,0,78,3,20140808200000
739,"Water Company, Luliang",,37.53394,111.138834,119,65,9,24,6,16,21,18,0,78,3,20140808200000
740,Luliang,,25.027007,103.668566,149,67,10,32,27,18,21,18,0,78,3,20140808200000
741,"City government, Sanmenxia",,34.776251,111.198781,59,31,32,26,1,8,16,15,1010,88,1,20140808200000
743,"BDA, Sanmenxia",,34.800434,111.204332,99,43,19,4,1,3,16,15,1010,88,1,20140808200000
744,Sanmenxia,,34.771506,111.206129,99,43,34,26,2,9,16,15,1010,88,1,20140808200000
745,"Food Factory, Changchun",,43.919094,125.329521,154,117,24,32,4,7,16,15,1010,94,2,20140808200000
746,"Bus Factory, Changchun",,43.912337,125.293431,151,94,6,44,9,8,16,15,1010,94,2,20140808200000
747,"Institute of Posts and Telecommunications, Changchun",,43.842368,125.285005,132,83,8,38,4,7,16,15,1010,94,2,20140808200000
748,"Laodong Park, Changchun",,43.877293,125.371519,151,64,14,14,4,10,16,15,1010,94,2,20140808200000
749,"Forest area, Changchun",,43.871825,125.331519,129,62,24,28,2,17,16,15,1010,94,2,20140808200000
750,"Jinyuetan, Changchun",,43.79031,125.460561,87,46,31,2,1,5,16,15,1010,94,2,20140808200000
751,"Shuaiwanzi, Changchun",,43.552321,125.639086,74,49,20,10,1,3,16,15,1010,94,2,20140808200000
752,"Economic Development Zone Sanitation Department, Changchun",,43.869221,125.42365,137,72,9,32,4,7,16,15,1010,94,2,20140808200000
753,"High-tech Zone Administrative Committee, Changchun",,43.819064,125.256375,137,70,20,12,2,5,16,15,1010,94,2,20140808200000
754,"Daishan Park, Changchun",,43.852365,125.223399,119,106,16,41,2,7,16,15,1010,94,2,20140808200000
755,Changchun,,43.819415,125.329977,151,83,14,38,4,10,16,15,1010,94,2,20140808200000
756,"Hadawan, Jilin",,43.888081,126.545727,127,84,3,22,6,9,14,9,0,74,2,20140808200000
757,"Fengman, Jilin",,43.768169,126.678802,72,27,24,3,2,6,14,9,0,74,2,20140808200000
758,"Electric Power College, Jilin",,43.827403,126.502281,102,54,14,16,3,6,14,9,0,74,2,20140808200000
759,"Jiangnan Park, Jilin",,43.83531,126.556519,97,53,13,18,4,7,14,9,0,74,2,20140808200000
760,"Dongjuzi, Jilin",,43.838597,126.590068,99,65,12,16,2,5,14,9,0,74,2,20140808200000
763,Jilin,,43.840137,126.555262,149,84,40,22,6,9,14,9,0,74,2,20140808200000
764,"Lingbei, Haerbin",,45.756979,126.548008,107,56,47,20,8,7,17,15,1010,88,2,20140808200000
765,"Songbei Commercial University, Haerbin",,45.818624,126.566963,170,69,44,24,5,6,17,15,1010,88,2,20140808200000
766,"Acheng huining, Haerbin",,45.544286,126.985183,129,61,44,13,2,5,17,15,1010,88,2,20140808200000
767,"Nangang College Street, Haerbin",,45.724121,126.604906,114,65,66,23,7,7,17,15,1010,88,2,20140808200000
768,"Taiping Hongwei Park, Haerbin",,45.775332,126.695101,156,63,41,30,4,9,17,15,1010,88,2,20140808200000
769,"Daowai Chengde Square, Haerbin",,45.768637,126.640955,109,56,47,19,8,7,17,15,1010,88,2,20140808200000
770,"Xiangfang Hongqi Street, Haerbin",,45.733936,126.691083,107,64,47,17,1,9,17,15,1010,88,2,20140808200000
771,"Dongli Heping Road, Haerbin",,45.727765,126.651974,153,74,48,49,8,7,17,15,1010,88,2,20140808200000
772,"Daoli Jianguo Road, Haerbin",,45.749715,126.59891,109,42,61,19,9,9,17,15,1010,88,2,20140808200000
773,"Pingfang Light Factory, Haerbin",,45.611951,126.620898,119,55,42,26,5,6,17,15,1010,88,2,20140808200000
774,"Hulan Normal College, Haerbin",,45.983745,126.616553,107,45,40,19,3,5,17,15,1010,88,2,20140808200000
775,"Provincial Academy of Agricultural Sciences, Haerbin",,45.686141,126.626517,104,64,46,26,6,6,17,15,1010,88,2,20140808200000
776,Haerbin,,45.805757,126.541007,170,69,47,24,8,7,17,15,1010,88,2,20140808200000
777,"Anju Compound, Qiqihaer",,47.365672,123.937016,87,31,37,6,2,5,21,15,1010,61,2,20140808200000
778,"Farming Vehicule Factory, Qiqihaer",,47.326793,123.961427,65,30,40,5,1,6,21,15,1010,61,2,20140808200000
779,"Fuqu EPA, Qiqihaer",,47.1853,123.62322,117,58,44,1,1,22,21,15,1010,61,2,20140808200000
780,"City Center Square, Qiqihaer",,47.343096,123.96192,0,28,9,3,4,4,21,15,1010,61,2,20140808200000
1217,"City Environmental Monitoring Station, Qiqihaer",,47.303639,123.957551,93,47,43,3,3,4,21,15,1010,61,2,20140808200000
781,Qiqihaer,,47.356387,123.924736,117,58,44,6,4,22,21,15,1010,61,2,20140808200000
782,"Saertu District, Daqing",,46.582368,125.152904,80,40,20,11,9,2,16,15,1010,92,1,20140808200000
783,"Datong District, Daqing",,46.036786,124.842115,80,40,43,3,5,3,16,15,1010,92,1,20140808200000
784,"Honggang District, Daqing",,46.418381,124.88973,104,44,43,6,4,4,16,15,1010,92,1,20140808200000
785,"Longfeng District, Daqing",,46.535426,125.107043,97,35,37,4,3,6,16,15,1010,92,1,20140808200000
786,"Ranghulu District, Daqing",,46.635123,124.85648,104,54,51,13,8,5,16,15,1010,92,1,20140808200000
787,Daqing,,46.591414,125.110838,104,54,51,13,9,6,16,15,1010,92,1,20140808200000
788,"Locomotive Factory, Mudanjiang",,44.610589,129.652672,158,77,49,10,8,4,14,13,1014,90,1,20140808200000
789,"No. 1 hospital, Mudanjiang",,44.567775,129.617043,127,28,38,7,6,5,14,13,1014,90,1,20140808200000
1220,"EPA building, Mudanjiang",,44.567777,129.620658,152,91,8,17,10,5,14,13,1014,90,1,20140808200000
1221,"Cultural Square, Mudanjiang",,44.586388,129.623164,164,86,2,15,24,6,14,13,1014,90,1,20140808200000
790,Mudanjiang,,44.553619,129.640246,164,91,49,17,24,6,14,13,1014,90,1,20140808200000
791,"Mingzhu Plaza, Hefei",,31.782847,117.201512,87,12,-,6,9,11,23,22,1005,94,2,20140808200000
792,"Sanli Street, Hefei",,31.874637,117.312573,87,34,3,6,4,8,23,22,1005,94,2,20140808200000
793,"Hupo Compound, Hefei",,31.868583,117.264491,89,48,40,-,2,7,23,22,1005,94,2,20140808200000
794,"Dongpu Reservoir, Hefei",,31.90319,117.165584,117,52,27,6,2,8,23,22,1005,94,2,20140808200000
795,"Changjiang middle road, Hefei",,31.855185,117.255484,91,35,5,6,9,8,23,22,1005,94,2,20140808200000
796,"Luyang District, Hefei",,31.941771,117.271504,149,49,2,1,14,7,23,22,1005,94,2,20140808200000
797,"Yaohai District, Hefei",,31.856595,117.341644,104,-,12,5,6,6,23,22,1005,94,2,20140808200000
798,"Baohe District, Hefei",,31.793644,117.307554,112,27,2,1,1,7,23,22,1005,94,2,20140808200000
799,"Lake district, Hefei",,31.736619,117.283501,97,47,25,6,7,5,23,22,1005,94,2,20140808200000
800,"High-tech zone, Hefei",,31.849755,117.129624,89,36,19,4,14,6,23,22,1005,94,2,20140808200000
801,Hefei,,31.819449,117.232753,91,35,5,6,9,11,23,22,1005,94,2,20140808200000
802,"Hudong Road No.4 Elementary School, Maanshan",,31.684121,118.511017,59,18,9,7,3,6,24,23,1004,94,1,20140808200000
803,"Tianping Garment Factory, Maanshan",,31.64197,118.488043,72,27,11,6,2,5,24,23,1004,94,1,20140808200000
804,"City education base, Maanshan",,31.711216,118.648913,59,20,8,2,2,2,24,23,1004,94,1,20140808200000
805,"Cihu No.2 elementary school, Maanshan",,31.748546,118.515729,72,35,20,7,1,11,24,23,1004,94,1,20140808200000
806,"Maanshan steel factory power plant, Maanshan",,31.690864,118.48528,89,30,2,1,3,12,24,23,1004,94,1,20140808200000
807,Maanshan,,31.668461,118.511939,89,30,20,7,3,12,24,23,1004,94,1,20140808200000
808,"Science Innovation Center, Wuhu",,31.417056,118.375406,59,15,9,1,2,5,24,23,1004,94,1,20140808200000
809,"No.4 Water Plant, Wuhu",,31.315914,118.376231,50,20,14,11,7,2,24,23,1004,94,1,20140808200000
810,"Monitoring station, Wuhu",,31.348955,118.358154,30,17,10,4,21,3,24,23,1004,94,1,20140808200000
811,"Wuqierling Factory, Wuhu",,31.382068,118.407639,53,24,19,14,15,6,24,23,1004,94,1,20140808200000
812,Wuhu,,31.351007,118.438322,59,24,19,14,21,6,24,23,1004,94,1,20140808200000
813,"Jiangxi Foreign Affairs Office, Nanchang",,28.681036,115.897845,89,40,22,12,13,10,26,23,1004,76,3,20140808200000
814,"Provincial forestry company, Nanchang",,28.694646,115.892851,93,31,20,8,12,8,26,23,1004,76,3,20140808200000
815,"Institute of Forestry, Nanchang",,28.74099,115.818017,50,48,26,6,6,9,26,23,1004,76,3,20140808200000
816,"Jingdong town government, Nanchang",,28.693649,115.97793,61,30,26,6,10,7,26,23,1004,76,3,20140808200000
817,"Contruction Industry College, Nanchang",,28.683582,115.856915,80,49,22,12,13,8,26,23,1004,76,3,20140808200000
818,"Xianghu, Nanchang",,28.639112,115.896843,55,16,29,10,12,11,26,23,1004,76,3,20140808200000
819,"Martial Arts School, Nanchang",,28.796292,115.747122,50,34,16,5,5,6,26,23,1004,76,3,20140808200000
820,"Petrifaction Company, Nanchang",,28.609697,115.916832,55,37,23,9,28,9,26,23,1004,76,3,20140808200000
821,"Provincial Station, Nanchang",,28.681053,115.935848,57,28,26,9,18,8,26,23,1004,76,3,20140808200000
822,Nanchang,,28.679883,115.863022,93,49,22,12,13,8,26,23,1004,76,3,20140808200000
823,"Lushan Mountain Observatory, Jiujiang",,29.584073,115.998671,30,88,22,1,1,6,18,18,1005,99,3,20140808200000
824,"Shili, Jiujiang",,29.678969,115.992271,70,25,19,4,4,3,18,18,1005,99,3,20140808200000
825,"Maoshantou, Jiujiang",,29.702089,115.963113,59,29,17,10,5,6,18,18,1005,99,3,20140808200000
826,"Xiyuan, Jiujiang",,29.726646,115.993055,53,21,18,6,2,7,18,18,1005,99,3,20140808200000
827,"Wuqierling Factory, Jiujiang",,29.650969,116.022581,63,26,3,6,2,3,18,18,1005,99,3,20140808200000
828,"Water Scientific Research Institute, Jiujiang",,29.690223,116.067992,59,19,18,1,1,4,18,18,1005,99,3,20140808200000
829,"Zonghe Industrial Park, Jiujiang",,29.601135,115.916354,50,20,19,4,3,3,18,18,1005,99,3,20140808200000
830,"Petrochemical General Plant, Jiujiang",,29.75101,116.094516,25,15,16,4,1,5,18,18,1005,99,3,20140808200000
831,Jiujiang,,29.70254,116.007025,70,29,22,10,5,7,18,18,1005,99,3,20140808200000
832,"Tobacco Factory, Zhengzhou",,34.753419,113.687131,70,28,14,12,4,10,19,13,1009,68,5,20140808200000
833,"Textile Machinery Factory, Zhengzhou",,34.773366,113.647067,70,37,11,14,9,17,19,13,1009,68,5,20140808200000
834,"Banking College, Zhengzhou",,34.800856,113.681126,72,50,18,12,8,16,19,13,1009,68,5,20140808200000
835,"Water Supply Company, Zhengzhou",,34.807188,113.571089,99,43,19,8,11,13,19,13,1009,68,5,20140808200000
836,"Economic Development Zone Management Committee, Zhengzhou",,34.717652,113.733182,65,24,17,13,4,9,19,13,1009,68,5,20140808200000
837,"No. 47 middle school, Zhengzhou",,34.772211,113.74009,65,22,20,12,6,6,19,13,1009,68,5,20140808200000
838,"City Monitoring Station, Zhengzhou",,34.748404,113.60514,139,56,12,14,4,10,19,13,1009,68,5,20140808200000
839,"Henan Medical University, Zhengzhou",,34.752637,113.641658,89,36,15,14,11,8,19,13,1009,68,5,20140808200000
840,"Gangli Reservoir, Zhengzhou",,34.952652,113.64248,76,30,16,11,11,8,19,13,1009,68,5,20140808200000
841,Zhengzhou,,34.745417,113.631415,139,56,15,14,11,10,19,13,1009,68,5,20140808200000
842,"Henan University No.1 Hospital, Kaifeng",,34.799302,114.352706,70,28,15,7,6,7,19,13,1009,68,5,20140808200000
843,"Maternity And Child Hospital, Kaifeng",,34.795803,114.386103,72,28,22,6,9,8,19,13,1009,68,5,20140808200000
844,"Cancer Hospital, Kaifeng",,34.775428,114.350292,78,27,30,10,18,6,19,13,1009,68,5,20140808200000
845,"Yellow River Conservancy Institute, Kaifeng",,34.826066,114.324772,70,26,17,9,12,27,19,13,1009,68,5,20140808200000
846,"Shijixing Kindergarden, Kaifeng",,34.793606,114.302744,13,6,-,-,-,-,19,13,1009,68,5,20140808200000
847,Kaifeng,,34.796346,114.313426,78,28,30,10,18,7,19,13,1009,68,5,20140808200000
852,Jiaozuo,,35.215381,113.248188,70,27,48,3,6,6,19,13,1009,68,5,20140808200000
853,"Cotton Research Institute, Anyang",,36.081435,114.486451,55,29,21,7,10,6,17,14,1010,75,2,20140808200000
854,"Hongmiao Street, Anyang",,36.086733,114.326,102,59,22,20,29,17,17,14,1010,75,2,20140808200000
855,"Yinxing Compound, Anyang",,36.056519,114.36495,59,41,21,31,15,10,17,14,1010,75,2,20140808200000
856,"Tiefo Temple, Anyang",,36.110041,114.309309,82,55,24,13,9,13,17,14,1010,75,2,20140808200000
857,Anyang,,36.097767,114.398846,102,59,25,31,29,17,17,14,1010,75,2,20140808200000
858,"City Monitoring Station, Luoyang",,34.669055,112.439633,25,10,11,5,2,4,,,,,,20140808200000
859,"BDA Management Committee, Luoyang",,34.622084,112.390759,61,18,20,9,1,7,,,,,,20140808200000
860,"New municipal office, Luoyang",,34.623745,112.432973,46,26,22,5,2,17,,,,,,20140808200000
861,"City committee communist party school, Luoyang",,34.650169,112.400212,59,41,12,16,2,7,,,,,,20140808200000
862,"Henan Forestry College, Luoyang",,34.685566,112.509429,55,27,17,8,3,12,,,,,,20140808200000
863,"CITIC No.2 Elementary School, Luoyang",,34.668212,112.36907,38,11,22,10,4,9,,,,,,20140808200000
864,"Yuxi Hotel, Luoyang",,34.685949,112.472611,65,21,13,15,5,15,,,,,,20140808200000
865,Luoyang,,34.617424,112.46054,65,41,22,15,5,17,14,13,1011,92,2,20140808200000
866,"City Planning Design Institute, Pingdingshan",,33.7352,113.297916,147,69,27,14,26,9,19,13,1009,68,5,20140808200000
867,"Xinhua Hotel, Pingdingshan",,33.737754,113.328814,127,65,27,15,21,8,19,13,1009,68,5,20140808200000
868,"Engineering College, Pingdingshan",,33.772474,113.188235,157,67,22,16,10,7,19,13,1009,68,5,20140808200000
869,"High Voltage Switchgear Factory, Pingdingshan",,33.719941,113.312665,151,63,22,16,24,10,19,13,1009,68,5,20140808200000
