locationid,stationname,chinesename,latitude,longitude,pm25,pm10,o3,no2,so2,co,temperature,dewpoint,pressure,humidity,wind,est_time
1,Dongcheng Dongsi,,39.9304,116.423239,143,65,19,33,3,7,13,13,1021,100,1,20140917170000
2,"Temple of Heaven, Dongcheng",,39.887403,116.41324,142,52,17,28,2,6,13,13,1021,100,1,20140917170000
3,West Park officials,,39.930333,116.345162,151,62,17,38,2,7,13,13,1021,100,1,20140917170000
4,West Wanshou Nishinomiya,,39.879354,116.358183,153,64,20,38,2,7,15,12,1021,82,1,20140917170000
5,Chaoyang Olympic Sports Center,,39.983406,116.403253,140,70,13,41,2,5,13,13,1021,100,1,20140917170000
6,Chaoyang Agricultural Exhibition Hall,,39.938331,116.46715,136,61,18,38,3,6,13,13,1021,100,1,20140917170000
7,Haidian Wanliu,,39.988245,116.293062,151,79,8,39,5,6,13,13,1021,100,1,20140917170000
8,The Haidian northern New Area,,40.091313,116.180194,157,67,10,27,2,6,13,13,1021,100,1,20140917170000
9,Haidian Beijing Botanical Garden,,40.003252,116.213097,154,65,25,1,2,5,13,13,1021,100,1,20140917170000
10,Fengtai garden,,39.86423,116.285037,156,96,12,40,3,7,13,13,1021,100,1,20140917170000
11,Fengtai Yungang,,39.82535,116.152237,134,67,16,29,2,7,13,13,1021,100,1,20140917170000
12,Shijingshan city,,39.915286,116.190144,164,140,13,41,2,9,13,13,1021,100,1,20140917170000
13,"Fangshan, Liangxiang",,39.743357,116.14225,154,74,2,33,2,8,13,13,1021,100,1,20140917170000
14,"Huangcunzhen, Daxing",,39.719389,116.410219,159,73,20,27,2,6,13,13,1021,100,1,20140917170000
15,BDA,,39.796197,116.51197,167,78,17,37,2,7,13,13,1021,100,1,20140917170000
16,Tongzhou New Town,,39.887113,116.6689,154,80,14,41,3,2,13,13,1021,100,1,20140917170000
17,Shunyi New Town ,,40.128111,116.660908,151,66,10,32,2,8,13,13,1021,100,1,20140917170000
18,Changping Town,,40.218245,116.236084,177,77,25,17,2,8,13,13,1021,100,1,20140917170000
19,"Mentougou, Longquan Town",,39.938397,116.112323,125,62,18,22,2,5,13,13,1021,100,1,20140917170000
20,Pinggu town,,40.144433,117.106563,142,54,16,18,2,7,13,13,1021,100,1,20140917170000
21,Huairou town,,40.329104,116.63387,159,77,24,14,2,8,13,13,1021,100,1,20140917170000
22,The town of Miyun,,40.371186,116.838053,159,72,14,33,3,9,13,13,1021,100,1,20140917170000
23,Yanqing town,,40.454217,115.978106,184,46,20,41,2,7,13,13,1021,100,1,20140917170000
24,Changping Dingling,,40.293269,116.226108,170,78,23,12,2,7,13,13,1021,100,1,20140917170000
25,Badaling Northwest,,40.36623,115.994146,166,65,12,13,2,8,13,13,1021,100,1,20140917170000
26,Miyun Reservoir,,40.500157,116.91701,166,73,35,7,2,7,13,13,1021,100,1,20140917170000
27,"Donggaocun Zhen, Pinggu",,40.10142,117.126556,130,51,29,17,2,3,13,13,1021,100,1,20140917170000
28,"Yongledianzhen, Tongzhou",,39.713192,116.78905,156,33,7,33,3,3,13,13,1021,100,1,20140917170000
29,"Yufazhen, Daxing",,39.521203,116.306026,153,56,12,14,2,5,13,13,1021,100,1,20140917170000
30,"Liulihezhen, Fangshan",,39.581169,116.006089,144,56,17,17,2,6,13,13,1021,100,1,20140917170000
31,"Qianmen E St, Dongcheng",,39.900402,116.401242,158,76,11,37,2,9,13,13,1021,100,1,20140917170000
32,Yongdingmen Inner St,,39.877401,116.400238,152,70,14,38,4,7,13,13,1021,100,1,20140917170000
33,Xizhimen N St,,39.955352,116.355187,156,75,8,37,8,9,13,13,1021,100,1,20140917170000
34,South Ring Road,,39.857377,116.37421,157,91,26,56,2,9,13,13,1021,100,1,20140917170000
35,East Fourth Ring Road,,39.940273,116.489075,122,52,14,32,7,6,13,13,1021,100,1,20140917170000
36,Beijing,,39.955906,116.474246,151,61,18,38,3,6,13,13,1021,100,1,20140917170000
37,Putuo,,31.232979,121.415378,43,20,29,8,6,3,24,18,1015,69,5,20140917170000
38,Yangpu Sipiao,,31.263795,121.540311,73,29,33,9,7,2,24,18,1015,69,5,20140917170000
39,Shanghai Normal College Primary Division,,31.199031,121.487719,69,26,30,11,6,7,24,18,1015,69,5,20140917170000
40,Dianshan Lake,,31.091338,120.982293,80,46,32,15,7,6,24,18,1015,69,5,20140917170000
41,Hongkou Liangcheng,,31.298906,121.47155,53,24,29,7,7,4,24,18,1015,69,5,20140917170000
42,Jingan,,31.224251,121.429637,62,26,31,9,6,6,24,18,1015,69,5,20140917170000
43,Shanghai Normal University,,31.163531,121.416643,51,26,33,9,6,7,24,18,1015,69,5,20140917170000
44,Chuansha,,31.188626,121.707342,63,27,32,7,6,3,24,18,1015,69,5,20140917170000
45,Zhangjiang,,31.204896,121.581215,54,19,37,5,5,3,24,18,1015,69,5,20140917170000
46,Lingshan Road,,31.226286,121.537317,39,28,35,7,7,4,24,18,1015,69,5,20140917170000
1080,City average,,31.228451,121.478227,57,25,32,8,6,4,24,18,1015,69,5,20140917170000
47,Shanghai,,31.202842,121.453493,69,26,31,11,6,7,24,18,1015,69,5,20140917170000
48,Guangzhou,,23.138517,113.263701,104,47,16,24,14,7,28,26,1014,89,2,20140917170000
49,"Huadu town, Guangzhou",,23.389121,113.220062,89,45,8,15,2,6,27,25,1013,89,3,20140917170000
50,"Luogang Zhenlong, Guangzhou",,23.308027,113.567032,95,38,28,13,5,9,27,25,1013,89,3,20140917170000
51,"LuHu, Guangzhou",,23.151743,113.281842,74,39,5,24,9,5,27,25,1013,89,3,20140917170000
52,"Tianhu, Guangzhou",,23.647433,113.629715,46,21,26,3,4,6,27,25,1013,89,3,20140917170000
53,"Zhudong, Guangzhou",,23.418406,113.078552,68,32,15,22,10,6,27,25,1013,89,3,20140917170000
54,"Modiesha station, Guangzhou",,23.103814,113.338238,63,54,6,15,12,7,27,25,1013,89,3,20140917170000
55,Zhuhai,,22.2677,113.581765,61,34,29,7,6,8,28,26,1013,89,4,20140917170000
1075,"Huicai technical school, Foshan",,23.039667,113.105492,50,28,10,16,11,4,27,25,1013,89,3,20140917170000
56,"Sanshuiyun donghai, Foshan",,23.185788,112.865368,61,25,4,15,8,8,27,25,1013,89,3,20140917170000
57,"Nanhai Bureau of Meteorology, Foshan",,23.046836,113.145764,50,43,9,22,11,10,27,25,1013,89,3,20140917170000
58,"Sanshui Monitoring Station, Foshan",,23.163551,112.890843,65,27,3,16,9,9,27,25,1013,89,3,20140917170000
1087,Foshan,,23.018995,113.126899,50,28,10,16,11,4,27,25,1013,89,3,20140917170000
59,"Ronggui street committee, Shunde",,22.762729,113.258356,72,30,9,9,10,9,27,25,1013,89,3,20140917170000
60,Shunde,,22.80246,113.298701,72,30,15,6,10,9,-,-,0,-,-,20140917170000
61,"Donghu, Jiangmen",,22.590411,113.087351,65,28,3,16,4,6,28,26,1013,89,4,20140917170000
62,"Taoyuan Atmosphere Premier Station, Jiangmen",,22.72489,112.93404,72,42,9,13,6,5,28,26,1013,89,4,20140917170000
63,Jiangmen,,22.576047,113.087351,65,41,12,16,8,13,28,26,1013,89,4,20140917170000
64,"Kengkouzi station, Zhaoqing",,23.158865,112.570287,17,21,5,6,5,7,27,25,1013,89,3,20140917170000
65,"Mugangzi station, Zhaoqing",,23.067961,112.431934,55,23,7,12,5,7,27,25,1013,89,3,20140917170000
67,Zhaoqing,,23.044571,112.470346,55,23,7,12,5,7,27,25,1013,89,3,20140917170000
68,"Jinguo Bay, Huizhou",,22.937223,114.385567,50,28,16,4,3,6,28,25,1014,84,2,20140917170000
1091,"Xiabu, Huizhou",,23.077493,114.410275,57,30,13,8,3,4,28,25,1014,84,2,20140917170000
69,"Xijiao, Huizhou",,23.338178,114.112867,46,21,13,5,5,8,28,25,1014,84,2,20140917170000
70,"Jiangbei, Huizhou",,23.111706,114.415274,55,31,12,10,6,6,28,25,1014,84,2,20140917170000
71,"Huiyang chuanhu, Huizhou",,22.814485,114.329292,57,18,10,8,4,7,28,25,1014,84,2,20140917170000
72,"Daya bay management committee, Huizhou",,22.739283,114.53631,57,19,11,2,4,3,28,25,1014,84,2,20140917170000
73,Huizhou,,23.109349,114.421164,59,31,14,10,6,6,28,25,1014,84,2,20140917170000
74,"Guancheng No.2 water plant, Dongguan",,23.057294,113.753254,76,58,10,22,6,6,28,25,1014,84,2,20140917170000
75,"Dongcheng Shijing, Dongguan",,23.010039,113.799529,76,37,6,16,5,6,28,25,1014,84,2,20140917170000
76,"Nancheng Xiping, Dongguan",,22.963051,113.743494,78,50,12,16,6,5,28,25,1014,84,2,20140917170000
77,"Nancheng Yuanling, Dongguan",,23.025058,113.751308,68,40,13,15,8,6,28,25,1014,84,2,20140917170000
78,Dongguan,,23.017813,113.756958,80,53,12,19,9,9,28,25,1014,84,2,20140917170000
79,"Zimaling, Zhongshan",,22.505112,113.407183,53,30,16,3,7,8,28,26,1013,89,4,20140917170000
80,"Yangtze River tourist area, Zhongshan",,22.48589,113.439054,59,33,20,1,2,8,28,26,1013,89,4,20140917170000
81,"Huabai Park, Zhongshan",,22.51839,113.374362,55,25,8,5,4,11,28,26,1013,89,4,20140917170000
82,Zhongshan,,22.513997,113.398277,59,33,20,3,7,11,28,26,1013,89,4,20140917170000
83,"No.8 middle school, Shaoguan",,24.767777,113.583537,72,44,7,15,16,11,24,24,1014,97,1,20140917170000
83,"No.8 middle school, Shaoguan",,24.767777,113.583537,72,44,7,15,16,11,24,24,1014,97,1,20140917170000
84,"Forest area, Shaoguan",,24.796106,113.612131,61,55,9,12,9,8,24,24,1014,97,1,20140917170000
84,"Forest area, Shaoguan",,24.796107,113.612131,61,55,9,12,9,8,24,24,1014,97,1,20140917170000
86,"Shaoguan University, Shaoguan",,24.790864,113.646598,53,23,8,11,6,16,24,24,1014,97,1,20140917170000
86,"Shaoguan University, Shaoguan",,24.790864,113.646599,53,23,8,11,6,16,24,24,1014,97,1,20140917170000
88,"Qujiang Monitoring Station, Shaoguan",,24.683042,113.60157,55,36,8,14,6,9,24,24,1014,97,1,20140917170000
88,"Qujiang Monitoring Station, Shaoguan",,24.683042,113.60157,55,36,8,14,6,9,24,24,1014,97,1,20140917170000
89,Shaoguan,,24.807342,113.602712,87,55,9,15,16,16,24,24,1014,97,1,20140917170000
90,"Chaonanzi Station, Shantou",,23.251213,116.406762,72,57,18,12,13,8,26,25,1014,94,1,20140917170000
91,Shantou,,23.350642,116.686306,154,75,19,11,8,9,26,25,1014,94,1,20140917170000
92,"City Environmental Monitoring Station, Zhanjiang",,21.220431,110.397317,34,28,14,2,3,8,28,26,1011,84,5,20140917170000
93,"EPB Dormitory, Zhanjiang",,21.197376,110.406487,55,30,7,1,3,8,28,26,1011,84,5,20140917170000
94,"Xiashan Swimming Park, Zhanjiang",,21.200431,110.415655,-,-,-,-,-,-,-,-,0,-,-,20140917170000
95,"Zhanjiang Theatre, Zhanjiang",,21.268177,110.366445,50,30,16,3,4,8,28,26,1011,84,5,20140917170000
96,"Mazhang EPA, Zhanjiang",,21.265486,110.335993,21,26,8,2,3,5,28,26,1011,84,5,20140917170000
97,"Potou District EPB, Zhanjiang",,21.247604,110.454508,38,36,12,3,3,7,28,26,1011,84,5,20140917170000
98,Zhanjiang,,21.26832,110.363883,55,36,16,3,4,8,28,26,1011,84,5,20140917170000
99,"Maogang sub-office EPB, Maoming",,21.466435,111.033462,55,32,-,1,2,3,27,25,0,90,5,20140917170000
100,"Petrochemical No. 7 elementaty school, Maoming",,21.648905,110.937861,46,29,16,1,1,10,27,25,0,90,5,20140917170000
101,"Jiankang road, Maoming",,21.662211,110.909482,30,32,10,2,3,7,27,25,0,90,5,20140917170000
102,"Gaoling, Maoming",,21.690558,110.871146,42,31,11,4,2,3,27,25,0,90,5,20140917170000
1094,Maoming,,21.660223,110.929968,46,32,16,2,3,10,27,25,0,90,5,20140917170000
103,"Jiaying University, Meizhou",,24.325415,116.12816,42,32,22,9,5,7,26,25,1014,94,1,20140917170000
104,"Mexian new town, Meizhou",,24.269283,116.084546,55,49,16,16,11,8,26,25,1014,94,1,20140917170000
105,"Environmental Monitoring Center, Meizhou",,24.262778,116.129621,50,40,15,11,4,8,26,25,1014,94,1,20140917170000
1095,Meizhou,,24.285988,116.127065,55,49,22,16,11,8,26,25,1014,94,1,20140917170000
106,"City EPA, Shanwei",,22.772349,115.370227,61,21,20,3,5,6,28,26,1015,87,1,20140917170000
107,"City government, Shanwei",,22.787161,115.375536,57,23,19,9,5,10,28,26,1015,87,1,20140917170000
108,"Xincheng Middle School, Shanwei",,22.789851,115.367124,63,26,18,6,4,8,28,26,1015,87,1,20140917170000
1099,Shanwei,,22.783576,115.38022,63,26,20,9,5,10,28,26,1015,87,1,20140917170000
109,"No.3 elementary school, Heyuan",,23.75435,114.703514,68,31,16,5,3,7,28,24,1014,73,1,20140917170000
109,"No.3 elementary school, Heyuan",,23.755946,114.699091,68,31,16,5,3,7,28,24,1014,73,1,20140917170000
111,"City water company, Heyuan",,23.688709,114.954652,63,37,8,7,2,8,28,24,1014,73,1,20140917170000
111,"City water company, Heyuan",,23.754246,114.682459,63,37,8,7,2,8,28,24,1014,73,1,20140917170000
113,"Heyuan high school, Heyuan",,23.720666,114.693879,76,36,14,12,7,6,28,24,1014,73,1,20140917170000
113,"Heyuan high school, Heyuan",,23.720037,114.699563,76,36,14,12,7,6,28,24,1014,73,1,20140917170000
115,Heyuan,,23.740888,114.705147,76,37,16,8,7,8,28,24,1014,73,1,20140917170000
116,"Yuanyang Lake, Yangjiang",,21.855869,111.983676,-,-,-,-,-,-,-,-,0,-,-,20140917170000
1100,Yangjiang,,21.855227,111.987308,57,30,18,1,3,7,27,26,1013,88,6,20140917170000
118,"Town governement, Qingyuan",,23.708005,113.026215,74,47,9,17,9,15,27,25,1013,89,3,20140917170000
119,"Fupin district, Qingyuan",,24.185415,113.419369,68,40,10,15,9,13,27,25,1013,89,3,20140917170000
119,"Fupin district, Qingyuan",,23.624781,113.067713,68,40,10,15,9,13,27,25,1013,89,3,20140917170000
121,"Environment protection office, Qingyuan",,23.685931,113.053239,65,36,15,13,5,11,29,26,1011,84,2,20140917170000
121,"Environment protection office, Qingyuan",,23.691109,113.047948,65,36,15,13,5,11,29,26,1011,84,2,20140917170000
123,"Fengcheng Subdistrict, Qingyuan",,23.695447,113.068189,74,47,9,15,9,15,27,25,1013,89,3,20140917170000
124,Qingyuan,,23.679304,113.061513,74,47,10,17,9,15,27,25,1013,89,3,20140917170000
125,"Xiyuan Road, Chaozhou",,23.668654,116.638272,57,20,15,7,6,9,26,25,1014,94,1,20140917170000
126,"Archives Bureau, Chaozhou",,23.667881,116.649104,68,24,14,9,5,9,26,25,1014,94,1,20140917170000
127,"Municipal Corporation, Chaozhou",,23.65035,116.621859,76,27,19,13,12,12,26,25,1014,94,1,20140917170000
1101,Chaozhou,,23.654204,116.626969,76,27,19,13,12,12,26,25,1014,94,1,20140917170000
128,"Donghu Park, Jieyang",,23.532877,116.374427,68,36,19,12,12,8,26,25,1014,94,1,20140917170000
129,"Yuhu Middle School, Jieyang",,23.52682,116.414123,85,52,15,12,15,8,26,25,1014,94,1,20140917170000
130,"Experimental Primary School, Jieyang",,23.571473,116.364137,109,51,17,21,19,10,26,25,1014,94,1,20140917170000
1102,Jieyang,,23.547596,116.37754,109,52,19,21,19,10,26,25,1014,94,1,20140917170000
131,"City Environmental Monitoring Station, Yunfu",,22.936779,112.042248,53,40,5,9,6,12,27,25,1013,89,3,20140917170000
132,"The new city government headquarters, Yunfu",,22.914275,112.044475,59,26,8,4,5,15,27,25,1013,89,3,20140917170000
133,"Muyang police sub-station, Yunfu",,22.951267,112.05923,42,10,13,6,9,11,28,26,1014,89,2,20140917170000
1103,Yunfu,,22.912436,112.049811,59,40,8,9,6,15,27,25,1013,89,3,20140917170000
134,Yantian,,22.587949,114.266899,50,24,32,7,4,5,28,25,1014,84,2,20140917170000
135,Kwai Chung,,22.572837,113.867166,68,40,13,22,1,13,28,25,1014,84,2,20140917170000
135,Kwai Chung,,22.627947,114.428875,68,40,13,22,1,13,28,25,1014,84,2,20140917170000
135,Kwai Chung,,22.354168,114.134558,68,40,13,22,1,13,28,25,1014,84,2,20140917170000
137,Nanyou,,22.513802,113.928051,65,39,23,18,4,6,28,25,1014,84,2,20140917170000
138,Meisha,,22.59611,114.318345,57,27,17,1,1,10,28,25,1014,84,2,20140917170000
139,Xi xiang,,22.717524,114.252304,59,48,16,11,3,10,28,25,1014,84,2,20140917170000
140,Liyuan,,22.54732,114.101205,57,34,5,9,1,14,28,25,1014,84,2,20140917170000
1072,Kwai Chung,,22.572837,113.867166,57,27,13,15,2,13,28,25,1014,84,2,20140917170000
1072,Kwai Chung,,22.627947,114.428875,57,27,13,15,2,13,28,25,1014,84,2,20140917170000
1072,Kwai Chung,,22.354168,114.134558,57,27,13,15,2,13,28,25,1014,84,2,20140917170000
141,OCT,,22.539549,113.992458,65,29,7,17,1,13,28,25,1014,84,2,20140917170000
142,Honghu,,22.559647,114.121976,59,20,9,17,1,10,28,25,1014,84,2,20140917170000
143,Mission Hills,,22.694131,114.050496,74,52,12,14,3,5,28,25,1014,84,2,20140917170000
144,Shenzhen,,22.540382,114.062982,74,52,32,22,4,14,-,-,0,-,-,20140917170000
145,Chengdu,,30.622581,104.069564,42,40,19,22,6,11,19,17,1018,88,2,20140917170000
146,"Jinquan lianghe, Chengdu",,30.710359,103.974209,65,22,8,15,2,12,19,17,1018,88,2,20140917170000
147,"Shilidian, Chengdu",,30.684718,104.17845,80,40,8,23,3,13,19,17,1018,88,2,20140917170000
148,"Sanwayao, Chengdu",,30.568159,104.081524,59,19,7,19,4,13,19,17,1018,88,2,20140917170000
149,"Shahepu, Chengdu",,30.633685,104.120536,46,15,7,19,4,13,19,17,1018,88,2,20140917170000
150,"Liang Lane, Chengdu",,30.682601,104.076522,87,40,19,22,4,10,19,17,1018,88,2,20140917170000
151,"Caotang Temple, Chengdu",,30.651891,104.0284,68,30,8,21,6,11,19,17,1018,88,2,20140917170000
152,"Lingyansi, Chengdu",,31.025729,103.615022,21,7,23,10,2,5,19,17,1018,88,2,20140917170000
153,"Fuleshan, Mianyang",,31.472493,104.7806,55,21,12,20,4,10,20,19,1016,86,1,20140917170000
154,"High-tech Zone Water Company, Mianyang",,31.463309,104.674293,74,38,13,21,7,11,20,19,1016,86,1,20140917170000
155,"No.3 water company, Mianyang",,31.505002,104.731054,59,22,10,19,8,7,20,19,1016,86,1,20140917170000
156,Mianyang,,31.465174,104.681731,76,38,13,26,8,11,20,19,1016,86,1,20140917170000
157,"Dongshan Park, Deyang",,31.118648,104.424587,59,38,13,15,1,10,19,17,1018,88,2,20140917170000
158,"Xixiaoqu, Deyang",,31.131159,104.390972,114,25,17,19,9,12,19,17,1018,88,2,20140917170000
159,"City Procuratorate, Deyang",,31.114554,104.407986,119,40,35,20,12,11,19,17,1018,88,2,20140917170000
160,"Refractory Factory, Deyang",,31.108606,104.356506,87,50,27,17,13,6,19,17,1018,88,2,20140917170000
161,Deyang,,31.124715,104.400703,119,50,35,20,13,12,19,17,1018,88,2,20140917170000
162,"Nongnongping, Panzhihua",,26.566698,101.695438,55,20,5,17,1,7,18,15,0,78,0,20140917170000
163,"Hemenkou, Panzhihua",,26.589072,101.578312,57,18,3,12,7,29,18,15,0,78,0,20140917170000
164,"Bingcaogang, Panzhihua",,26.58143,101.718473,34,16,7,13,1,8,18,15,0,78,0,20140917170000
165,"Renhe, Panzhihua",,26.498166,101.746887,42,24,5,7,3,8,18,15,0,78,0,20140917170000
166,"Jinjina, Panzhihua",,26.553226,101.84862,59,21,3,8,3,8,18,15,0,78,0,20140917170000
167,Panzhihua,,26.578779,101.720211,59,24,7,17,7,29,18,15,0,78,0,20140917170000
168,"Shima Middle School, Yibin",,28.815979,104.599199,17,6,22,5,5,10,19,18,1017,92,2,20140917170000
169,"Municipal party committee, Yibin",,28.762654,104.624834,21,9,16,6,2,15,19,18,1017,92,2,20140917170000
170,"No. 4 middle school, Yibin",,28.783257,104.608407,13,4,20,6,3,7,19,18,1017,92,2,20140917170000
171,"City government, Yibin",,28.760477,104.644079,30,9,16,7,3,11,19,18,1017,92,2,20140917170000
172,"Huangjinzui, Yibin",,28.712319,104.578389,17,7,23,4,4,11,19,18,1017,92,2,20140917170000
173,"Shaping Middle School, Yibin",,28.795569,104.681393,9,3,25,3,5,8,19,18,1017,92,2,20140917170000
174,Yibin,,28.748384,104.645766,30,9,25,7,5,15,19,18,1017,92,2,20140917170000
175,"Datang Hill, Zigong",,29.359969,104.757388,76,13,20,9,7,8,19,18,1001,97,2,20140917170000
176,"Yanma Road, Zigong",,29.355752,104.724036,55,55,30,18,14,9,19,18,1001,97,2,20140917170000
177,"Tanmulin Street, Zigong",,29.353555,104.777397,30,2,43,13,15,7,19,18,1001,97,2,20140917170000
178,"Chunhua Road, Zigong",,29.33825,104.771895,17,20,15,5,8,11,19,18,1001,97,2,20140917170000
179,Zigong,,29.33617,104.781138,76,55,43,18,15,11,19,18,1001,97,2,20140917170000
180,"Jiushi Hill, Luzhou",,28.955347,105.434207,46,11,22,2,1,4,19,19,1001,98,2,20140917170000
181,"Xiaoshishang Port, Luzhou",,28.899583,105.447192,50,15,15,9,1,10,19,19,1001,98,2,20140917170000
182,"Lantianxian Bridge, Luzhou",,28.852766,105.4358,42,10,18,7,1,5,19,19,1001,98,2,20140917170000
183,"City Environment Monitoring Station, Luzhou",,28.895898,105.435802,17,8,11,14,3,7,19,19,1001,98,2,20140917170000
184,Luzhou,,28.868782,105.445938,50,15,22,14,3,10,19,19,1001,98,2,20140917170000
185,"City Committee, Nanchong",,30.799993,106.082906,109,4,10,14,11,5,20,20,1016,98,2,20140917170000
186,"Refinery Factory, Nanchong",,30.819412,106.10712,74,22,16,10,4,3,20,20,1016,98,2,20140917170000
187,"Gaoping District Monitoring Station, Nanchong",,30.783291,106.110417,21,7,15,14,8,6,20,20,1016,98,2,20140917170000
188,"Jialing District EPB, Nanchong",,30.761255,106.06818,85,40,5,4,33,4,20,20,1016,98,2,20140917170000
189,"City Environmental Monitoring Station, Nanchong",,30.836519,106.11272,57,30,22,5,3,2,20,20,1016,98,2,20140917170000
190,Nanchong,,30.835511,106.114717,109,30,22,14,11,6,20,20,1016,98,2,20140917170000
1249,"City Monitoring Station, Neijiang",,29.592673,105.036234,70,20,19,1,1,5,19,18,1001,97,2,20140917170000
1250,"Dongxing District Government , Neijiang",,29.592148,105.074966,42,10,14,5,1,5,19,18,1001,97,2,20140917170000
1251,"No 2 middle school, Neijiang",,29.579135,105.068548,70,19,17,4,3,7,19,18,1001,97,2,20140917170000
1252,Neijiang,,29.577653,105.06166,70,20,19,5,8,7,19,18,1001,97,2,20140917170000
1253,"City Monitoring Station, Suining",,30.610641,105.683583,38,19,18,2,2,3,19,19,0,97,3,20140917170000
1254,"Administrative center , Suining",,30.63206,105.819747,46,40,30,2,2,4,19,19,0,97,3,20140917170000
1255,Suining,,30.530053,105.596307,78,40,30,7,4,13,19,19,0,97,3,20140917170000
1256,"City Monitoring Station, Leshan",,29.560651,103.759211,30,11,25,4,3,7,19,18,0,94,2,20140917170000
1257,"Leshan Giant Buddha Scenic Area , Leshan",,29.543938,103.772706,30,13,17,6,2,12,19,18,0,94,2,20140917170000
1258,Leshan,,29.54935,103.767777,38,16,25,13,4,12,19,18,0,94,2,20140917170000
1259,"Heilongtan , Meishan",,30.047726,103.900649,91,40,17,7,14,6,19,17,1018,88,2,20140917170000
1260,"Bureau of Meteorology, Meishan",,30.084591,103.843715,72,24,20,4,4,6,19,17,1018,88,2,20140917170000
1261,"Xuguang Community , Meishan",,30.066277,103.8516,87,43,15,5,4,3,19,17,1018,88,2,20140917170000
1262,"City Monitoring Station, Meishan",,30.059205,103.836229,95,39,13,15,8,7,19,17,1018,88,2,20140917170000
1263,Meishan,,30.072618,103.85064,95,43,20,15,14,7,19,17,1018,88,2,20140917170000
1264,"Ziyang middle school, Ziyang",,30.147763,104.638024,65,30,26,6,15,9,19,18,1001,97,2,20140917170000
1265,Ziyang,,30.126054,104.63004,65,46,28,6,16,9,19,18,1001,97,2,20140917170000
191,Shenyang US Consulate,,41.785668,123.432865,160,116,40,54,17,4,10,5,1020,71,1,20140917170000
192,"Huishan, Shenyang",,41.835421,123.647773,72,38,40,8,5,4,12,5,1019,62,2,20140917170000
193,"Hunnan, Shenyang",,41.758263,123.540809,142,70,16,26,10,6,12,5,1019,62,2,20140917170000
194,"Zhangshi, Shenyang",,41.771679,123.289859,178,156,9,58,14,10,12,5,1019,62,2,20140917170000
195,"Artillery College, Shenyang",,41.835749,123.547799,61,64,25,30,5,3,12,5,1019,62,2,20140917170000
196,"Beiling, Shenyang",,41.849633,123.434146,192,194,8,43,7,9,12,5,1019,62,2,20140917170000
197,"Wenyi Road, Shenyang",,41.767444,123.416144,171,116,22,54,17,9,12,5,1019,62,2,20140917170000
198,"Xiaoheyan, Shenyang",,41.779828,123.484015,168,115,18,42,10,7,12,5,1019,62,2,20140917170000
199,"Taiyuan Street, Shenyang",,41.799646,123.406146,155,83,6,52,8,13,12,5,1019,62,2,20140917170000
200,"Ermao, Shenyang",,41.783011,123.366679,174,120,24,76,21,14,12,5,1019,62,2,20140917170000
201,"Liaoning University, Shenyang",,41.830704,123.361071,165,113,26,35,8,4,12,5,1019,62,2,20140917170000
202,Shenyang,,41.808126,123.437611,192,194,8,54,17,13,12,5,1019,62,2,20140917170000
1104,"wenhua street, Shenyang , Shenyang",,41.774139,123.441839,171,116,22,54,17,9,12,5,1019,62,2,20140917170000
1105,"Tanglin Road , Shenyang , Shenyang",,41.823665,123.562317,61,64,25,30,5,3,12,5,1019,62,2,20140917170000
203,"Ganjingzi, Dalian",,38.9747,121.616893,82,51,36,21,3,12,17,14,1019,82,3,20140917170000
204,"Zhoushuizi, Dalian",,38.951928,121.569981,72,46,30,19,6,21,18,14,1019,77,1,20140917170000
205,"Xinghai No 3 station, Dalian",,38.885779,121.568864,127,51,42,6,10,11,18,14,1019,77,1,20140917170000
206,"Qingniwa Bridge, Dalian",,38.91274,121.638018,68,48,29,34,4,15,18,14,1019,77,1,20140917170000
207,"Fujiazhuang, Dalian",,38.864647,121.629947,68,55,25,10,6,13,18,14,1019,77,1,20140917170000
208,"Qixianling, Dalian",,38.856978,121.523169,76,53,53,9,3,20,18,14,1019,77,1,20140917170000
209,"Lushun, Dalian",,38.808946,121.264063,82,51,29,12,7,9,18,14,1019,77,1,20140917170000
210,"Jinzhou, Dalian",,39.132192,121.753259,95,56,18,20,3,13,18,14,1019,77,1,20140917170000
211,"BDA, Dalian",,39.05213,121.782022,102,40,19,8,1,11,18,14,1019,77,1,20140917170000
212,"D&D Port, Dalian",,39.064087,121.981874,91,54,12,8,1,15,18,14,1019,77,1,20140917170000
213,Dalian,,38.91478,121.619625,63,54,24,11,5,14,-,-,0,-,-,20140917170000
214,"Bearing Factory, Dandong",,40.068929,124.345703,119,80,7,21,14,18,13,10,1019,78,2,20140917170000
215,"Financial school, Dandong",,40.158723,124.432593,85,48,8,21,8,7,13,10,1019,78,2,20140917170000
216,"Yuanbaoshan water, Dandong",,40.149431,124.391698,72,56,21,23,12,9,13,10,1019,78,2,20140917170000
217,"Experimental Primary School, Dandong",,39.887343,124.158056,95,56,6,29,6,29,13,10,1019,78,2,20140917170000
218,Dandong,,40.002046,124.360479,119,80,8,29,14,29,13,10,1019,78,2,20140917170000
1106,"minzhu bridge, Dandong , Dandong",,40.112974,124.373604,95,56,4,29,6,29,13,10,1019,78,2,20140917170000
1107,"yuanbaoshan, Dandong , Dandong",,40.146298,124.399081,72,56,17,23,12,10,13,10,1019,78,2,20140917170000
1108,"linjiang houjie, Dandong , Dandong",,40.152757,124.431745,85,48,8,21,8,7,13,10,1019,78,2,20140917170000
219,"BDA, Panjin",,41.157144,122.06645,163,96,15,53,23,11,10,7,0,82,0,20140917170000
220,"Xinglongtai, Panjin",,41.140948,122.111343,152,73,13,40,7,12,10,7,0,82,0,20140917170000
221,"Dingxiang, Panjin",,41.16139,121.928781,154,61,41,10,54,14,10,7,0,82,0,20140917170000
222,Panjin,,41.122089,122.076206,163,96,41,53,54,14,10,7,0,82,0,20140917170000
223,"No.3 water company, Yingkou",,40.682052,122.385352,137,83,17,40,9,13,14,9,1020,62,1,20140917170000
224,"Yingkou University, Yingkou",,40.683689,122.388285,102,76,15,43,7,13,14,9,1020,62,1,20140917170000
225,"Botanical garden, Yingkou",,40.711674,122.281568,152,73,15,39,9,12,14,9,1020,62,1,20140917170000
226,Yingkou,,40.668578,122.24059,152,73,15,39,9,12,14,9,1020,62,1,20140917170000
1109,"jinghu west street, Yingkou , Yingkou",,40.653831,122.221943,137,83,17,40,9,13,14,9,1020,62,1,20140917170000
1110,"Daqing Road , Yingkou , Yingkou",,40.709181,122.28243,152,73,15,39,9,12,14,9,1020,62,1,20140917170000
227,"Xishanpo, Huludao",,40.724078,120.921974,109,60,74,10,14,10,10,7,0,82,0,20140917170000
228,"Huagong hospital, Huludao",,40.755662,120.848435,151,96,28,34,5,16,10,7,0,82,0,20140917170000
229,"New district park, Huludao",,40.723415,120.853801,97,78,12,36,4,16,10,7,0,82,0,20140917170000
230,"Lianshan district governement, Huludao",,40.775488,120.872292,107,110,25,43,9,16,10,7,0,82,0,20140917170000
231,Huludao,,40.712501,120.842107,151,110,28,43,9,16,17,13,0,69,5,20140917170000
1111,"Dongcheng District , Huludao , Huludao",,40.775362,120.871706,107,110,25,43,9,16,,,0,,,20140917170000
1112,"huagong street, Huludao , Huludao",,40.758901,120.842935,151,96,28,34,5,16,,,0,,,20140917170000
232,Anshan,,41.110466,123.000147,163,162,35,57,10,19,12,5,1019,62,2,20140917170000
233,"Qianshan Park, Anshan",,41.033486,123.143897,89,40,31,12,9,4,12,5,1019,62,2,20140917170000
234,"Tiexi, Anshan",,41.121636,122.97506,162,127,17,34,8,19,12,5,1019,62,2,20140917170000
235,"Taiping Station, Anshan",,41.153322,123.052433,153,87,10,28,7,16,12,5,1019,62,2,20140917170000
236,"Central Station, Anshan",,41.106731,123.002736,112,67,35,14,9,5,12,5,1019,62,2,20140917170000
237,"Shengou Temple, Anshan",,41.137157,123.031901,153,89,28,28,10,10,12,5,1019,62,2,20140917170000
1113,"Qianshan , Anshan , Anshan",,41.014521,123.122538,89,40,31,12,9,5,12,5,1019,62,2,20140917170000
1114,"Tiexi Sandao jie, Anshan",,41.103264,122.978613,162,157,17,34,8,19,12,5,1019,62,2,20140917170000
1115,"Taiyang, Anshan",,41.094946,123.019037,112,67,35,14,9,5,12,5,1019,62,2,20140917170000
238,Fushun,,41.883028,123.962984,158,101,16,31,44,9,12,5,1019,62,2,20140917170000
239,"Shenfu new town, Fushun",,41.804638,123.631684,117,60,18,24,5,7,12,5,1019,62,2,20140917170000
240,"Reservoir, Fushun",,41.8464,123.802857,80,25,25,9,56,8,12,5,1019,62,2,20140917170000
241,"Train Station, Fushun",,41.89726,124.017604,93,90,9,22,18,6,12,5,1019,62,2,20140917170000
242,"Dongzhou, Fushun",,41.855578,124.044738,53,37,22,12,7,5,12,5,1019,62,2,20140917170000
243,"Xinhua, Fushun",,41.888598,123.932932,102,89,12,27,10,13,12,5,1019,62,2,20140917170000
244,"Wanghua, Fushun",,41.888825,123.093723,158,112,16,31,44,9,12,5,1019,62,2,20140917170000
245,Benxi,,41.296267,123.772371,99,73,12,21,23,40,12,5,1019,62,2,20140917170000
246,"Weining, Benxi",,41.349663,123.826071,89,73,12,6,3,40,11,5,1020,67,2,20140917170000
247,"Occupational disease hospital, Benxi",,41.305432,123.74645,74,39,15,28,7,6,12,5,1019,62,2,20140917170000
248,"Dongming, Benxi",,41.292369,123.765058,99,42,6,21,23,13,11,5,1020,67,2,20140917170000
249,"Caitun, Benxi",,41.301591,123.746039,104,76,15,21,4,29,12,5,1019,62,2,20140917170000
250,"Xihu, Benxi",,41.331332,123.773537,155,195,16,34,8,10,11,5,1020,67,2,20140917170000
251,"Dayu, Benxi",,41.308091,123.818442,87,40,17,12,12,7,12,5,1019,62,2,20140917170000
1116,"Xinlitun , Benxi , Benxi",,41.264104,123.811523,74,39,15,28,7,7,12,5,1019,62,2,20140917170000
252,Jinzhou,,41.097169,121.132647,181,117,32,38,24,14,17,13,1020,69,5,20140917170000
253,"Beihu Park, Jinzhou",,41.141447,121.137339,158,94,32,28,24,12,17,13,1020,69,5,20140917170000
254,"Monitoring station, Jinzhou",,41.113441,121.140911,180,117,27,38,20,12,17,13,1020,69,5,20140917170000
255,"Nanshan, Jinzhou",,41.570689,122.046753,181,83,19,29,7,14,17,13,1020,69,5,20140917170000
1118,"BDA, Jinzhou",,40.853915,121.061756,162,105,13,56,16,14,17,13,1020,69,5,20140917170000
1119,"tianan street, Jinzhou , Jinzhou",,41.124468,121.126119,188,100,21,41,15,13,17,13,1020,69,5,20140917170000
1120,"baigu street, Jinzhou, Jinzhou",,41.12214,121.21027,152,76,14,20,6,13,17,13,1020,69,5,20140917170000
1121,Chaoyang,,41.576022,120.456053,109,60,13,24,3,17,-,-,0,-,-,20140917170000
472,"Fukang road, Tianjin",,39.098136,117.157621,158,79,16,38,17,9,16,12,1022,77,1,20140917170000
1122,"Agricultural Area, Chaoyang",,43.93968,125.247371,119,61,5,9,5,8,15,6,1019,43,1,20140917170000
1123,Tieling,,42.225197,123.732174,117,72,14,22,11,6,-,-,0,-,-,20140917170000
260,"Waterpark, Tieling",,42.297031,123.880748,65,60,8,15,9,6,10,5,1020,71,1,20140917170000
1124,"Huigong Street West , Tieling , Tieling",,42.311115,123.845614,117,72,36,19,11,6,12,5,1019,62,2,20140917170000
1125,Liaoyang,,41.269312,123.24268,124,71,16,16,19,9,-,-,0,-,-,20140917170000
1126,"Riverside Road , Liaoyang , Liaoyang",,41.176884,123.419859,124,71,16,16,19,9,10,5,1020,71,1,20140917170000
1127,Fuxin,,42.02373,121.675733,155,107,26,28,15,12,-,-,0,-,-,20140917170000
266,"Agricultural Area, Fuxin",,42.071291,121.696445,132,94,20,25,12,8,9,5,0,76,1,20140917170000
267,"Industrial Area, Fuxin",,42.041052,121.715554,155,85,18,20,7,12,9,5,0,76,1,20140917170000
1128,"Yulong Metro , Fuxin , Fuxin",,42.035091,121.666531,153,107,10,28,11,12,9,5,0,76,1,20140917170000
1129,"Dongyuan , Fuxin , Fuxin",,42.029119,121.681553,-,-,65,-,-,10,-,-,0,-,-,20140917170000
268,"City Monitoring Station, Jinan",,36.662614,117.054645,184,118,4,27,50,15,15,15,1022,97,1,20140917170000
269,"Shandong Institute of Economics, Jinan",,36.63819,117.074975,193,123,3,33,37,22,15,15,1022,97,1,20140917170000
270,"Quancheng Plaza, Jinan",,36.661711,117.027043,162,77,6,14,22,14,15,15,1022,97,1,20140917170000
271,"Kegansuo, Jinan",,36.611582,116.99384,169,94,4,39,38,18,15,15,1022,97,1,20140917170000
272,"Agriculture Science Institute, Jinan",,36.663115,116.95063,159,81,5,36,27,17,15,15,1022,97,1,20140917170000
273,"Lanxiang technical school, Jinan",,36.700421,116.95342,158,68,10,6,23,10,15,15,1022,97,1,20140917170000
274,"Chemical factory, Jinan",,36.687463,116.994406,63,65,5,25,25,10,15,15,1022,97,1,20140917170000
275,"Provincial Seed Warehouse, Jinan",,36.685706,117.066348,164,79,10,20,16,14,15,15,1022,97,1,20140917170000
276,"Shandong Architecture University, Jinan",,36.681732,117.191868,182,95,4,28,51,21,15,15,1022,97,1,20140917170000
277,"Baosheng cable company, Jinan",,36.724638,117.130855,155,65,5,22,8,11,15,15,1022,97,1,20140917170000
278,"Paomaling, Jinan",,36.47869,117.219027,38,7,26,9,13,12,15,15,1022,97,1,20140917170000
279,"Changqing District Communist Party School, Jinan",,36.548797,116.770859,158,67,4,27,29,16,15,15,1022,97,1,20140917170000
280,"BDA, Jinan",,36.685835,117.130851,173,98,15,40,47,22,15,15,1022,97,1,20140917170000
281,Jinan,,36.651426,117.126625,184,118,13,42,50,22,15,15,1022,97,1,20140917170000
282,"Shinan district No. 1, Qingdao",,36.065534,120.40839,129,68,6,17,18,7,16,14,1020,88,2,20140917170000
283,"Shibei district No. 1, Qingdao",,36.069919,120.341264,89,70,8,20,11,9,16,14,1020,88,2,20140917170000
284,"Shibei district No. 2, Qingdao",,36.104146,120.36637,74,49,34,24,11,14,16,14,1020,88,2,20140917170000
285,"Huangdao District No. 1, Qingdao",,35.958935,120.191041,127,70,14,21,15,7,16,14,1020,88,2,20140917170000
286,"Huangdao District No. 2, Qingdao",,35.970487,120.160339,82,55,23,15,9,6,16,14,1020,88,2,20140917170000
287,"Laoshan District No. 1, Qingdao",,36.085881,120.451839,153,74,14,36,19,8,16,14,1020,88,2,20140917170000
288,"Laoshan District No. 2, Qingdao",,36.091075,120.490388,117,69,19,34,10,4,16,14,1020,88,2,20140917170000
289,"Licang District No. 1, Qingdao",,36.184872,120.38533,142,93,8,35,26,15,16,14,1020,88,2,20140917170000
290,"Licang District No. 2, Qingdao",,36.154369,120.432287,114,63,9,33,9,5,16,14,1020,88,2,20140917170000
291,"Chengyang District No. 1, Qingdao",,36.308502,120.40008,132,58,11,28,10,7,16,14,1020,88,2,20140917170000
292,"Chengyang District No. 2, Qingdao",,36.308429,120.465806,112,53,12,22,8,5,16,14,1020,88,2,20140917170000
293,Qingdao,,36.067358,120.387773,153,74,8,20,19,9,16,14,1020,88,2,20140917170000
294,"Zichuan Meteo. Stations, Zibo",,36.637916,117.960222,170,98,2,37,38,20,12,12,0,97,1,20140917170000
295,"Dongfeng Chemical factory, Zibo",,36.838576,118.050785,132,62,3,28,12,24,12,12,0,97,1,20140917170000
296,"Boshan shuangshan, Zibo",,36.497278,117.853581,162,76,1,41,51,18,12,12,0,97,1,20140917170000
297,"Linzi Putian Park, Zibo",,36.820171,118.315022,134,58,11,37,8,15,12,12,0,97,1,20140917170000
298,"Qilu Petrochemical, Zibo",,36.765907,118.254967,53,55,4,22,7,11,12,12,0,97,1,20140917170000
299,"Zhoucun sanjin Group, Zibo",,36.8044,117.85694,154,59,10,17,7,20,12,12,0,97,1,20140917170000
300,"Vocational College, Zibo",,36.825208,117.926305,137,66,5,28,39,18,12,12,0,97,1,20140917170000
301,"BDA, Zibo",,36.905214,118.021824,109,69,4,9,8,11,12,12,0,97,1,20140917170000
302,Zibo,,36.813618,118.060948,170,98,5,42,51,20,12,12,0,97,1,20140917170000
303,"Shizhong District Government, Zaozhuang",,34.850397,117.569545,63,19,32,6,33,4,17,16,1020,95,1,20140917170000
304,"Sewage treatment plant, Zaozhuang",,34.818951,117.595345,95,21,21,13,10,4,17,16,1020,95,1,20140917170000
305,"Xuecheng EPA, Zaozhuang",,34.790214,117.272455,78,33,24,16,14,4,17,16,1020,95,1,20140917170000
306,"Yicheng District government, Zaozhuang",,34.772806,117.57647,78,10,27,10,5,3,17,16,1020,95,1,20140917170000
307,"Taierzhuang EPA, Zaozhuang",,34.579462,117.741067,76,42,11,16,4,10,17,16,1020,95,1,20140917170000
308,"Shanting EPA, Zaozhuang",,35.070373,117.457691,21,27,30,6,7,9,17,16,1020,95,1,20140917170000
309,"City EPA, Zaozhuang",,34.809466,117.320608,74,25,30,6,20,4,17,16,1020,95,1,20140917170000
310,"High-tech zone, Zaozhuang",,34.821779,117.363495,119,32,26,7,20,3,17,16,1020,95,1,20140917170000
311,Zaozhuang,,34.809693,117.329634,119,33,32,16,33,10,17,16,1020,95,1,20140917170000
312,"City EPA, Dongying",,37.432052,118.672871,63,69,22,20,32,10,16,14,0,90,3,20140917170000
313,"Vocational College, Dongying",,37.438653,118.630567,129,73,18,27,24,7,16,14,0,90,3,20140917170000
314,"Xianhe Oil Production Plant, Dongying",,37.442419,118.510222,147,77,25,19,12,6,16,14,0,90,3,20140917170000
315,"Gengjin village, Dongying",,37.445072,118.55839,152,75,22,14,10,7,16,14,0,90,3,20140917170000
316,"City environmental company, Dongying",,37.466599,118.508012,132,67,25,19,13,6,16,14,0,90,3,20140917170000
317,"Hekou  district, Dongying",,37.883786,118.522171,122,58,30,9,12,5,16,14,0,90,3,20140917170000
318,"BDA, Dongying",,37.435162,118.701827,142,63,28,19,16,10,16,14,0,90,3,20140917170000
319,Dongying,,37.435429,118.680434,152,75,22,25,10,8,16,14,0,90,3,20140917170000
320,"Bearing Factory, Yantai",,37.544126,121.376956,104,59,23,30,32,5,,,0,,,20140917170000
321,"Xijiao Chemical Station, Yantai",,37.547148,121.323695,93,49,21,35,9,8,,,0,,,20140917170000
322,"Fushan Monitoring Stations, Yantai",,37.472245,121.260116,78,43,31,12,4,6,,,0,,,20140917170000
323,"Mouping EPA, Yantai",,37.376681,121.586509,85,59,26,12,6,5,,,0,,,20140917170000
324,"Laishan EPA, Yantai",,37.478422,121.44829,89,43,34,24,15,4,,,0,,,20140917170000
325,"Laishan Shengquan Industrial Park, Yantai",,37.4271,121.408386,72,51,32,16,12,4,,,0,,,20140917170000
326,"China Agricultural University, Yantai",,37.423568,121.511838,65,45,30,23,4,6,,,0,,,20140917170000
327,"BDA EPA, Yantai",,37.560827,121.257954,50,22,28,11,3,6,,,0,,,20140917170000
329,"Dajijia, Yantai",,37.673849,121.071465,38,18,31,7,9,5,,,0,,,20140917170000
330,Yantai,,37.464793,121.453142,104,59,21,35,9,8,20,15,0,72,5,20140917170000
331,"BDA, Weifang",,36.720022,119.054064,165,88,10,24,16,7,,,0,,,20140917170000
332,"Business School, Weifang",,36.682442,119.105909,158,65,14,26,15,6,,,0,,,20140917170000
333,"Hanting District, Weifang",,36.773484,119.199705,169,86,21,20,18,5,,,0,,,20140917170000
334,"Gongda Company, Weifang",,36.657635,119.167266,164,84,14,27,6,7,,,0,,,20140917170000
335,"City EPA, Weifang",,36.701272,119.16838,170,91,16,19,10,12,,,0,,,20140917170000
336,"City Arbitration Committee, Weifang",,36.702422,119.145927,172,81,23,17,12,9,,,0,,,20140917170000
337,"Xinhui Group, Weifang",,36.641581,119.11679,149,68,8,20,7,7,,,0,,,20140917170000
338,"Jincheng Middle School, Weifang",,36.773611,119.115539,157,70,25,14,8,6,,,0,,,20140917170000
339,Weifang,,36.707217,119.167638,181,90,25,27,18,9,16,14,0,90,3,20140917170000
340,"City Monitoring Station, Jining",,35.408443,116.623917,132,47,16,22,15,11,16,16,1021,98,1,20140917170000
1090,"Shengdi Hollidays Resort, Jining",,35.424746,116.699093,109,49,5,28,13,7,16,16,1021,98,1,20140917170000
341,"Sewage treatment plant, Jining",,35.364286,116.609177,144,49,7,26,18,11,16,16,1021,98,1,20140917170000
342,"Electrochemical Factory, Jining",,35.390473,116.552956,89,50,9,21,13,11,16,16,1021,98,1,20140917170000
343,"Rencheng BDA, Jining",,35.390484,116.662995,-,-,-,-,-,-,-,-,0,-,-,20140917170000
344,"Agricultural School, Jining",,35.44235,116.601682,91,57,7,20,4,9,16,16,1021,98,1,20140917170000
345,"BDA Huojucheng, Jining",,35.436377,116.642953,129,50,8,21,13,12,16,16,1021,98,1,20140917170000
346,Jining,,35.414473,116.59239,132,57,15,28,16,12,16,16,1021,98,1,20140917170000
347,"Taishan monitoring station, Taian",,36.194362,117.159648,97,56,5,17,14,13,10,10,0,98,4,20140917170000
348,"Shandong Electric Power School, Taian",,36.176071,117.12413,117,42,25,24,17,14,10,10,0,98,4,20140917170000
349,"Population Education school, Taian",,36.194417,117.104131,99,61,4,13,7,14,10,10,0,98,4,20140917170000
350,"Houfeng company, Taian",,36.204863,117.19015,95,50,5,11,6,13,10,10,0,98,4,20140917170000
351,"Nongda new campus, Taian",,36.170179,117.165191,99,52,3,17,10,16,10,10,0,98,4,20140917170000
352,"Transportation technical school, Taian",,36.202126,117.047068,107,46,3,9,5,18,10,10,0,98,4,20140917170000
353,"ICT Technology, Taian",,36.116621,117.107458,107,58,2,21,5,17,10,10,0,98,4,20140917170000
354,Taian,,36.200502,117.093682,117,56,5,24,17,14,10,10,0,98,4,20140917170000
355,"City Environmental Monitoring Station, Weihai",,37.513939,122.067058,63,32,48,6,7,4,20,15,0,72,5,20140917170000
356,"Woodworking Factory, Weihai",,37.325455,122.160777,61,35,47,7,10,4,20,15,0,72,5,20140917170000
357,"Lantian Hotel, Weihai",,37.514641,122.146276,63,39,83,5,8,9,20,15,0,73,5,20140917170000
358,"Zhang village government, Weihai",,37.485561,122.049436,50,21,41,7,6,4,20,15,0,72,5,20140917170000
359,"Gao District Bank, Weihai",,37.534919,122.056294,85,30,50,2,7,5,20,15,0,73,5,20140917170000
360,"Huxia technical school, Weihai",,37.427951,122.130811,61,40,48,5,9,5,20,15,0,72,5,20140917170000
361,Weihai,,37.5141,122.125477,76,40,83,7,10,9,20,15,0,72,5,20140917170000
362,"City governement square, Rizhao",,35.4075,119.526008,68,37,28,5,7,4,15,14,1021,92,2,20140917170000
363,"Port Authority, Rizhao",,35.381297,119.55396,72,31,28,6,5,5,15,14,1021,92,2,20140917170000
364,"City Monitoring Station, Rizhao",,35.388683,119.496405,112,37,22,9,5,4,15,14,1021,92,2,20140917170000
365,"Professor Garden, Rizhao",,35.462161,119.574193,91,50,29,4,6,4,15,14,1021,92,2,20140917170000
366,"Vocational and Technical College, Rizhao",,35.441939,119.538187,99,40,34,3,6,4,15,14,1021,92,2,20140917170000
367,"Lanshan EPA branch, Rizhao",,35.293405,119.345716,74,29,19,8,8,5,15,14,1021,92,2,20140917170000
368,"Jinma Industrial Park, Rizhao",,35.373339,119.514108,78,50,22,18,8,5,15,14,1021,92,2,20140917170000
369,Rizhao,,35.416089,119.532316,99,50,34,18,8,5,15,14,1021,92,2,20140917170000
370,"Vegetable oil factory, Laiwu",,36.205028,117.700917,430,73,4,36,51,12,15,14,1022,98,1,20140917170000
371,"Nursing home, Laiwu",,36.266067,117.652769,139,81,14,38,38,16,15,14,1022,98,1,20140917170000
372,"Xinyi middle school, Laiwu",,36.245086,117.739025,93,74,3,42,33,16,15,14,1022,98,1,20140917170000
373,"Risheng International School, Laiwu",,36.208125,117.730959,139,88,3,20,52,12,15,14,1022,98,1,20140917180000
374,"Gangcheng EPA, Laiwu",,36.066836,117.871823,117,70,1,22,39,20,15,14,1022,98,1,20140917180000
375,"City EPA, Laiwu",,36.228913,117.694797,151,75,13,39,44,17,15,14,1022,98,1,20140917180000
376,Laiwu,,36.213688,117.682612,430,74,3,42,51,16,-,-,0,-,-,20140917180000
377,"Lunan Pharmaceutical Factory, Linyi",,35.061671,118.299527,89,40,16,9,7,6,13,13,0,96,3,20140917180000
378,"Yihe compound, Linyi",,35.056752,118.34739,89,57,17,10,7,10,13,13,0,96,3,20140917180000
379,"Linyi University, Linyi",,35.114777,118.293414,122,45,11,14,11,14,13,13,0,96,3,20140917180000
380,City EPA,Nanfang,35.104871,118.353518,78,51,20,9,12,7,13,13,0,96,3,20140917180000
381,"Xinguang woolen factory, Linyi",,34.981004,118.282,78,36,13,8,7,7,13,13,0,96,3,20140917180000
382,"Hongfu Baijiu Factory, Linyi",,34.998788,118.257275,89,46,15,10,7,11,13,13,0,96,3,20140917180000
384,"Hedong insurance company, Linyi",,35.089354,118.40812,78,44,15,12,5,7,13,13,0,96,3,20140917180000
385,"Jianghua vehicule center, Linyi",,35.010082,118.435749,97,47,12,18,19,6,13,13,0,96,3,20140917180000
386,Linyi,,35.10428,118.362202,122,55,17,8,19,14,13,13,0,96,3,20140917180000
387,"Heima group, Dezhou",,37.466063,116.314134,134,51,17,22,7,14,16,15,1022,93,1,20140917180000
388,"Monitoring station, Dezhou",,37.433107,116.377312,122,44,7,29,8,5,16,15,1022,93,1,20140917180000
389,"Supervision Station, Dezhou",,37.449689,116.324709,132,64,13,22,14,12,16,15,1022,93,1,20140917180000
390,"Huayu technical school, Dezhou",,37.462809,116.357559,122,51,17,17,13,13,16,15,1022,93,1,20140917180000
391,"Shuangyi group, Dezhou",,37.478848,116.316362,154,75,16,18,11,11,16,15,1022,93,1,20140917180000
392,Dezhou,,37.434959,116.363366,154,75,17,29,14,15,16,15,1022,93,1,20140917180000
393,"Dongchang District Government, Liaocheng",,36.444473,115.971733,151,44,11,12,10,17,15,14,1022,92,1,20140917180000
394,"Light Machinery Factory No. 2, Liaocheng",,36.456788,116.002383,159,86,14,12,9,15,15,14,1022,92,1,20140917180000
395,"City committee communist party school, Liaocheng",,36.479537,115.989288,142,58,11,12,8,15,15,14,1022,92,1,20140917180000
396,"Customs, Liaocheng",,36.431933,115.956974,139,62,12,15,7,13,15,14,1022,92,1,20140917180000
397,"Hongshun Garden, Liaocheng",,36.471124,115.960319,139,55,9,17,8,15,15,14,1022,92,1,20140917180000
398,"BDA, Liaocheng",,36.459407,116.043621,153,62,13,9,12,19,15,14,1022,92,1,20140917180000
399,Liaocheng,,36.456792,115.991051,159,86,14,15,9,15,15,14,1022,92,1,20140917180000
400,"City EPA, Binzhou",,37.38024,118.026895,152,51,10,20,13,12,16,15,1022,92,1,20140917180000
401,"Beizhong new school, Binzhou",,37.38374,117.988996,153,51,8,20,14,15,16,15,1022,92,1,20140917180000
402,"No.2 water factory, Binzhou",,37.36155,118.002648,157,55,9,13,6,11,16,15,1022,92,1,20140917180000
403,"Keling Chemical factory, Binzhou",,37.396138,117.943609,122,51,12,13,8,14,16,15,1022,92,1,20140917180000
404,"Yinhe logistics company, Binzhou",,37.356122,117.943326,152,68,17,35,22,12,16,15,1022,92,1,20140917180000
405,"Bilin compond, Binzhou",,37.36815,117.978964,149,63,6,16,4,10,16,15,1022,92,1,20140917180000
406,Binzhou,,37.382639,117.976606,157,68,17,35,22,15,16,15,1022,92,1,20140917180000
407,"Bureau of Meteorology, Heze",,35.248625,115.428775,134,50,8,12,9,11,14,14,0,99,2,20140917180000
408,"Sewage treatment plant, Heze",,35.222517,115.531511,114,40,6,12,9,11,14,14,0,99,2,20140917180000
409,"Municipal CPPCC, Heze",,35.237125,115.480591,117,41,6,12,15,13,14,14,0,99,2,20140917180000
410,"Huarun Pharmaceutical Company, Heze",,35.261463,115.524873,107,39,7,12,13,12,14,14,0,99,2,20140917180000
411,"Heze University, Heze",,35.269706,115.460934,127,50,10,17,8,12,14,14,0,99,2,20140917180000
412,Heze,,35.233354,115.486503,134,50,10,17,15,13,14,14,0,99,2,20140917180000
413,"Shiji Park, Shijiazhuang",,38.03155,114.547873,139,69,4,9,3,5,10,10,1022,100,1,20140917180000
414,"Xinan College, Shijiazhuang",,38.012764,114.473163,119,57,3,2,12,6,10,10,1022,100,1,20140917180000
415,"Chemical College, Shijiazhuang",,38.055503,114.569816,157,66,2,5,1,4,10,10,1022,100,1,20140917180000
416,"Worker hospital, Shijiazhuang",,38.051784,114.461209,97,71,3,12,4,6,10,10,1022,100,1,20140917180000
417,"Northwest Water Company, Shijiazhuang",,38.140638,114.508038,155,74,4,17,5,5,10,10,1022,100,1,20140917180000
418,"High-tech zone, Shijiazhuang",,38.040482,114.610775,149,64,8,14,6,3,11,11,1022,100,1,20140917180000
419,"Fenglong Montain, Shijiazhuang",,37.910829,114.360264,68,16,15,13,11,4,10,10,1022,100,1,20140917180000
1130,"Zhengding Unicom, Shijiazhuang",,38.159458,114.59879,175,137,17,30,6,8,10,10,1022,100,1,20140917180000
1131,"Luancheng Communications, Shijiazhuang",,37.906534,114.638785,163,84,9,22,22,8,10,10,1022,100,1,20140917180000
1132,"Gaocheng Experimental School, Shijiazhuang",,38.039518,114.867812,137,64,8,12,9,5,10,10,1022,100,1,20140917180000
1133,"Wuji EPA, Shijiazhuang",,38.17862,114.997012,167,96,11,29,14,8,10,10,1022,100,1,20140917180000
1134,"Shenze Power Supply Bureau, Shijiazhuang",,38.197674,115.219126,175,113,10,22,10,10,10,10,1022,100,1,20140917180000
1135,"Zhaoxian EPA, Shijiazhuang",,37.77171,114.775957,162,68,9,16,36,7,10,10,1022,100,1,20140917180000
1136,"Gaoyi County City Hall, Shijiazhuang",,37.623535,114.612729,158,87,7,25,6,5,10,10,1022,100,1,20140917180000
1137,"Zanhuang County City Hall, Shijiazhuang",,37.672898,114.398269,156,74,5,19,4,8,10,10,1022,100,1,20140917180000
1138,"Jingxing Bureau of Meteorology, Shijiazhuang",,38.038788,114.158406,95,59,8,19,13,10,10,10,1022,100,1,20140917180000
1139,"Pingshan Ye River, Shijiazhuang",,38.266657,114.210275,117,61,6,22,7,10,10,10,1022,100,1,20140917180000
420,Shijiazhuang,,38.042926,114.520834,157,66,6,11,8,4,10,10,1022,100,1,20140917180000
421,"No. 12 middle school, Tangshan",,39.659306,118.190271,180,60,33,21,10,12,-,-,0,-,-,20140917180000
422,"Ceramics Company, Tangshan",,39.669255,118.225185,154,65,14,13,5,5,16,12,1022,77,1,20140917180000
423,"Commodities Bureau, Tangshan",,39.642301,118.191265,171,77,13,15,9,4,16,12,1022,77,1,20140917180000
424,"Leidazhanzi Station, Tangshan",,39.644375,118.150383,176,94,9,21,5,5,16,12,1022,77,1,20140917180000
425,"Supply and marketing cooperatives, Tangshan",,39.632334,118.17232,175,83,12,16,8,6,16,12,1022,77,1,20140917180000
1140,"Guye District City Hall, Tangshan",,39.741379,118.460246,202,163,8,6,9,10,16,12,1022,77,1,20140917180000
1141,"Kaiping Stations, Tangshan",,39.675246,118.275149,181,109,19,21,8,11,16,12,1022,77,1,20140917180000
1142,"Fengnan District City Hall, Tangshan",,39.5834,118.097454,180,102,18,37,2,7,16,12,1022,77,1,20140917180000
1143,"Fengrun City Hall, Tangshan",,39.840355,118.175338,186,142,18,31,12,9,16,12,1022,77,1,20140917180000
1144,"Qianxi EPA, Tangshan",,40.153339,118.317265,89,55,9,20,3,8,16,12,1022,77,1,20140917180000
1145,"Caofeidian Xinli  Primary School, Tangshan",,39.291232,118.462182,161,90,14,43,11,6,16,12,1022,77,1,20140917180000
1146,"Zunhua EPA, Tangshan",,40.206249,117.997315,139,60,11,20,21,7,16,12,1022,77,1,20140917180000
1147,"Qianan No.1 middle school, Tangshan",,40.004248,118.717055,154,70,11,19,6,14,16,12,1022,77,1,20140917180000
1266,"Luannan County , Tangshan",,39.511132,118.686928,188,115,16,50,46,6,16,12,1022,77,1,20140917180000
1267,"Yutian County , Tangshan",,39.908249,117.751417,167,139,14,39,10,10,16,12,1022,77,1,20140917180000
426,Tangshan,,39.632175,118.186472,181,109,19,37,12,11,-,-,0,-,-,20140917180000
427,"City Monitoring Station, Qinhuangdao",,39.958109,119.607773,107,66,11,44,11,13,,,0,,,20140917180000
428,"Beidaihe, Qinhuangdao",,39.829209,119.53194,95,60,9,32,19,19,,,0,,,20140917180000
429,"Shanhai Pass, Qinhuangdao",,40.019298,119.767898,129,64,4,68,2,10,,,0,,,20140917180000
430,"Contruction Plazz, Qinhuangdao",,39.943187,119.542912,107,96,7,44,16,11,,,0,,,20140917180000
431,"City government, Qinhuangdao",,39.93711,119.612769,112,83,3,37,11,11,,,0,,,20140917180000
1148,"Qinglong EPA, Qinhuangdao",,40.419223,118.958002,82,31,24,9,1,5,16,12,0,77,1,20140917180000
1149,"Changli EPA, Qinhuangdao",,39.714369,119.173237,124,82,16,33,10,17,,,0,,,20140917180000
1268,"Lulong County Bureau of Meteorology , Qinhuangdao",,39.901091,118.904857,180,113,12,32,20,13,16,12,0,77,1,20140917180000
432,Qinhuangdao,,39.936485,119.606263,112,83,3,37,11,11,-,-,0,-,-,20140917180000
433,"CongTai Park, Handan",,36.620197,114.501891,127,63,2,8,1,4,14,13,0,98,1,20140917180000
434,"City EPA, Handan",,36.618145,114.518822,159,54,6,13,3,8,14,13,0,98,1,20140917180000
435,"East Sewage Factory, Handan",,36.616064,114.548714,144,83,5,11,6,5,14,13,0,98,1,20140917180000
436,"Mine Hospital, Handan",,36.578149,114.509854,109,56,3,23,2,3,14,13,0,98,1,20140917180000
1150,"Fengfeng mine Inland Revenue Department, Handan",,36.423085,114.245994,153,66,6,15,1,12,15,14,0,90,1,20140917180000
1151,"Shexian EPA, Handan",,36.589084,113.692341,156,57,6,18,7,29,,,0,,,20140917180000
1152,"Ci County Vocational Education Center, Handan",,36.380247,114.390119,144,50,2,29,2,8,,,0,,,20140917180000
1153,"Yongnian government guesthouse, Handan",,36.783297,114.502905,161,89,2,14,2,0,14,13,0,98,1,20140917180000
1154,"Wuan BDA, Handan",,36.686223,114.269009,159,80,3,25,9,9,,,0,,,20140917180000
1085,Handan,,36.625683,114.544812,159,83,6,23,6,8,14,13,0,98,1,20140917180000
437,"Road and Bridge Corporation, Xingtai",,37.096415,114.538799,129,65,4,22,4,4,14,13,1023,98,1,20140917180000
438,"Dahuo fontain, Xingtai",,37.097563,114.488001,117,44,4,16,3,5,14,13,1023,98,1,20140917180000
439,"Xingtai Normal College, Xingtai",,37.053404,114.531819,89,68,5,21,5,4,14,13,1023,98,1,20140917180000
440,"Environment protection office, Xingtai",,37.06253,114.490985,153,79,6,28,5,5,14,13,1023,98,1,20140917180000
1155,"Cultural centers within the mound, Xingtai",,37.293569,114.524873,85,22,6,13,1,1,14,13,1023,98,1,20140917180000
383,Xingtai,,37.071066,114.510749,153,79,6,28,5,5,14,13,1023,98,1,20140917180000
441,"City Monitoring Station, Baoding",,38.871737,115.527103,159,79,16,7,11,-,14,13,1022,90,0,20140917180000
442,"Surface water Company, Baoding",,38.842891,115.467326,158,75,17,38,4,6,14,13,1022,90,0,20140917180000
443,"Huadian II, Baoding",,38.896748,115.528102,151,72,18,5,7,1,14,13,1022,90,0,20140917180000
444,"Reception Center, Baoding",,38.911905,115.477301,177,91,12,61,3,9,14,13,1022,90,0,20140917180000
445,"Film Factory, Baoding",,38.876949,115.448383,153,80,14,16,3,12,14,13,1022,90,0,20140917180000
446,"Natatorium, Baoding",,38.863815,115.499212,179,83,15,20,9,12,14,13,1022,90,0,20140917180000
1156,"Qingyuan City Hall, Baoding",,38.771758,115.502189,162,78,12,10,4,7,14,13,1022,90,0,20140917180000
1157,"Xushui EPA, Baoding",,39.025781,115.668023,155,106,20,28,57,7,14,13,1022,90,0,20140917180000
1158,"Zhouzhou Monitoring Stations, Baoding",,39.493241,116.040187,162,76,14,21,7,1,14,13,1022,90,0,20140917180000
1159,"Gaobeidian EPA, Baoding",,39.3329,115.885891,162,87,2,23,16,1,14,13,1022,90,0,20140917180000
447,Baoding,,38.874791,115.471124,179,91,18,61,11,12,14,13,1022,90,0,20140917180000
448,"Century Compound, Zhangjiakou",,40.770279,114.909106,59,9,16,12,41,5,13,6,1022,49,1,20140917180000
449,"North Pumping Station, Zhangjiakou",,40.874362,114.910119,-,-,-,-,-,-,-,-,0,-,-,20140917180000
450,"Hardware Warehouse, Zhangjiakou",,40.81232,114.887119,30,44,53,21,7,17,13,6,1022,49,1,20140917180000
451,"Tanji Chang, Zhangjiakou",,40.796301,114.89811,74,25,15,11,7,6,13,6,1022,49,1,20140917180000
1160,"Xiahuayuan EPA, Zhangjiakou",,40.509345,115.302442,76,50,4,16,16,5,13,6,1022,49,1,20140917180000
1161,"Huaian EPA, Zhangjiakou",,40.68157,114.398646,25,33,16,17,13,0,13,6,1022,49,1,20140917180000
1162,"Huailai Fuqian Primary School, Zhangjiakou",,40.422204,115.530285,149,59,11,33,1,2,13,6,1022,49,1,20140917180000
1269,"Zhangbei EPA , Zhangjiakou",,41.166775,114.732369,114,56,25,17,22,4,13,6,1022,49,1,20140917180000
1270,"Kangbao County Environmental Protection Agency , Zhangjiakou",,41.837866,114.591246,87,51,35,6,5,3,13,6,1022,49,1,20140917180000
1271,"Guyuan County welfare , Zhangjiakou",,41.669984,115.687401,91,6,19,8,4,7,13,6,1022,49,1,20140917180000
1272,"Shangyi County Environmental Protection Bureau , Zhangjiakou",,41.086638,113.984688,89,64,25,10,4,11,13,6,1022,49,1,20140917180000
1273,"Yuxian Secondary School , Zhangjiakou",,39.84699,114.601986,142,89,16,21,12,5,13,6,1022,49,1,20140917180000
1274,"Yang County Vocational Education Center , Zhangjiakou",,40.106343,114.134732,97,78,16,21,4,5,13,6,1022,49,1,20140917180000
1275,"Wan county Environmental Protection Agency , Zhangjiakou",,40.770459,114.75033,89,56,21,14,12,4,13,6,1022,49,1,20140917180000
473,"Nankou road, Tianjin",,39.174022,117.199688,164,75,10,28,13,10,15,12,1021,82,1,20140917180000
1276,"Zhuolu County Environmental Protection Agency , Zhangjiakou",,40.374273,115.221393,74,52,19,1,5,3,13,6,1022,49,1,20140917180000
452,Zhangjiakou,,40.825744,114.893659,74,25,16,12,41,6,13,6,1022,49,1,20140917180000
453,"Railway, Chengde",,40.917557,117.972331,89,62,9,18,4,5,12,9,1022,72,0,20140917180000
454,"Cultural Center, Chengde",,40.974625,117.824437,102,65,7,20,5,10,12,9,1022,72,0,20140917180000
455,"Bank of China, Chengde",,40.985582,117.958304,109,55,6,16,26,9,12,9,1022,72,0,20140917180000
456,"BDA, Chengde",,40.937567,117.969325,95,62,11,27,39,8,12,9,1022,72,0,20140917180000
457,"Ligong, Chengde",,41.012579,117.94428,153,106,15,14,1,4,12,9,1022,72,0,20140917180000
1163,"Chengde County EPA, Chengde",,40.776643,118.17646,109,61,11,24,3,8,12,9,1022,72,0,20140917180000
1164,"Xinglong County City Hall, Chengde",,40.424301,117.513488,99,47,11,14,1,8,12,9,1022,72,0,20140917180000
1165,"Luanping EPA, Chengde",,40.950792,117.350715,152,60,32,18,1,6,12,9,1022,72,0,20140917180000
1166,"Fengning County City Hall, Chengde",,41.216739,116.658037,85,48,21,7,3,5,12,9,1022,72,0,20140917180000
1277,"Longhua EPA , Chengde",,41.311956,117.739605,107,54,19,18,6,8,12,9,1022,72,0,20140917180000
458,Chengde,,40.955652,117.968737,153,106,15,27,39,8,12,9,1022,72,0,20140917180000
459,"Municipal EPB, Cangzhou",,38.323507,116.876746,134,63,14,28,1,4,16,12,1022,77,1,20140917180000
460,"Cangxian Urban Construction Bureau, Cangzhou",,38.299495,116.890734,152,60,9,18,1,6,16,12,1022,77,1,20140917180000
461,"TV Broadcast Station, Cangzhou",,38.325525,116.863761,142,61,10,18,3,6,16,12,1022,77,1,20140917180000
1167,"Qing County City Hall, Cangzhou",,38.589643,116.815876,173,37,1,26,1,0,15,12,1021,82,1,20140917180000
1168,"Poyoushi City Hall, Cangzhou",,38.089516,116.590575,155,79,1,16,5,5,16,12,1022,77,1,20140917180000
1169,"Huanghua Finance Bureau Training Center, Cangzhou",,38.377793,117.343356,156,76,21,21,18,3,16,12,1022,77,1,20140917180000
462,Cangzhou,,38.305035,116.844625,152,61,10,18,3,6,16,12,1022,77,1,20140917180000
463,"Environmental Monitoring Supervision Center, Langfang",,39.558157,116.720995,127,62,17,6,15,7,15,12,1021,82,1,20140917180000
464,"TCM Medical Material Company, Langfang",,39.519096,116.689914,142,75,14,14,7,1,15,12,1021,82,1,20140917180000
465,"BDA, Langfang",,39.576175,116.779041,154,62,15,10,19,5,15,12,1021,82,1,20140917180000
466,"North China Institute of Aerospace, Langfang",,39.53517,116.743027,139,68,18,13,13,6,15,12,1021,82,1,20140917180000
1170,"Guan Party School, Langfang",,39.446185,116.311026,153,74,23,29,17,5,15,12,1021,82,1,20140917180000
1171,"Xianghe EPA, Langfang",,39.76725,117.015252,165,80,20,27,8,2,15,12,1021,82,1,20140917180000
1172,"Wenan County EPA, Langfang",,38.880927,116.47001,177,88,19,22,6,6,15,12,1021,82,1,20140917180000
1173,"Three Rivers Department of Transportation, Langfang",,39.989419,117.091528,155,94,18,32,5,2,15,12,1021,82,1,20140917180000
1278,"Yongqing EPA , Langfang",,39.329071,116.510917,153,65,12,16,4,5,15,12,1021,82,1,20140917180000
1279,"Dacheng EPA, Langfang",,38.712628,116.665751,181,91,16,31,11,8,15,12,1021,82,1,20140917180000
467,Langfang,,39.539148,116.689668,154,62,17,10,19,7,15,12,1021,82,1,20140917180000
468,"Hengshui City EPB, Hengshui",,37.739679,115.695929,165,61,11,24,6,9,11,11,0,96,0,20140917180000
469,"Environmental Monitoring Station, Hengshui",,37.738593,115.648837,152,87,18,20,15,8,11,11,0,96,0,20140917180000
470,"Electrical Machine North Factory, Hengshui",,37.758686,115.70094,151,57,13,18,10,10,11,11,0,96,0,20140917180000
1174,"Anping EPA, Hengshui",,38.238559,115.537988,211,140,10,29,15,11,11,11,0,96,0,20140917180000
1175,"Jizhou EPA, Hengshui",,37.548552,115.58679,165,76,17,22,3,9,11,11,0,96,0,20140917180000
1280,"Zaoqiang EPA, Hengshui",,37.520698,115.714936,159,77,30,22,3,7,11,11,0,96,0,20140917180000
1281,"Wuyi EPA, Hengshui",,37.801554,115.898697,156,79,11,16,8,7,11,11,0,96,0,20140917180000
1282,"Wuqiang EPA , Hengshui",,38.03557,115.959767,162,85,17,22,6,9,11,11,0,96,0,20140917180000
1283,"Raoyang EPA , Hengshui",,38.230652,115.741041,164,77,22,20,6,6,11,11,0,96,0,20140917180000
1284,"Gucheng County , Hengshui",,37.347569,115.966707,175,89,18,12,7,6,11,11,0,96,0,20140917180000
471,Hengshui,,37.739562,115.676066,165,87,18,24,15,10,11,11,0,96,0,20140917180000
1176,"Xinji City Hall, Xinji",,37.949711,115.230084,169,85,12,24,10,11,11,11,0,96,0,20140917180000
474,"Qinjian street, Tianjin",,39.166588,117.15104,169,88,11,33,20,13,15,12,1021,82,1,20140917180000
475,"Nanjing Road, Tianjin",,39.120958,117.195112,167,73,10,29,24,14,15,12,1021,82,1,20140917180000
476,"Dazhigu No.8 road, Tianjin",,39.111811,117.25147,160,66,11,39,18,15,15,12,1021,82,1,20140917180000
477,"Qianjin street, Tianjin",,39.09371,117.207981,160,73,11,36,23,9,15,12,1021,82,1,20140917180000
478,"Huaihe street, Tianjin",,39.227167,117.191293,160,80,10,19,6,9,15,12,1021,82,1,20140917180000
479,"Xiangshan street, Tianjin",,39.134752,117.275125,169,72,15,23,15,13,15,12,1021,82,1,20140917180000
480,"Yuejin Road, Tianjin",,39.088177,117.320884,167,85,10,27,7,11,15,12,1021,82,1,20140917180000
482,"No.4 street, Tianjin",,39.035228,117.713424,-,-,-,-,-,-,-,-,0,-,-,20140917180000
483,"Yongming road, Tianjin",,38.840392,117.463805,182,94,13,25,17,14,15,12,1021,82,1,20140917180000
484,"Xinhua street, Tianjin",,39.138671,117.010083,-,-,-,-,-,-,-,-,0,-,-,20140917180000
485,"Jingu Road, Tianjin",,38.985659,117.381254,-,-,-,-,-,-,-,-,0,-,-,20140917180000
486,"Tanggu Yingkou street, Tianjin",,39.021768,117.656454,-,-,-,-,-,-,-,-,0,-,-,20140917180000
487,"Hexi Yijing road, Tianjin",,39.248392,117.798043,-,-,-,-,-,-,-,-,0,-,-,20140917180000
488,"Jianshe Road, Tianjin",,39.720075,117.310588,-,-,-,-,-,-,-,-,0,-,-,20140917180000
489,"Quanzhou South road, Tianjin",,39.373857,117.050329,-,-,-,-,-,-,-,-,0,-,-,20140917180000
490,"Donghuan road, Tianjin",,40.043144,117.451062,-,-,-,-,-,-,-,-,0,-,-,20140917180000
491,"Tuanpowa, Tianjin",,38.920418,117.16299,170,79,19,21,10,13,15,12,1021,82,1,20140917180000
493,"Beiwei No.2 road, Tianjin",,38.943857,116.920624,-,-,-,-,-,-,-,-,0,-,-,20140917180000
494,"Haitai fazhan No.2 road, Tianjin",,39.079608,117.096583,-,-,-,-,-,-,-,-,0,-,-,20140917180000
495,"Hangtian road, Tianjin",,39.152244,117.381309,164,91,7,38,17,10,15,12,1021,82,1,20140917180000
496,"Hanbei road, Tianjin",,39.159768,117.770477,152,68,12,33,9,13,15,12,1021,82,1,20140917180000
497,"Baobai highway, Tianjin",,39.51757,117.349635,-,-,-,-,-,-,-,-,0,-,-,20140917180000
498,Tianjin,,39.085164,117.207281,167,73,10,36,24,14,15,12,1021,82,1,20140917180000
499,"Wolong bridge, Hangzhou",,30.24371,120.132762,74,35,34,8,4,4,25,21,1015,78,2,20140917180000
500,"Hemu primary school, Hangzhou",,30.309669,120.124507,74,40,47,15,4,8,25,21,1014,78,3,20140917180000
501,"Zhejiang Agricultural University, Hangzhou",,30.265601,120.197583,80,49,35,11,6,5,25,21,1014,78,3,20140917180000
502,"Xiasha, Hangzhou",,30.303516,120.352618,80,39,44,3,4,3,25,21,1015,78,2,20140917180000
503,"Yunqi, Hangzhou",,30.178555,120.093142,89,48,39,6,6,7,25,21,1014,78,3,20140917180000
504,"Xixi, Hangzhou",,30.272425,120.068144,85,31,28,11,3,7,25,21,1014,78,3,20140917180000
505,"Chengxiang town, Hangzhou",,30.179493,120.274184,93,54,41,11,11,5,25,21,1014,78,3,20140917180000
506,"Qiandao lake, Hangzhou",,29.638139,119.031092,164,78,46,5,7,4,25,21,1014,78,3,20140917180000
507,"Linping town, Hangzhou",,30.415948,120.305059,104,54,39,15,12,5,25,21,1014,78,3,20140917180000
509,"No.2 Middle School, Hangzhou",,30.044303,119.956356,102,55,17,8,5,6,25,21,1014,78,3,20140917180000
510,"City Hall, Hangzhou",,30.234185,119.723503,76,55,46,6,5,6,25,21,1015,78,2,20140917180000
511,"No. 4 middle school, Hangzhou",,30.229428,119.699591,80,55,28,8,7,7,25,21,1015,78,2,20140917180000
512,Hangzhou,,30.271756,120.159765,127,49,41,11,6,7,25,21,1014,78,3,20140917180000
513,"City Station, Wenzhou",,28.009715,120.679129,78,34,21,12,2,13,25,24,0,96,1,20140917180000
514,"Ouhai, Wenzhou",,28.001846,120.641982,74,41,15,15,1,5,25,24,0,96,1,20140917180000
515,"Longwan, Wenzhou",,27.968122,120.768393,65,37,29,13,3,6,25,24,0,96,1,20140917180000
516,"Nanpu, Wenzhou",,27.981763,120.683685,78,47,17,12,2,9,25,24,0,96,1,20140917180000
517,Wenzhou,,27.990985,120.703425,78,47,21,15,2,13,25,24,0,96,1,20140917180000
518,"Monitoring station, Jiaxing",,30.75437,120.767373,76,35,34,14,5,5,24,18,1015,69,4,20140917180000
519,"Jiaxing University, Jiaxing",,30.745099,120.735004,89,38,34,9,7,7,24,18,1015,69,4,20140917180000
520,"Qinghe Primary School, Jiaxing",,30.775685,120.747969,65,34,34,10,5,6,24,18,1015,69,4,20140917180000
521,Jiaxing,,30.751627,120.762862,89,35,34,14,7,7,24,18,1015,69,4,20140917180000
522,"Chengbei water plant, Huzhou",,30.891155,120.096593,85,42,23,16,14,6,24,18,1015,69,4,20140917180000
523,"Jishan new village, Huzhou",,30.859939,120.120168,104,43,33,16,10,7,24,17,1015,65,4,20140917180000
524,"Town west water plant, Huzhou",,30.862371,120.084577,82,40,30,8,8,5,24,18,1015,69,4,20140917180000
525,Huzhou,,30.892304,120.091694,93,44,31,16,14,7,24,18,1015,69,4,20140917180000
526,"Donghu middle school, Shaoxing",,29.990447,120.647547,95,51,39,17,18,9,25,21,1014,78,3,20140917180000
527,"City EPA station, Shaoxing",,30.001695,120.584318,72,49,43,13,12,6,25,21,1015,78,2,20140917180000
528,"Chengdong BDA committee, Shaoxing",,29.986643,120.613578,112,43,38,16,16,4,25,21,1014,78,3,20140917180000
529,"Paojiang station, Shaoxing",,30.07574,120.62154,95,50,38,13,15,7,25,21,1014,78,3,20140917180000
530,"Shaoxing technical school, Shaoxing",,29.930983,120.577131,114,53,13,9,7,4,25,21,1014,78,3,20140917180000
531,"Library, Shaoxing",,29.706266,120.253183,112,61,38,4,7,7,25,21,1015,78,2,20140917180000
532,"Transporation management station, Shaoxing",,29.726405,120.221602,107,69,34,1,6,5,25,21,1014,78,3,20140917180000
533,"Dongpu Town Governement, Shaoxing",,30.049601,120.539893,87,47,31,11,14,5,25,21,1015,78,2,20140917180000
534,Shaoxing,,29.993122,120.590182,137,50,43,16,29,9,-,-,0,-,-,20140917180000
535,"City Monitoring Station, Jinhua",,29.100031,119.690373,162,63,34,12,18,12,23,23,0,98,1,20140917180000
536,"No.15 middle school, Jinhua",,29.074022,119.652121,160,60,35,6,11,8,23,23,0,98,1,20140917180000
537,"No.4 middle school, Jinhua",,29.110109,119.653654,168,67,26,4,14,9,23,23,0,98,1,20140917180000
538,"Beiyuan, Jinhua",,29.332898,120.083351,124,67,35,12,10,9,23,23,0,98,1,20140917180000
539,"Jiangdong, Jinhua",,29.302486,120.095291,153,68,43,12,13,10,23,23,0,98,1,20140917180000
540,Jinhua,,29.076083,119.65215,168,61,35,12,15,12,23,23,0,98,1,20140917180000
541,"EPA building, Quzhou",,28.937291,118.876081,127,71,29,24,14,8,28,25,1013,79,1,20140917180000
542,"Experimental school, Quzhou",,28.961502,118.880916,129,59,24,18,11,4,28,25,1013,79,1,20140917180000
543,"Quzhou University, Quzhou",,28.971452,118.860052,147,58,9,23,7,4,28,25,1013,79,1,20140917180000
544,Quzhou,,28.966994,118.864252,147,67,23,24,14,9,28,25,1013,79,1,20140917180000
545,"Putuo east port, Zhoushan",,29.951412,122.317679,57,22,52,1,4,3,25,23,1015,89,3,20140917180000
546,"Dinghai tanfeng, Zhoushan",,30.018014,122.126566,57,19,44,4,4,9,25,23,1014,89,3,20140917180000
547,Zhoushan,,29.983049,122.210763,55,15,42,4,4,9,25,23,1014,89,3,20140917180000
548,"Taizhou EPA building, Taizhou",,28.651216,121.42331,82,37,39,4,9,5,25,24,0,94,1,20140917180000
549,"Luqiao Tian Yang Wang, Taizhou",,28.574364,121.381194,87,47,36,4,2,5,25,24,0,94,1,20140917180000
550,"Huangyan EPA building, Taizhou",,28.656151,121.285064,97,40,34,4,2,9,25,24,0,94,1,20140917180000
551,"Yu Zhuang Qian, Lishui",,28.419638,119.883884,99,50,28,16,3,6,27,24,1013,80,1,20140917180000
552,"Monitoring station building, Lishui",,28.444379,119.923103,112,55,24,10,3,7,27,24,1013,80,1,20140917180000
553,"Liandu primary school, Lishui",,28.450912,119.939332,104,66,21,14,2,7,28,24,1014,73,0,20140917180000
554,Lishui,,28.464224,119.927201,112,55,24,10,3,7,27,24,1013,80,1,20140917180000
1248,Jingningxian,,27.977454,119.634837,30,30,3,8,2,5,27,24,1013,80,1,20140917180000
555,Taigu Primary School,,29.864178,121.60022,78,43,28,22,7,7,25,23,1015,89,3,20140917180000
556,Qianhu shuihan,,29.862459,121.5328,89,48,28,9,5,6,25,23,1014,89,3,20140917180000
557,Sanjiang secondary schools,,29.891563,121.568427,80,50,24,20,17,7,25,23,1015,89,3,20140917180000
558,Longsai Hospital,,29.957301,121.726734,76,33,29,14,8,8,25,23,1015,89,3,20140917180000
559,Beilun District EPB,,29.911633,121.850773,65,30,33,13,6,6,25,23,1015,89,3,20140917180000
560,Wanli University,,29.821314,121.574364,72,35,38,6,5,5,25,23,1015,89,3,20140917180000
561,Qianhu water plant,,29.774416,121.648136,65,27,38,4,76,5,25,23,1015,89,3,20140917180000
562,Municipal management station,,29.899182,121.626691,74,47,30,9,48,6,25,23,1015,89,3,20140917180000
1177,Daxie Literary Museum,,29.9027,121.986447,68,40,39,7,4,6,25,23,1015,89,3,20140917180000
1178,Cixi EPB,,30.165807,121.248991,78,31,41,8,8,14,25,23,1015,89,3,20140917180000
1179,Cixi Experimently Primary School,,30.179808,121.268672,80,50,44,7,7,8,25,23,1015,89,3,20140917180000
1180,"Yongsan Park, Yuyao",,30.050842,121.162477,109,53,35,7,6,6,25,23,1015,89,3,20140917180000
1181,"Qilupu Water Company, Yuyao",,30.039112,121.133416,93,43,33,7,6,3,25,23,1015,89,3,20140917180000
1182,Fenghua EPB,,29.666557,121.42069,89,40,37,2,3,8,25,23,1015,89,3,20140917180000
1183,"Yuelong station, Ninghai",,29.296505,121.445872,89,53,35,3,3,5,25,23,1015,89,3,20140917180000
1184,"Wenfeng Primary School, Xiangshan",,29.470908,121.889544,82,29,40,7,6,6,25,23,1015,89,3,20140917180000
1185,"Chengnan Primary School, Ninghai",,29.293812,121.43666,99,41,41,1,4,5,25,23,1015,89,3,20140917180000
1186,"Xingang Primary School, Xiangshan",,29.203878,121.952514,65,45,41,6,3,6,25,23,1015,89,3,20140917180000
1356,Haishu City Monitoring Center,,29.86835,121.539341,89,48,28,9,5,6,25,23,1015,89,3,20140917180000
1357,Fenghua Xikou government,,29.693164,121.29331,102,52,30,5,4,6,25,23,1015,89,3,20140917180000
1294,Ningbo,,29.865766,121.548164,80,50,38,22,48,8,25,23,1015,89,3,20140917180000
1187,Fuyang,,30.046157,119.96468,102,55,17,8,5,6,-,-,0,-,-,20140917180000
1188,Yiwu,,29.304353,120.079794,153,68,43,12,13,10,-,-,0,-,-,20140917180000
1189,Zhuji,,29.711185,120.240748,112,69,34,8,7,7,25,21,1014,78,1,20140917180000
563,"Shanxi Road , Nanjing",,32.06795,118.779216,91,50,20,17,7,2,22,19,1015,83,6,20140917180000
564,"Ruijin Road , Nanjing",,32.029321,118.80817,85,42,13,14,10,9,21,19,1015,88,4,20140917180000
565,"Xuanwu Lake, Nanjing",,32.075423,118.800188,78,46,14,18,7,4,21,19,1015,88,4,20140917180000
566,"Olympic Center, Nanjing",,32.007171,118.742217,78,55,26,6,3,4,22,19,1015,83,6,20140917180000
567,"Xianlin University Town , Nanjing",,32.106958,118.919882,65,50,19,7,4,4,21,19,1015,88,4,20140917180000
568,Nanjing,,32.058179,118.802061,80,54,20,17,13,2,21,19,1015,88,4,20140917180000
569,"Shangfang hill , Suzhou",,31.24502,120.565211,87,46,18,23,9,7,24,18,1015,69,4,20140917180000
570,"Wuzhong District , Suzhou",,31.268105,120.61717,70,46,18,23,7,6,24,18,1015,69,4,20140917180000
571,"Suzhou New District , Suzhou",,31.297277,120.547262,80,40,20,17,15,7,24,18,1015,69,4,20140917180000
572,"Suzhou Industrial Area, Suzhou",,31.307603,120.673257,70,37,18,18,7,13,24,18,1015,69,4,20140917180000
573,"Xiangcheng district, Suzhou",,31.368674,120.645209,70,36,22,20,9,7,24,18,1015,69,4,20140917180000
574,Suzhou,,31.296701,120.589493,82,43,18,20,9,7,24,18,1015,69,4,20140917180000
575,"South suburb , Nantong",,31.957836,120.917218,61,32,30,8,12,2,21,18,1003,87,4,20140917180000
576,"Xinghu park, Nantong",,31.927873,120.944254,34,41,32,6,19,4,21,18,1003,87,4,20140917180000
577,"Zilang school, Nantong",,32.039638,120.814358,85,39,30,10,6,0,21,18,1003,86,4,20140917180000
578,Nantong,,31.978005,120.898555,65,41,32,6,19,6,21,18,1003,87,4,20140917180000
579,Lianyungang,,34.595509,119.226814,152,84,21,27,10,7,8,8,1016,96,0,20140917180000
580,"Hongmen police substation, Lianyungang",,34.588692,119.146693,76,40,15,11,9,17,16,15,1021,99,3,20140917180000
581,"Xugou Nuclear Expert Village , Lianyungang",,34.749957,119.373707,63,33,30,4,4,7,16,15,1021,99,3,20140917180000
582,"Hengrui pharmaceutical company, BDA, Lianyungang",,34.697574,119.353668,65,27,28,12,4,6,16,15,1021,99,3,20140917180000
583,"City Monitoring Station, Lianyungang",,34.586791,119.186929,91,44,12,13,7,14,16,15,1021,99,3,20140917180000
584,"Yellow river new village , Xuzhou",,34.271542,117.177241,78,46,3,21,20,13,17,16,1020,95,1,20140917180000
585,"Tongshan Veterinary Hospital , Xuzhou",,34.307086,117.197766,76,27,3,43,16,15,16,16,1020,97,1,20140917180000
586,"New Town , Xuzhou",,34.213992,117.261718,85,29,16,10,2,9,17,16,1020,95,1,20140917180000
587,"Taoyuan road, Xuzhou",,34.289822,117.249721,59,41,1,22,8,11,17,16,1020,95,1,20140917180000
588,"Agricultural Science Academy , Xuzhou",,34.27655,117.299079,46,28,5,22,15,10,17,16,1020,95,1,20140917180000
589,"Tongshan EPA, Xuzhou",,34.179384,117.171798,42,31,15,15,8,7,17,16,1020,95,1,20140917180000
590,Xuzhou,,34.20346,117.289825,78,46,15,21,8,13,17,16,1020,95,1,20140917180000
591,Yangzhou,,32.39233,119.418446,159,69,10,19,10,5,11,9,0,90,6,20140917180000
592,"Hanjiang Monitoring Station, Yangzhou",,32.374218,119.394484,53,22,22,3,2,2,19,18,0,96,4,20140917180000
593,"No. 4 Hospital, Yangzhou",,32.401394,119.44444,53,33,25,1,7,1,19,18,0,96,4,20140917180000
594,"City Monitoring Station, Yangzhou",,32.406588,119.41591,80,30,23,2,16,3,19,18,0,96,4,20140917180000
595,"University Town , Wuxi",,31.484752,120.273571,61,31,18,5,10,5,24,18,1015,69,4,20140917190000
596,"Shibei High School , Wuxi",,31.619969,120.279584,89,41,22,9,17,8,24,18,1015,69,4,20140917190000
597,"Yuhong Elementary School , Wuxi",,31.561155,120.249588,72,31,31,10,8,4,24,18,1015,69,4,20140917190000
598,Wuxi,,31.488746,120.31575,76,31,30,9,10,4,-,-,0,-,-,20140917190000
599,Changzhou,,31.808037,119.979205,172,86,6,22,36,13,11,9,0,88,5,20140917190000
600,"Chengjian School, Changzhou",,31.776476,119.937681,72,42,24,12,14,6,21,19,1003,92,4,20140917190000
601,"Changzhou Engineering Institute , Changzhou",,31.806828,119.966724,70,41,22,14,13,7,21,19,1003,92,4,20140917190000
602,"Wujin Monitoring Station, Changzhou",,31.701788,119.939676,87,40,16,13,15,7,21,19,1003,92,4,20140917190000
603,"City Monitoring Station, Changzhou",,31.777201,119.979426,61,35,24,8,11,6,21,19,1003,92,4,20140917190000
604,Zhenjiang,,32.18597,119.431281,170,79,4,39,15,13,9,8,0,93,5,20140917190000
605,"New District Administrative office , Zhenjiang",,32.186174,119.685021,59,47,26,7,7,8,21,19,1015,88,4,20140917190000
696,Taiyuan,,37.871115,112.555178,99,60,2,9,7,12,-,-,0,-,-,20140917190000
606,"Vocational Education Center , Zhenjiang",,32.212973,119.496253,61,39,18,15,4,7,21,19,1015,88,4,20140917190000
607,"Dantu Monitoring Station , Zhenjiang",,32.130026,119.435432,-,-,-,-,-,-,-,-,0,-,-,20140917190000
608,"City Monitoring Station, Zhenjiang",,32.202178,119.439766,57,36,24,14,9,9,21,19,1015,88,4,20140917190000
609,"Gaogang Adminstrative office , Taizhoushi",,32.300768,119.886757,87,19,17,7,10,4,19,18,0,96,4,20140917190000
610,"Students Innovation Park , Taizhoushi",,32.461672,119.892761,80,36,27,3,10,2,19,18,0,96,4,20140917190000
611,Taizhoushi,,32.453555,119.927852,102,39,27,12,15,6,19,18,0,96,4,20140917190000
612,"Yancheng power station , Yancheng",,33.400859,120.123067,55,29,39,6,4,1,-,-,0,-,-,20140917190000
613,Yancheng,,33.345939,120.168504,144,52,30,5,3,7,11,10,1016,95,4,20140917190000
614,"Wenfeng Middle School , Yancheng",,33.370531,120.134041,65,18,38,8,2,3,-,-,0,-,-,20140917190000
615,"BDA Management Committe, Yancheng",,33.393191,120.22978,55,10,38,2,3,2,-,-,0,-,-,20140917190000
616,"City Monitoring Station, Yancheng",,33.390623,120.164423,68,27,38,3,2,3,19,18,0,96,4,20140917190000
617,Suqian,,33.960666,118.281004,160,87,24,7,5,7,11,10,0,91,6,20140917190000
618,"Suqian College , Suqian",,33.951472,118.298523,25,9,28,5,1,7,16,15,0,98,4,20140917190000
619,"Suqian Middle School , Suqian",,33.95784,118.249505,25,22,19,11,8,4,16,15,0,98,4,20140917190000
620,"Suyu District Environmental Protection Agency , Suqian",,33.94932,118.326569,53,14,28,1,2,7,16,15,0,98,4,20140917190000
621,"City Monitoring Station, Suqian",,33.956982,118.277022,63,20,16,4,5,4,16,15,0,98,4,20140917190000
622,Taizhou,,28.653436,121.425185,89,41,38,4,9,9,25,24,0,94,1,20140917190000
623,Donghu Liyuan,,30.572324,114.377844,1,10,8,12,1,7,18,16,1017,88,2,20140917190000
624,Yuehu Lake,,30.554662,114.256937,25,14,10,11,2,7,19,16,1017,83,2,20140917190000
625,Hankou Huaqiao ,,30.61724,114.287652,25,9,9,12,4,9,19,16,1017,83,2,20140917190000
626,Wuchang Ziyang ,,30.530801,114.309438,42,6,11,13,0,5,19,16,1017,83,2,20140917190000
627,Qingshan Ganghua,,30.622435,114.375599,13,13,10,10,0,7,18,16,1017,88,2,20140917190000
628,Dunkou Xinou,,30.480091,114.162176,46,8,7,9,3,10,19,16,1017,83,2,20140917190000
629,Donghu Gaoxin,,30.48095,114.40724,30,9,15,8,1,9,18,16,1017,88,2,20140917190000
630,Wujianshan,,30.63114,114.135907,13,5,9,11,0,9,19,16,1017,83,2,20140917190000
631,Yuanshun Road,,30.297142,113.858587,30,6,14,6,3,8,19,16,1017,83,2,20140917190000
632,Wuhan,,30.590689,114.310838,63,14,8,13,5,7,18,16,1017,88,2,20140917190000
1190,"Silingsan Factory, Yichang",,30.713288,111.306585,91,52,9,11,55,9,18,17,1018,93,2,20140917190000
633,Yichang,,30.689528,111.292131,107,52,16,12,55,10,18,17,1018,93,2,20140917190000
633,Yichang,,30.689528,111.292131,107,52,16,12,55,10,18,17,1018,93,2,20140917190000
1191,"City Library , Jingzhou",,30.31494,112.260844,57,19,10,10,5,12,18,16,1018,83,6,20140917190000
1192,"City committee communist party school, Jingzhou",,30.35054,112.20743,59,23,11,9,4,12,18,15,1018,81,4,20140917190000
1193,"kerong EPA, Jingzhou",,30.302965,112.29443,63,40,19,7,5,12,18,16,1018,83,6,20140917190000
634,Jingzhou,,30.332608,112.245451,63,40,19,10,5,12,18,15,1018,81,4,20140917190000
634,Jingzhou,,30.332608,112.245451,63,40,19,10,5,12,18,15,1018,81,4,20140917190000
635,Huangshi,,30.19723,115.043908,78,51,11,37,25,28,23,16,1017,100,2,20140917190000
635,Huangshi,,30.19723,115.043908,78,51,11,37,25,28,23,16,1017,100,2,20140917190000
1194,"Chenjiaying, Huangshi",,30.232823,115.067923,53,45,6,8,3,23,23,,1017,100,2,20140917190000
1195,"Chenjiawan , Huangshi",,30.200422,115.082138,72,38,7,10,5,24,23,,1017,100,2,20140917190000
1196,"Xinxialu, Huangshi",,30.17332,114.954357,78,51,8,37,25,28,23,,1017,100,2,20140917190000
1197,"Tie montian, Huangshi",,30.203885,114.906439,68,29,4,11,4,11,23,,1017,100,2,20140917190000
1198,"BDA, Huangshi",,30.207491,115.031739,55,31,11,8,1,18,23,,1017,100,2,20140917190000
636,Shiyan,,32.627208,110.803311,61,15,3,22,5,8,15,,1021,100,1,20140917190000
636,Shiyan,,32.627208,110.803311,61,15,3,22,5,8,15,,1021,100,1,20140917190000
1199,"Wudang Mountain , Shiyan",,32.392921,111.047655,-,-,-,-,-,-,-,,,-,-,20140917190000
1200,"Riverside Village , Shiyan",,32.647286,110.785335,46,16,3,9,5,8,15,,,100,1,20140917190000
1201,"Liujiagou , Shiyan",,32.636732,110.731129,61,13,2,22,2,8,15,,,100,1,20140917190000
637,Xiangyang,,32.007029,112.128496,55,13,7,10,4,11,16,,1021,99,3,20140917190000
637,Xiangyang,,32.007029,112.128496,55,13,7,10,4,11,16,,1021,99,3,20140917190000
638,Ezhou,,30.389244,114.899884,50,20,11,6,2,16,21,16,1025,100,5,20140917190000
638,Ezhou,,30.389244,114.899884,50,20,11,6,2,16,21,16,1025,100,5,20140917190000
1203,"City government, Ezhou",,30.391836,114.892822,42,10,7,6,2,16,21,,1025,100,5,20140917190000
1204,"Zhaojiaba, Ezhou",,30.368966,114.90365,38,24,4,6,1,23,21,,1025,100,5,20140917190000
1205,"Fankou BDA, Ezhou",,30.410759,114.818225,50,20,11,6,1,16,21,,1025,100,5,20140917190000
640,Xiaogan,,30.922089,113.922387,61,28,6,5,-,11,19,16,1017,82,2,20140917190000
640,Xiaogan,,30.922089,113.922387,61,28,6,5,-,11,19,16,1017,82,2,20140917190000
1206,"wenhua street, Shenyang , Xiaogan",,30.925856,113.92104,25,33,3,8,-,18,19,16,1017,82,2,20140917190000
1207,"Dongcheng District , Huludao , Xiaogan",,30.917963,113.943904,61,21,6,1,-,5,19,16,1017,82,2,20140917190000
641,Huanggang,,30.45124,114.877378,30,9,12,6,2,9,21,16,1025,100,5,20140917190000
641,Huanggang,,30.45124,114.877378,30,9,12,6,2,9,21,16,1025,100,5,20140917190000
1208,"Dazhou Island, Huanggang",,30.446205,114.900323,13,22,11,16,5,8,21,,1025,100,5,20140917190000
1209,"Workers Center , Huanggang",,30.469244,114.912504,30,9,12,6,2,9,21,,1025,100,5,20140917190000
642,Xianning,,29.838978,114.327898,70,41,11,20,2,18,22,16,990,99,1,20140917190000
642,Xianning,,29.838978,114.327898,70,41,11,20,2,18,22,16,990,99,1,20140917190000
1210,"Municipal Development and Reform Commission , Xianning",,29.818645,114.328461,65,41,9,16,1,19,22,,990,99,1,20140917190000
1211,"Xianan District Governement, Xianning",,29.51107,114.181864,80,45,6,17,5,22,21,,999,100,2,20140917190000
1212,"Yangtze River Industrial Park , Xianning",,29.883098,114.32909,65,38,11,20,1,18,22,,990,99,1,20140917190000
1213,"Qianshan Park, Xianning",,29.815351,114.328689,70,41,8,14,1,14,22,,990,99,1,20140917190000
643,Suizhou,,31.688342,113.388675,55,29,10,5,3,12,17,,1013,99,4,20140917190000
643,Suizhou,,31.688342,113.388675,55,29,10,5,3,12,17,,1013,99,4,20140917190000
1338,"City committee communist party school, Suizhou",,31.725316,113.3648,53,30,11,5,-,9,17,,1013,99,4,20140917190000
1339,"Forestry Bureau, Suizhou",,31.690065,113.383157,-,-,-,-,-,-,-,,0,-,-,20140917190000
1214,"Xiangcheng Yundong Street, Xiangfan",,32.017716,112.16102,-,-,-,-,-,-,-,,0,-,-,20140917190000
655,"City Environmental Monitoring Station, Baotou",,40.657201,109.886738,147,91,6,34,12,10,,,0,,,20140917190000
656,"Donghe EPB, Baotou",,40.586213,110.002224,157,150,9,35,14,14,,,0,,,20140917190000
657,"Baotou shopping mall, Baotou",,40.508334,109.819085,158,118,8,39,16,12,,,0,,,20140917190000
658,"Huilong logistics, Baotou",,40.633436,109.879821,42,114,9,38,11,7,,,0,,,20140917190000
659,Baotou,,40.658597,109.846051,159,151,17,43,16,14,13,10,0,81,1,20140917190000
660,"Huatai Automobile Mall, Eerduosi",,39.837048,109.972209,114,54,56,22,1,8,13,10,1020,81,1,20140917190000
661,"Olympus Garden, Eerduosi",,39.789171,109.987742,147,69,47,24,3,10,13,10,1020,81,1,20140917190000
662,Eerduosi,,39.609284,109.78704,154,79,56,24,13,15,13,10,1020,81,1,20140917190000
663,"Tianyi Road, Chifeng",,42.275552,118.88507,72,55,34,12,49,11,10,0,1022,37,1,20140917190000
664,"Songshan No.1 Middle School, Chifeng",,42.329307,118.793045,89,118,26,17,10,13,12,1,1022,34,1,20140917190000
665,"Hada Street, Chifeng",,42.280714,118.988235,65,76,16,7,15,4,10,0,1022,37,1,20140917190000
666,"Songshan Road, Chifeng",,42.171487,118.89501,127,134,35,9,15,11,12,1,1022,34,1,20140917190000
667,Chifeng,,42.259752,118.893027,127,134,35,17,15,13,12,1,1022,34,1,20140917190000
674,Fuzhou,,26.071406,119.301294,74,55,105,17,6,7,27,25,1014,89,1,20140917190000
675,"Xidong, Xiamen",,24.815345,118.161848,87,34,56,9,2,4,29,27,1013,89,1,20140917190000
676,"Hongwen, Xiamen",,24.473969,118.156281,61,32,43,8,4,5,29,27,1013,89,1,20140917190000
677,"Gulangyu, Xiamen",,24.443168,118.068571,80,43,38,16,14,5,29,27,1013,89,1,20140917190000
678,"Huli, Xiamen",,24.51235,118.099146,93,49,32,6,1,4,29,27,1013,89,1,20140917190000
679,Xiamen,,24.477187,118.094402,93,49,38,16,14,5,-,-,0,-,-,20140917190000
680,"Qingyuan Montain, Quanzhou",,24.939503,118.598337,78,28,59,5,3,5,29,27,1013,89,1,20140917190000
681,"Tushan Street, Quanzhou",,24.90867,118.586397,74,34,107,5,2,5,29,27,1013,89,1,20140917190000
682,"Wanan, Quanzhou",,24.304154,118.070903,80,44,39,12,1,1,29,27,1013,89,1,20140917190000
683,Quanzhou,,24.87179,118.68001,82,44,39,12,3,4,29,27,1013,89,1,20140917190000
687,"Jiancaoping, Taiyuan",,37.887889,112.528383,91,51,2,9,7,12,10,9,1023,94,1,20140917190000
688,"Jianhe, Taiyuan",,37.910779,112.579258,91,64,2,3,7,13,11,9,1024,88,0,20140917190000
689,"Shanglan, Taiyuan",,38.011589,112.440679,72,44,5,8,4,6,11,9,1024,88,0,20140917190000
690,"Jinyuan, Taiyuan",,37.713164,112.475552,134,63,2,5,8,13,10,9,1023,94,1,20140917190000
691,"Xiaodian, Taiyuan",,37.782137,112.483533,109,70,11,7,8,10,10,9,1023,94,1,20140917190000
692,"Taoyuan, Taiyuan",,37.869752,112.543332,99,60,2,1,6,13,10,9,1023,94,1,20140917190000
693,"Wucheng, Taiyuan",,37.819998,112.576252,95,59,2,10,5,13,10,9,1023,94,1,20140917190000
694,"Nanzhai, Taiyuan",,37.985902,112.555312,63,30,5,10,9,11,10,9,1023,94,1,20140917190000
695,"Jinsheng, Taiyuan",,37.781205,112.494494,78,52,3,7,14,12,11,9,1024,88,0,20140917190000
697,"Monitoring station, Changzhi",,36.194062,113.10389,65,27,15,12,5,9,14,14,0,100,2,20140917190000
698,"Auditing bureau, Changzhi",,36.212787,113.095221,91,38,6,28,5,9,14,14,0,100,2,20140917190000
699,"Qinghua station, Changzhi",,36.154328,113.116385,46,23,10,19,6,14,14,14,0,100,2,20140917190000
700,"No.8 middle school, Changzhi",,36.185451,113.099481,72,30,12,21,11,11,,,0,,,20140917190000
701,Changzhi,,36.195553,113.12292,91,38,15,28,11,14,17,16,0,96,1,20140917190000
702,"Yungang Hotel, Datong",,40.076997,113.278079,99,64,9,18,3,9,5,4,1023,96,1,20140917190000
703,"college of education, Datong",,40.085608,113.27808,153,63,10,20,9,14,10,3,1023,62,1,20140917190000
704,Datong,,40.078016,113.307143,153,102,10,26,20,21,10,3,1023,62,1,20140917190000
705,"Technical Schools, Linfen",,36.07131,111.509046,157,77,8,27,17,25,9,8,0,89,1,20140917190000
706,"Municipal party committee, Linfen",,36.087425,111.508771,107,58,11,1,50,16,9,8,0,89,1,20140917190000
1073,"City Monitoring Station, Linfen",,36.097676,111.518739,159,82,17,29,16,15,9,7,0,89,2,20140917190000
707,"South Airport, Linfen",,36.041614,111.497968,147,54,4,23,2,3,9,8,0,89,1,20140917190000
708,Linfen,,36.087944,111.525098,159,82,17,29,50,25,9,7,0,89,2,20140917190000
709,"City center, Yangquan",,37.848012,113.578636,109,65,5,20,6,6,10,9,1023,94,1,20140917190000
710,Yangquan,,37.857475,113.586921,65,113,11,6,35,12,10,9,1024,94,1,20140917190000
711,"Water Company, Jincheng",,35.504787,112.857245,61,31,6,20,3,13,13,12,1021,96,1,20140917190000
712,"Baiyun shopping mall, Jincheng",,35.492858,112.841566,30,0,5,6,3,16,13,12,1021,96,1,20140917190000
713,"City EPA, Jincheng",,35.488422,112.858528,30,19,6,13,3,17,13,12,1021,96,1,20140917190000
714,"Institute of Technology, Jincheng",,35.484844,112.878073,53,62,8,14,11,16,15,15,1021,97,1,20140917190000
715,"No.1 middle school, Jincheng",,35.478725,112.838636,25,20,4,15,3,11,13,12,1021,96,1,20140917190000
716,Jincheng,,35.490287,112.85794,53,62,6,22,4,17,15,15,1021,97,1,20140917190000
718,"District Government, Shuozhou",,39.320857,112.430641,85,85,8,17,32,25,10,9,1024,89,1,20140917190000
719,"City EPA, Shuozhou",,39.331495,112.407997,85,66,8,17,11,25,14,11,1023,75,2,20140917190000
720,"No.2 middle school, Shuozhou",,39.377963,112.432877,149,87,14,27,14,11,14,11,1023,75,2,20140917190000
721,Shuozhou,,39.332756,112.439672,157,95,14,26,30,25,10,9,1024,89,1,20140917190000
722,"Jinlun compound, Jinzhong",,37.697891,112.771017,57,40,6,7,5,12,10,9,1023,94,1,20140917190000
723,"Hydraulic Component Factory, Jinzhong",,37.688355,112.725844,85,67,3,23,7,11,10,9,1023,94,1,20140917190000
724,"Nandu compound, Jinzhong",,37.713148,112.732036,63,46,2,6,3,10,10,9,1024,94,1,20140917190000
725,"Yuci district government, Jinzhong",,37.698228,112.714167,65,48,5,7,4,10,10,9,1024,94,1,20140917190000
726,Jinzhong,,37.687705,112.759187,85,67,3,23,7,12,10,9,1023,94,1,20140917190000
727,"Yuncheng Middle School, Yuncheng",,35.012345,111.003215,91,67,18,6,9,29,17,16,1021,91,1,20140917190000
728,"Yudou BDA, Yuncheng",,35.05065,111.029571,112,79,11,22,5,13,17,16,1022,90,1,20140917190000
730,"Regional Technical School, Yuncheng",,35.028727,110.974076,147,52,22,20,-,16,17,16,1021,87,0,20140917190000
731,"Airport new district, Yuncheng",,35.084515,111.05339,93,55,17,12,30,28,17,16,1022,90,1,20140917190000
732,Yuncheng,,35.025675,111.013344,112,79,17,22,30,28,-,-,0,-,-,20140917190000
733,"Jiyin, Xinzhou",,38.413292,112.742432,134,70,5,12,39,19,10,9,1023,94,1,20140917190000
734,"BDA, Xinzhou",,38.450069,112.736723,89,29,4,3,7,16,10,9,1023,94,1,20140917190000
735,"Convention Center, Xinzhou",,38.492043,112.709772,87,40,6,8,31,18,10,9,1023,94,1,20140917190000
736,Xinzhou,,38.417244,112.740742,134,70,5,12,39,19,10,9,1023,94,1,20140917190000
737,"City EPA, Luliang",,37.522189,111.144365,57,55,5,11,14,18,13,12,0,97,3,20140917190000
738,"Soybean factory, Luliang",,37.51689,111.135101,89,66,4,67,19,20,13,12,0,97,3,20140917190000
739,"Water Company, Luliang",,37.53394,111.138834,89,78,7,7,3,22,13,12,0,97,3,20140917190000
740,Luliang,,25.027007,103.668566,89,78,4,67,19,20,15,14,0,97,6,20140917190000
741,"City government, Sanmenxia",,34.776251,111.198781,72,53,8,13,8,10,17,16,1021,91,1,20140917190000
743,"BDA, Sanmenxia",,34.800434,111.204332,97,46,9,14,4,6,17,16,1021,91,1,20140917190000
744,Sanmenxia,,34.771506,111.206129,104,54,8,14,8,20,17,16,1021,91,1,20140917190000
745,"Food Factory, Changchun",,43.919094,125.329521,129,119,2,37,7,10,7,4,1020,81,1,20140917190000
746,"Bus Factory, Changchun",,43.912337,125.293431,87,59,2,39,10,8,7,4,1020,81,1,20140917190000
747,"Institute of Posts and Telecommunications, Changchun",,43.842368,125.285005,109,85,1,41,5,13,7,4,1020,81,1,20140917190000
748,"Laodong Park, Changchun",,43.877293,125.371519,117,83,2,33,5,16,7,4,1020,81,1,20140917190000
749,"Forest area, Changchun",,43.871825,125.331519,119,68,2,41,9,11,7,4,1020,81,1,20140917190000
750,"Jinyuetan, Changchun",,43.79031,125.460561,70,40,19,8,1,3,7,4,1020,81,1,20140917190000
751,"Shuaiwanzi, Changchun",,43.552321,125.639086,-,-,-,-,-,-,-,-,0,-,-,20140917190000
752,"Economic Development Zone Sanitation Department, Changchun",,43.869221,125.42365,117,107,3,20,3,8,7,4,1020,81,1,20140917190000
753,"High-tech Zone Administrative Committee, Changchun",,43.819064,125.256375,-,-,-,-,-,-,-,-,0,-,-,20140917190000
754,"Daishan Park, Changchun",,43.852365,125.223399,117,91,2,38,6,7,7,4,1020,81,1,20140917190000
755,Changchun,,43.819415,125.329977,117,85,2,41,5,16,-,-,0,-,-,20140917190000
756,"Hadawan, Jilin",,43.888081,126.545727,160,132,17,24,12,9,4,2,0,84,1,20140917190000
757,"Fengman, Jilin",,43.768169,126.678802,53,17,31,4,2,4,4,2,0,84,1,20140917190000
758,"Electric Power College, Jilin",,43.827403,126.502281,80,50,13,11,2,6,4,2,0,84,1,20140917190000
759,"Jiangnan Park, Jilin",,43.83531,126.556519,97,59,8,25,3,6,4,2,0,84,1,20140917190000
760,"Dongjuzi, Jilin",,43.838597,126.590068,80,68,4,28,3,7,4,2,0,84,1,20140917190000
763,Jilin,,43.840137,126.555262,171,132,30,28,12,9,4,2,0,84,1,20140917190000
764,"Lingbei, Haerbin",,45.756979,126.548008,74,53,29,32,8,2,6,6,1020,100,0,20140917190000
765,"Songbei Commercial University, Haerbin",,45.818624,126.566963,93,53,3,22,8,5,6,6,1020,100,0,20140917190000
766,"Acheng huining, Haerbin",,45.544286,126.985183,102,69,28,9,4,8,6,6,1020,100,0,20140917190000
767,"Nangang College Street, Haerbin",,45.724121,126.604906,117,52,34,33,7,7,6,6,1020,100,0,20140917190000
768,"Taiping Hongwei Park, Haerbin",,45.775332,126.695101,107,64,27,23,5,8,6,5,1020,93,1,20140917190000
769,"Daowai Chengde Square, Haerbin",,45.768637,126.640955,76,54,31,27,5,4,6,5,1020,93,1,20140917190000
770,"Xiangfang Hongqi Street, Haerbin",,45.733936,126.691083,68,54,-,8,7,10,6,5,1020,93,1,20140917190000
771,"Dongli Heping Road, Haerbin",,45.727765,126.651974,142,59,30,31,8,12,6,5,1020,93,1,20140917190000
772,"Daoli Jianguo Road, Haerbin",,45.749715,126.59891,74,55,29,26,15,5,6,5,1020,93,1,20140917190000
773,"Pingfang Light Factory, Haerbin",,45.611951,126.620898,109,50,5,28,5,11,6,6,1020,100,0,20140917190000
774,"Hulan Normal College, Haerbin",,45.983745,126.616553,85,26,32,17,8,5,6,5,1020,93,1,20140917190000
775,"Provincial Academy of Agricultural Sciences, Haerbin",,45.686141,126.626517,112,66,26,30,12,6,6,5,1020,93,1,20140917190000
776,Haerbin,,45.805757,126.541007,93,53,29,32,8,5,-,-,0,-,-,20140917190000
777,"Anju Compound, Qiqihaer",,47.365672,123.937016,74,60,31,28,5,7,12,9,1021,80,1,20140917190000
778,"Farming Vehicule Factory, Qiqihaer",,47.326793,123.961427,76,30,32,18,4,11,12,9,1021,80,1,20140917190000
779,"Fuqu EPA, Qiqihaer",,47.1853,123.62322,87,37,34,4,2,7,12,9,1021,80,1,20140917190000
780,"City Center Square, Qiqihaer",,47.343096,123.96192,76,40,19,9,2,9,12,9,1021,80,1,20140917190000
1217,"City Environmental Monitoring Station, Qiqihaer",,47.303639,123.957551,95,51,26,16,4,9,12,9,1021,80,1,20140917190000
781,Qiqihaer,,47.356387,123.924736,95,60,34,28,5,11,12,9,1021,80,1,20140917190000
782,"Saertu District, Daqing",,46.582368,125.152904,61,28,30,4,10,2,8,7,1020,92,0,20140917190000
783,"Datong District, Daqing",,46.036786,124.842115,104,30,36,3,5,4,8,7,1020,92,0,20140917190000
784,"Honggang District, Daqing",,46.418381,124.88973,-,-,-,-,-,-,-,-,0,-,-,20140917190000
785,"Longfeng District, Daqing",,46.535426,125.107043,89,30,37,9,6,5,15,10,1019,63,2,20140917190000
786,"Ranghulu District, Daqing",,46.635123,124.85648,63,50,40,15,6,4,8,7,1020,92,0,20140917190000
787,Daqing,,46.591414,125.110838,104,50,40,15,10,4,8,7,1020,92,0,20140917190000
788,"Locomotive Factory, Mudanjiang",,44.610589,129.652672,78,73,27,6,1,4,5,4,1019,88,1,20140917190000
789,"No. 1 hospital, Mudanjiang",,44.567775,129.617043,76,63,25,12,3,5,5,4,1019,88,1,20140917190000
1220,"EPA building, Mudanjiang",,44.567777,129.620658,112,51,6,7,1,4,5,4,1019,88,1,20140917190000
1221,"Cultural Square, Mudanjiang",,44.586388,129.623164,127,63,1,12,6,7,5,4,1019,88,1,20140917190000
790,Mudanjiang,,44.553619,129.640246,127,73,28,12,11,7,5,4,1019,88,1,20140917190000
791,"Mingzhu Plaza, Hefei",,31.782847,117.201512,147,21,49,6,7,12,19,18,1016,94,4,20140917190000
792,"Sanli Street, Hefei",,31.874637,117.312573,59,29,36,6,5,3,19,18,1016,94,4,20140917190000
793,"Hupo Compound, Hefei",,31.868583,117.264491,61,22,29,2,9,5,19,18,1016,94,4,20140917190000
794,"Dongpu Reservoir, Hefei",,31.90319,117.165584,-,-,-,-,-,-,-,-,0,-,-,20140917190000
795,"Changjiang middle road, Hefei",,31.855185,117.255484,65,28,7,6,5,7,19,18,1016,94,4,20140917190000
796,"Luyang District, Hefei",,31.941771,117.271504,80,30,5,2,16,5,19,18,1016,94,4,20140917190000
797,"Yaohai District, Hefei",,31.856595,117.341644,68,25,16,1,7,4,19,18,1016,94,5,20140917190000
798,"Baohe District, Hefei",,31.793644,117.307554,59,15,3,2,2,1,19,18,1016,94,4,20140917190000
799,"Lake district, Hefei",,31.736619,117.283501,89,34,19,22,1,5,19,18,1016,94,5,20140917190000
800,"High-tech zone, Hefei",,31.849755,117.129624,74,23,14,9,11,4,19,18,1016,94,4,20140917190000
801,Hefei,,31.819449,117.232753,65,28,49,6,7,7,-,-,0,-,-,20140917190000
802,"Hudong Road No.4 Elementary School, Maanshan",,31.684121,118.511017,104,56,75,8,8,7,21,19,1015,88,3,20140917190000
803,"Tianping Garment Factory, Maanshan",,31.64197,118.488043,97,44,94,8,13,8,21,19,1015,88,4,20140917190000
804,"City education base, Maanshan",,31.711216,118.648913,78,40,32,3,5,2,21,19,1015,88,4,20140917190000
805,"Cihu No.2 elementary school, Maanshan",,31.748546,118.515729,78,37,89,10,11,5,21,19,1015,88,3,20140917190000
806,"Maanshan steel factory power plant, Maanshan",,31.690864,118.48528,85,32,45,8,13,7,21,19,1015,88,4,20140917190000
807,Maanshan,,31.668461,118.511939,104,56,89,10,11,7,21,19,1015,88,3,20140917190000
808,"Science Innovation Center, Wuhu",,31.417056,118.375406,97,39,13,8,2,14,21,19,1015,88,3,20140917190000
809,"No.4 Water Plant, Wuhu",,31.315914,118.376231,102,49,12,14,8,14,21,19,1015,88,4,20140917190000
810,"Monitoring station, Wuhu",,31.348955,118.358154,78,50,23,8,5,7,21,19,1015,88,3,20140917190000
811,"Wuqierling Factory, Wuhu",,31.382068,118.407639,95,51,28,13,4,8,21,19,1015,88,4,20140917190000
812,Wuhu,,31.351007,118.438322,97,39,13,8,2,14,21,19,1015,88,3,20140917190000
1331,Chuzhou,,32.299549,118.322508,-,-,-,-,-,-,-,21,0,-,-,20140917190000
813,"Jiangxi Foreign Affairs Office, Nanchang",,28.678027,115.903436,144,69,12,4,2,6,28,25,1013,75,2,20140917190000
814,"Provincial forestry company, Nanchang",,28.69065,115.898546,122,52,11,1,2,7,28,25,1013,75,2,20140917190000
815,"Institute of Forestry, Nanchang",,28.731518,115.82478,78,28,25,1,3,7,28,25,1013,75,2,20140917190000
816,"Jingdong town government, Nanchang",,28.680659,115.972736,104,53,18,2,2,11,28,25,1013,75,2,20140917190000
817,"Contruction Industry College, Nanchang",,28.684018,115.865891,99,47,13,9,13,9,28,25,1013,75,2,20140917190000
818,"Xianghu, Nanchang",,28.637831,115.9033,144,69,11,12,12,12,28,25,1013,75,2,20140917190000
819,"Martial Arts School, Nanchang",,28.794538,115.752876,34,31,6,5,5,6,28,25,1013,75,2,20140917190000
820,"Petrifaction Company, Nanchang",,28.608634,115.912999,117,76,12,2,2,12,28,25,1013,75,2,20140917190000
821,"Provincial Station, Nanchang",,28.677155,115.941896,132,62,16,6,2,10,28,25,1013,75,2,20140917190000
822,Nanchang,,28.679883,115.863022,144,76,25,12,13,12,28,25,1013,75,2,20140917190000
823,"Lushan Mountain Observatory, Jiujiang",,29.5751,115.998926,57,20,27,3,25,5,19,19,1015,97,3,20140917190000
824,"Shili, Jiujiang",,29.668119,115.992381,93,11,13,13,10,7,19,19,1015,97,3,20140917190000
825,"Maoshantou, Jiujiang",,29.700819,115.967192,68,24,15,16,12,5,19,19,1015,97,3,20140917190000
826,"Xiyuan, Jiujiang",,29.723929,115.998206,80,16,10,15,14,7,19,19,1015,97,3,20140917190000
827,"Wuqierling Factory, Jiujiang",,29.640802,116.022713,104,50,22,13,10,19,22,19,1016,79,2,20140917190000
828,"Water Scientific Research Institute, Jiujiang",,29.679179,116.068081,91,29,13,13,15,8,19,19,1015,97,3,20140917190000
829,"Zonghe Industrial Park, Jiujiang",,29.592047,115.916335,93,28,16,16,8,2,19,19,1015,97,3,20140917190000
830,"Petrochemical General Plant, Jiujiang",,29.738832,116.09463,82,21,12,12,11,4,19,19,1015,97,3,20140917190000
831,Jiujiang,,29.70254,116.007025,93,29,27,16,25,18,19,19,1015,97,3,20140917190000
1332,"Feiyu, Xinyu",,27.844697,115.000136,104,69,5,13,16,,24,,1013,89,6,20140917190000
1333,"Beigang, Xinyu",,27.932491,115.103767,78,50,8,7,18,,24,,1013,89,6,20140917190000
1334,"No.2 water factory, Xinyu",,27.839577,114.933915,82,60,9,16,21,,24,,1013,89,6,20140917190000
1335,"Bureau of Meteorology, Xinyu",,27.81048,114.936507,112,83,11,10,24,,24,,1013,89,6,20140917190000
1336,Xinyu,,27.814351,114.922194,112,83,8,16,24,12,24,25,1013,89,6,20140917190000
832,"Tobacco Factory, Zhengzhou",,34.753419,113.687131,99,56,12,17,5,22,14,14,1021,100,2,20140917190000
833,"Textile Machinery Factory, Zhengzhou",,34.773366,113.647067,109,71,7,21,7,17,14,14,1021,100,2,20140917190000
834,"Banking College, Zhengzhou",,34.800856,113.681126,102,55,4,22,11,18,14,14,1021,100,2,20140917190000
835,"Water Supply Company, Zhengzhou",,34.807188,113.571089,117,64,7,29,11,24,14,14,1021,100,2,20140917190000
836,"Economic Development Zone Management Committee, Zhengzhou",,34.717652,113.733182,97,43,7,16,6,15,14,14,1021,100,2,20140917190000
837,"No. 47 middle school, Zhengzhou",,34.772211,113.74009,-,-,-,-,-,-,-,-,0,-,-,20140917190000
838,"City Monitoring Station, Zhengzhou",,34.748404,113.60514,109,47,6,30,9,25,14,14,1021,100,2,20140917190000
839,"Henan Medical University, Zhengzhou",,34.752637,113.641658,109,63,14,17,9,15,14,14,1021,100,2,20140917190000
840,"Gangli Reservoir, Zhengzhou",,34.952652,113.64248,104,51,3,21,9,19,14,14,1021,100,2,20140917190000
841,Zhengzhou,,34.745417,113.631415,109,63,14,30,9,25,-,-,0,-,-,20140917190000
842,"Henan University No.1 Hospital, Kaifeng",,34.799302,114.352706,93,47,22,10,9,9,14,14,1021,100,2,20140917190000
843,"Maternity And Child Hospital, Kaifeng",,34.795803,114.386103,99,41,14,6,6,14,14,14,1021,100,3,20140917190000
844,"Cancer Hospital, Kaifeng",,34.775428,114.350292,99,36,16,13,10,10,14,14,1021,100,2,20140917190000
845,"Yellow River Conservancy Institute, Kaifeng",,34.826066,114.324772,107,43,34,9,34,20,14,14,1021,100,2,20140917190000
846,"Shijixing Kindergarden, Kaifeng",,34.793606,114.302744,107,38,11,7,8,10,14,14,1021,100,2,20140917190000
847,Kaifeng,,34.796346,114.313426,104,43,16,13,11,10,14,14,1021,100,3,20140917190000
852,Jiaozuo,,35.215381,113.248188,68,19,3,14,7,11,14,14,1021,100,2,20140917190000
853,"Cotton Research Institute, Anyang",,36.081435,114.486451,89,29,5,12,6,7,14,14,1022,97,1,20140917190000
854,"Hongmiao Street, Anyang",,36.086733,114.326,114,40,3,17,7,13,14,14,1022,97,1,20140917190000
855,"Yinxing Compound, Anyang",,36.056519,114.36495,122,41,4,19,6,10,14,14,1022,97,1,20140917190000
856,"Tiefo Temple, Anyang",,36.110041,114.309309,134,46,4,22,8,11,14,14,1022,97,1,20140917190000
857,Anyang,,36.097767,114.398846,134,43,13,22,8,11,14,14,1022,97,1,20140917190000
858,"City Monitoring Station, Luoyang",,34.669055,112.439633,42,10,4,22,18,10,14,,1021,100,3,20140917190000
859,"BDA Management Committee, Luoyang",,34.622084,112.390759,61,19,7,12,8,18,14,,1021,100,3,20140917190000
860,"New municipal office, Luoyang",,34.623745,112.432973,82,27,21,16,5,22,14,,1021,100,3,20140917190000
861,"City committee communist party school, Luoyang",,34.650169,112.400212,63,37,12,25,13,13,14,,1021,100,3,20140917190000
862,"Henan Forestry College, Luoyang",,34.685566,112.509429,50,27,24,19,5,13,14,,1021,100,1,20140917190000
863,"CITIC No.2 Elementary School, Luoyang",,34.668212,112.36907,63,27,12,22,6,17,14,,1021,100,3,20140917190000
864,"Yuxi Hotel, Luoyang",,34.685949,112.472611,61,33,3,15,15,26,14,,1021,100,3,20140917190000
865,Luoyang,,34.617424,112.46054,82,37,21,25,18,26,14,15,1021,100,3,20140917190000
866,"City Planning Design Institute, Pingdingshan",,33.7352,113.297916,72,22,7,21,9,15,14,14,1021,100,3,20140917190000
867,"Xinhua Hotel, Pingdingshan",,33.737754,113.328814,68,24,10,18,9,15,14,14,1021,100,3,20140917190000
868,"Engineering College, Pingdingshan",,33.772474,113.188235,70,21,9,17,7,12,14,14,1021,100,3,20140917190000
869,"High Voltage Switchgear Factory, Pingdingshan",,33.719941,113.312665,74,21,5,23,13,16,14,14,1021,100,3,20140917190000
870,Pingdingshan,,33.764754,113.199082,74,24,10,23,13,16,14,14,1021,100,3,20140917190000
1303,"City Monitoring Station, Hebi",,35.748411,114.313927,117,50,5,21,17,7,15,,1027,97,2,20140917190000
1304,"BDA, Xinxiang",,35.281373,113.908605,85,43,2,22,10,11,14,,1007,99,1,20140917190000
1305,"Environment protection office, Puyang",,35.851321,115.512901,13,35,4,7,6,9,16,,1030,100,3,20140917190000
1306,"BDA, Xuchang",,33.998574,113.802968,42,25,15,14,4,16,14,,1022,100,3,20140917190000
1307,"Monitoring station, Xuchang",,34.011362,113.838373,57,25,12,11,9,13,14,,1022,100,3,20140917190000
1308,"Environment protection office, Xuchang",,34.032831,113.827116,80,28,2,9,3,16,14,,1022,100,3,20140917190000
1309,"Environment protection office, Nanyang",,32.532094,112.371764,59,15,7,17,7,2,16,,1019,98,3,20140917190000
