locationid,stationname,chinesename,latitude,longitude,pm25,pm10,o3,no2,so2,co,temperature,dewpoint,pressure,humidity,wind,est_time
1,Dongcheng Dongsi,,39.9304,116.423239,464,312,10,61,3,32,13,13,1014,100,2,20141025170000
2,"Temple of Heaven, Dongcheng",,39.887403,116.41324,336,285,9,41,7,27,13,13,1014,100,2,20141025170000
3,West Park officials,,39.930333,116.345162,416,259,8,88,3,29,13,13,1014,100,2,20141025170000
4,West Wanshou Nishinomiya,,39.879354,116.358183,270,-,-,-,-,-,13,13,1014,100,2,20141025170000
5,Chaoyang Olympic Sports Center,,39.983406,116.403253,420,317,6,69,5,28,13,13,1014,100,2,20141025170000
6,Chaoyang Agricultural Exhibition Hall,,39.938331,116.46715,373,268,10,51,3,26,13,13,1014,100,2,20141025170000
7,Haidian Wanliu,,39.988245,116.293062,415,300,3,75,6,25,13,13,1014,100,2,20141025170000
8,The Haidian northern New Area,,40.091313,116.180194,286,-,6,31,4,21,13,13,1014,100,2,20141025170000
9,Haidian Beijing Botanical Garden,,40.003252,116.213097,428,-,22,42,4,21,13,13,1014,100,2,20141025170000
10,Fengtai garden,,39.86423,116.285037,409,239,9,64,2,28,13,13,1014,100,2,20141025170000
11,Fengtai Yungang,,39.82535,116.152237,381,177,15,57,2,23,13,13,1014,100,2,20141025170000
12,Shijingshan city,,39.915286,116.190144,399,338,14,62,2,28,13,13,1014,100,2,20141025170000
13,"Fangshan, Liangxiang",,39.743357,116.14225,473,329,12,55,2,27,13,13,1014,100,2,20141025170000
14,"Huangcunzhen, Daxing",,39.719389,116.410219,421,255,9,49,4,30,13,13,1014,100,2,20141025170000
15,BDA,,39.796197,116.51197,341,-,15,44,3,25,13,13,1014,100,2,20141025170000
16,Tongzhou New Town,,39.887113,116.6689,317,177,8,38,7,22,13,13,1014,100,2,20141025170000
17,Shunyi New Town ,,40.128111,116.660908,310,167,8,27,3,24,13,13,1014,100,2,20141025170000
18,Changping Town,,40.218245,116.236084,320,203,16,43,2,22,13,13,1014,100,2,20141025170000
19,"Mentougou, Longquan Town",,39.938397,116.112323,369,-,12,27,2,21,13,13,1014,100,2,20141025170000
20,Pinggu town,,40.144433,117.106563,363,-,11,30,3,32,13,13,1014,100,2,20141025170000
21,Huairou town,,40.329104,116.63387,337,198,13,21,2,24,13,13,1014,100,2,20141025170000
22,The town of Miyun,,40.371186,116.838053,369,-,12,31,2,25,13,13,1014,100,2,20141025170000
23,Yanqing town,,40.454217,115.978106,264,-,11,36,2,21,13,13,1014,100,2,20141025170000
24,Changping Dingling,,40.293269,116.226108,334,-,28,20,2,17,13,13,1014,100,2,20141025170000
25,Badaling Northwest,,40.36623,115.994146,158,-,13,39,19,16,13,13,1014,100,2,20141025170000
26,Miyun Reservoir,,40.500157,116.91701,399,-,42,6,4,20,13,13,1014,100,2,20141025170000
27,"Donggaocun Zhen, Pinggu",,40.10142,117.126556,287,-,15,31,5,34,13,13,1014,100,2,20141025170000
28,"Yongledianzhen, Tongzhou",,39.713192,116.78905,192,-,4,32,5,21,13,13,1014,100,2,20141025170000
29,"Yufazhen, Daxing",,39.521203,116.306026,190,-,7,43,2,26,13,13,1014,100,2,20141025170000
30,"Liulihezhen, Fangshan",,39.581169,116.006089,267,-,1,49,2,19,13,13,1014,100,2,20141025170000
31,"Qianmen E St, Dongcheng",,39.900402,116.401242,467,-,3,60,3,32,13,13,1014,100,2,20141025170000
32,Yongdingmen Inner St,,39.877401,116.400238,420,-,5,72,9,34,13,13,1014,100,2,20141025170000
33,Xizhimen N St,,39.955352,116.355187,468,225,4,74,5,32,13,13,1014,100,2,20141025170000
34,South Ring Road,,39.857377,116.37421,473,-,1,64,6,33,13,13,1014,100,2,20141025170000
35,East Fourth Ring Road,,39.940273,116.489075,425,-,2,49,4,30,13,13,1014,100,2,20141025170000
36,Beijing,,39.955906,116.474246,430,268,10,61,3,32,13,13,1014,100,2,20141025170000
37,Putuo,,31.232979,121.415378,105,62,36,17,10,3,20,16,1018,78,2,20141025170000
38,Yangpu Sipiao,,31.263795,121.540311,104,48,32,26,7,5,19,16,1018,83,2,20141025170000
39,Shanghai Normal College Primary Division,,31.199031,121.487719,152,66,24,35,5,8,20,16,1018,78,2,20141025170000
40,Dianshan Lake,,31.091338,120.982293,83,41,26,16,6,5,20,16,1018,78,2,20141025170000
41,Hongkou Liangcheng,,31.298906,121.47155,72,29,36,15,6,6,19,16,1018,83,2,20141025170000
42,Jingan,,31.224251,121.429637,82,38,32,17,7,5,20,16,1018,78,2,20141025170000
43,Shanghai Normal University,,31.163531,121.416643,97,52,29,22,4,6,20,16,1018,78,2,20141025170000
44,Chuansha,,31.188626,121.707342,83,42,29,14,5,4,20,16,1018,78,2,20141025170000
45,Zhangjiang,,31.204896,121.581215,83,42,38,19,3,4,20,16,1018,78,2,20141025170000
46,Lingshan Road,,31.226286,121.537317,71,48,39,19,4,4,20,16,1018,78,2,20141025170000
1080,City average,,31.228451,121.478227,94,50,32,20,6,5,20,16,1018,78,2,20141025170000
47,Shanghai,,31.202842,121.453493,87,61,36,39,5,5,20,16,1018,78,2,20141025170000
48,Guangzhou,,23.138517,113.263701,195,96,47,29,22,13,25,21,1016,78,1,20141025170000
49,"Huadu town, Guangzhou",,23.389121,113.220062,190,90,41,41,11,11,25,21,1016,78,1,20141025170000
50,"Luogang Zhenlong, Guangzhou",,23.308027,113.567032,173,104,35,40,7,8,25,21,1016,78,1,20141025170000
51,"LuHu, Guangzhou",,23.151743,113.281842,195,100,26,90,7,12,25,21,1016,78,1,20141025170000
52,"Tianhu, Guangzhou",,23.647433,113.629715,153,65,121,5,6,13,26,21,1016,74,2,20141025170000
53,"Zhudong, Guangzhou",,23.418406,113.078552,193,98,45,22,11,12,25,21,1016,78,1,20141025170000
54,"Modiesha station, Guangzhou",,23.103814,113.338238,168,109,52,63,12,10,25,21,1016,78,1,20141025170000
55,Zhuhai,,22.2677,113.581765,93,55,26,12,3,8,25,22,1016,83,5,20141025170000
1075,"Huicai technical school, Foshan",,23.039667,113.105492,191,121,47,47,16,9,25,21,1016,78,1,20141025170000
56,"Sanshuiyun donghai, Foshan",,23.185788,112.865368,189,88,41,49,34,14,25,21,1016,78,1,20141025170000
57,"Nanhai Bureau of Meteorology, Foshan",,23.046836,113.145764,173,92,44,77,11,15,25,21,1016,78,1,20141025170000
58,"Sanshui Monitoring Station, Foshan",,23.163551,112.890843,194,105,32,58,27,12,25,21,1016,78,1,20141025170000
1087,Foshan,,23.018995,113.126899,173,92,44,77,11,15,25,21,1016,78,1,20141025170000
59,"Ronggui street committee, Shunde",,22.762729,113.258356,139,53,34,23,9,12,25,21,1016,78,1,20141025170000
60,Shunde,,22.80246,113.298701,122,60,34,33,16,8,-,-,0,-,-,20141025170000
61,"Donghu, Jiangmen",,22.590411,113.087351,147,70,30,24,10,6,25,22,1016,83,5,20141025170000
62,"Taoyuan Atmosphere Premier Station, Jiangmen",,22.72489,112.93404,174,99,39,19,9,10,25,22,1016,83,5,20141025170000
63,Jiangmen,,22.576047,113.087351,147,70,30,24,10,6,25,22,1016,83,5,20141025170000
64,"Kengkouzi station, Zhaoqing",,23.158865,112.570287,188,93,96,16,13,13,25,21,1016,78,1,20141025170000
65,"Mugangzi station, Zhaoqing",,23.067961,112.431934,183,135,50,41,11,16,25,21,1016,78,1,20141025170000
67,Zhaoqing,,23.044571,112.470346,176,129,97,17,34,12,25,21,1016,78,1,20141025170000
68,"Jinguo Bay, Huizhou",,22.937223,114.385567,114,66,72,9,4,5,25,20,1017,74,3,20141025170000
1091,"Xiabu, Huizhou",,23.077493,114.410275,129,71,38,12,5,2,25,20,1017,74,2,20141025170000
69,"Xijiao, Huizhou",,23.338178,114.112867,142,54,24,10,7,11,25,20,1017,74,2,20141025170000
70,"Jiangbei, Huizhou",,23.111706,114.415274,112,68,50,22,6,5,25,20,1017,74,2,20141025170000
71,"Huiyang chuanhu, Huizhou",,22.814485,114.329292,85,44,41,7,5,7,25,20,1017,74,2,20141025170000
72,"Daya bay management committee, Huizhou",,22.739283,114.53631,82,44,47,6,4,4,25,20,1017,74,2,20141025170000
73,Huizhou,,23.109349,114.421164,112,68,50,22,6,5,25,20,1017,74,2,20141025170000
74,"Guancheng No.2 water plant, Dongguan",,23.057294,113.753254,155,71,35,34,6,11,25,20,1017,74,2,20141025170000
75,"Dongcheng Shijing, Dongguan",,23.010039,113.799529,155,77,35,31,7,8,25,20,1017,74,2,20141025170000
76,"Nancheng Xiping, Dongguan",,22.963051,113.743494,162,91,47,41,8,8,25,20,1017,74,2,20141025170000
77,"Nancheng Yuanling, Dongguan",,23.025058,113.751308,159,80,41,42,9,10,25,20,1017,74,2,20141025170000
78,Dongguan,,23.017813,113.756958,159,80,41,42,9,10,25,20,1017,74,2,20141025170000
79,"Zimaling, Zhongshan",,22.505112,113.407183,104,47,27,17,9,11,25,22,1016,83,5,20141025170000
80,"Yangtze River tourist area, Zhongshan",,22.48589,113.439054,102,40,27,7,3,14,25,22,1016,83,5,20141025170000
81,"Huabai Park, Zhongshan",,22.51839,113.374362,114,49,11,22,7,17,25,22,1016,83,5,20141025170000
82,Zhongshan,,22.513997,113.398277,104,47,27,17,9,11,25,22,1016,83,5,20141025170000
83,"No.8 middle school, Shaoguan",,24.767777,113.583537,172,101,27,33,26,14,22,17,1017,66,2,20141025170000
83,"No.8 middle school, Shaoguan",,24.767777,113.583537,172,101,27,33,26,14,22,17,1017,66,2,20141025170000
84,"Forest area, Shaoguan",,24.796106,113.612131,180,133,29,22,28,22,22,17,1017,66,2,20141025170000
84,"Forest area, Shaoguan",,24.796107,113.612131,180,133,29,22,28,22,22,17,1017,66,2,20141025170000
86,"Shaoguan University, Shaoguan",,24.790864,113.646598,163,76,40,13,11,21,22,17,1017,66,2,20141025170000
86,"Shaoguan University, Shaoguan",,24.790864,113.646599,163,76,40,13,11,21,22,17,1017,66,2,20141025170000
88,"Qujiang Monitoring Station, Shaoguan",,24.683042,113.60157,162,81,32,39,14,13,22,17,1017,66,2,20141025170000
88,"Qujiang Monitoring Station, Shaoguan",,24.683042,113.60157,162,81,32,39,14,13,22,17,1017,66,2,20141025170000
89,Shaoguan,,24.807342,113.602712,180,133,29,22,28,22,22,17,1017,66,2,20141025170000
90,"Chaonanzi Station, Shantou",,23.251213,116.406762,95,73,41,9,12,8,23,21,1018,88,2,20141025170000
91,Shantou,,23.350642,116.686306,76,36,43,6,6,11,23,21,1018,88,2,20141025170000
92,"City Environmental Monitoring Station, Zhanjiang",,21.220431,110.397317,65,53,37,8,3,7,25,22,1016,78,4,20141025170000
93,"EPB Dormitory, Zhanjiang",,21.197376,110.406487,85,37,37,5,4,4,25,22,1016,78,4,20141025170000
94,"Xiashan Swimming Park, Zhanjiang",,21.200431,110.415655,70,37,40,2,6,7,25,22,1016,78,4,20141025170000
95,"Zhanjiang Theatre, Zhanjiang",,21.268177,110.366445,132,52,45,5,5,21,25,22,1016,78,4,20141025170000
96,"Mazhang EPA, Zhanjiang",,21.265486,110.335993,107,48,18,6,6,11,25,22,1016,78,4,20141025170000
97,"Potou District EPB, Zhanjiang",,21.247604,110.454508,93,49,35,7,2,13,25,22,1016,78,4,20141025170000
98,Zhanjiang,,21.26832,110.363883,132,52,45,5,5,21,25,22,1016,78,4,20141025170000
99,"Maogang sub-office EPB, Maoming",,21.466435,111.033462,164,78,38,5,3,6,24,22,0,89,5,20141025170000
100,"Petrochemical No. 7 elementaty school, Maoming",,21.648905,110.937861,165,70,36,6,4,9,24,22,0,89,5,20141025170000
101,"Jiankang road, Maoming",,21.662211,110.909482,162,70,24,9,5,14,24,22,0,89,5,20141025170000
102,"Gaoling, Maoming",,21.690558,110.871146,152,63,32,8,12,8,24,22,0,89,5,20141025170000
1094,Maoming,,21.660223,110.929968,162,70,24,9,5,14,24,22,0,89,5,20141025170000
103,"Jiaying University, Meizhou",,24.325415,116.12816,159,83,30,26,6,13,23,21,1018,88,2,20141025170000
104,"Mexian new town, Meizhou",,24.269283,116.084546,164,81,19,28,6,12,23,21,1018,88,2,20141025170000
105,"Environmental Monitoring Center, Meizhou",,24.262778,116.129621,157,82,23,28,5,12,23,21,1018,88,2,20141025170000
1095,Meizhou,,24.285988,116.127065,157,82,23,28,5,12,23,21,1018,88,2,20141025170000
106,"City EPA, Shanwei",,22.772349,115.370227,109,44,51,5,6,8,24,20,1018,75,1,20141025170000
107,"City government, Shanwei",,22.787161,115.375536,109,44,49,5,7,6,24,20,1018,75,1,20141025170000
108,"Xincheng Middle School, Shanwei",,22.789851,115.367124,97,50,38,5,4,5,24,20,1018,75,1,20141025170000
1099,Shanwei,,22.783576,115.38022,97,50,38,5,4,5,24,20,1018,75,1,20141025170000
109,"No.3 elementary school, Heyuan",,23.755946,114.699091,170,86,25,19,14,15,23,19,1017,71,2,20141025170000
109,"No.3 elementary school, Heyuan",,23.75435,114.703514,170,86,25,19,14,15,23,19,1017,71,2,20141025170000
111,"City water company, Heyuan",,23.688709,114.954652,165,82,22,36,6,13,23,19,1017,71,2,20141025170000
111,"City water company, Heyuan",,23.754246,114.682459,165,82,22,36,6,13,23,19,1017,71,2,20141025170000
113,"Heyuan high school, Heyuan",,23.720037,114.699563,155,69,26,29,18,10,23,19,1017,71,2,20141025170000
113,"Heyuan high school, Heyuan",,23.720666,114.693879,155,69,26,29,18,10,23,19,1017,71,2,20141025170000
115,Heyuan,,23.740888,114.705147,155,69,26,29,18,10,23,19,1017,71,2,20141025170000
116,"Yuanyang Lake, Yangjiang",,21.855869,111.983676,112,56,47,8,4,8,24,21,1017,80,3,20141025170000
1100,Yangjiang,,21.855227,111.987308,112,56,47,8,4,8,24,21,1017,80,3,20141025170000
118,"Town governement, Qingyuan",,23.708005,113.026215,196,97,119,44,27,13,26,21,1017,74,1,20141025170000
119,"Fupin district, Qingyuan",,23.624781,113.067713,168,89,95,56,16,15,26,21,1017,74,1,20141025170000
121,"Environment protection office, Qingyuan",,23.691109,113.047948,191,106,40,25,13,19,25,21,1016,78,1,20141025170000
121,"Environment protection office, Qingyuan",,23.685931,113.053239,191,106,40,25,13,19,25,21,1016,78,1,20141025170000
123,"Fengcheng Subdistrict, Qingyuan",,23.695447,113.068189,196,114,103,44,28,15,26,21,1016,74,1,20141025170000
124,Qingyuan,,23.679304,113.061513,191,106,40,25,13,19,25,21,1016,78,1,20141025170000
125,"Xiyuan Road, Chaozhou",,23.668654,116.638272,153,74,45,9,7,11,23,21,1018,88,2,20141025170000
126,"Archives Bureau, Chaozhou",,23.667881,116.649104,132,52,45,12,8,13,23,21,1018,88,2,20141025170000
127,"Municipal Corporation, Chaozhou",,23.65035,116.621859,127,50,46,6,9,15,23,21,1018,88,2,20141025170000
1101,Chaozhou,,23.654204,116.626969,127,50,46,6,9,15,23,21,1018,88,2,20141025170000
128,"Donghu Park, Jieyang",,23.532877,116.374427,97,35,50,7,10,9,23,21,1018,88,2,20141025170000
129,"Yuhu Middle School, Jieyang",,23.52682,116.414123,151,51,42,10,5,8,23,21,1018,88,2,20141025170000
130,"Experimental Primary School, Jieyang",,23.571473,116.364137,129,62,44,15,10,11,23,21,1018,88,2,20141025170000
1102,Jieyang,,23.547596,116.37754,97,35,50,7,10,9,23,21,1018,88,2,20141025170000
131,"City Environmental Monitoring Station, Yunfu",,22.936779,112.042248,155,93,32,24,7,15,25,21,1016,78,1,20141025170000
132,"The new city government headquarters, Yunfu",,22.914275,112.044475,182,99,42,12,8,23,25,21,1016,78,1,20141025170000
133,"Muyang police sub-station, Yunfu",,22.951267,112.05923,165,72,43,28,13,17,25,21,1016,78,1,20141025170000
1103,Yunfu,,22.912436,112.049811,182,99,42,12,8,23,25,21,1016,78,1,20141025170000
134,Yantian,,22.587949,114.266899,87,33,39,14,6,5,25,20,1017,74,2,20141025170000
135,Kwai Chung,,22.572837,113.867166,112,70,20,20,3,12,25,20,1017,74,2,20141025170000
135,Kwai Chung,,22.354168,114.134558,112,70,20,20,3,12,25,20,1017,74,2,20141025170000
137,Nanyou,,22.513802,113.928051,95,59,34,6,5,9,25,20,1017,74,2,20141025170000
138,Meisha,,22.59611,114.318345,87,34,37,7,4,11,25,20,1017,74,2,20141025170000
139,Xi xiang,,22.717524,114.252304,89,40,38,9,4,15,25,20,1017,74,2,20141025170000
140,Liyuan,,22.54732,114.101205,80,32,28,7,2,10,25,20,1017,74,2,20141025170000
1072,Kwai Chung,,22.627947,114.428875,93,44,26,27,2,10,25,20,1017,74,2,20141025170000
1072,Kwai Chung,,22.354168,114.134558,93,44,26,27,2,10,25,20,1017,74,2,20141025170000
141,OCT,,22.539549,113.992458,93,53,31,12,3,12,25,20,1017,74,2,20141025170000
142,Honghu,,22.559647,114.121976,97,44,40,14,3,8,25,20,1017,74,2,20141025170000
143,Mission Hills,,22.694131,114.050496,153,88,26,25,4,11,25,20,1017,74,2,20141025170000
144,Shenzhen,,22.540382,114.062982,153,88,40,27,6,15,-,-,0,-,-,20141025170000
145,Chengdu,,30.622581,104.069564,235,139,9,76,9,19,18,16,1018,88,0,20141025170000
146,"Jinquan lianghe, Chengdu",,30.710359,103.974209,199,133,8,37,3,19,18,16,1018,88,0,20141025170000
147,"Shilidian, Chengdu",,30.684718,104.17845,193,150,13,61,7,17,18,16,1018,88,0,20141025170000
148,"Sanwayao, Chengdu",,30.568159,104.081524,187,167,,,,16,18,16,1018,88,0,20141025170000
149,"Shahepu, Chengdu",,30.633685,104.120536,173,115,8,32,2,18,18,16,1018,88,0,20141025170000
150,"Liang Lane, Chengdu",,30.682601,104.076522,222,167,17,80,12,18,18,16,1018,88,0,20141025170000
151,"Caotang Temple, Chengdu",,30.651891,104.0284,199,139,9,79,9,19,18,16,1018,88,0,20141025170000
152,"Lingyansi, Chengdu",,31.025729,103.615022,158,63,49,15,6,5,18,16,1018,88,0,20141025170000
153,"Fuleshan, Mianyang",,31.472493,104.7806,170,98,26,21,5,12,21,16,1016,68,2,20141025170000
154,"High-tech Zone Water Company, Mianyang",,31.463309,104.674293,182,106,30,38,8,12,21,16,1016,68,2,20141025170000
155,"No.3 water company, Mianyang",,31.505002,104.731054,180,106,19,28,6,12,21,16,1016,68,2,20141025170000
156,Mianyang,,31.465174,104.681731,182,108,30,38,8,15,21,16,1016,68,2,20141025170000
157,"Dongshan Park, Deyang",,31.118648,104.424587,175,98,42,14,8,10,18,16,1018,88,0,20141025170000
158,"Xixiaoqu, Deyang",,31.131159,104.390972,219,134,14,32,7,14,18,16,1018,88,0,20141025170000
159,"City Procuratorate, Deyang",,31.114554,104.407986,183,114,8,28,6,13,18,16,1018,88,0,20141025170000
160,"Refractory Factory, Deyang",,31.108606,104.356506,241,184,26,36,5,9,18,16,1018,88,0,20141025170000
161,Deyang,,31.124715,104.400703,241,184,42,36,8,14,18,16,1018,88,0,20141025170000
162,"Nongnongping, Panzhihua",,26.566698,101.695438,78,54,19,26,15,11,16,8,0,45,3,20141025170000
163,"Hemenkou, Panzhihua",,26.589072,101.578312,85,51,32,12,10,16,16,8,0,45,3,20141025170000
164,"Bingcaogang, Panzhihua",,26.58143,101.718473,70,67,13,28,8,19,16,8,0,45,3,20141025170000
165,"Renhe, Panzhihua",,26.498166,101.746887,53,40,15,13,3,16,16,8,0,45,3,20141025170000
166,"Jinjina, Panzhihua",,26.553226,101.84862,93,59,15,14,13,11,16,8,0,45,3,20141025170000
167,Panzhihua,,26.578779,101.720211,93,67,32,28,15,19,16,8,0,45,3,20141025170000
168,"Shima Middle School, Yibin",,28.815979,104.599199,163,87,18,19,10,12,20,17,1017,80,0,20141025170000
169,"Municipal party committee, Yibin",,28.762654,104.624834,172,85,14,28,21,16,20,17,1017,80,0,20141025170000
170,"No. 4 middle school, Yibin",,28.783257,104.608407,177,103,14,23,10,9,20,17,1017,80,0,20141025170000
171,"City government, Yibin",,28.760477,104.644079,172,106,16,28,9,12,20,17,1017,80,0,20141025170000
172,"Huangjinzui, Yibin",,28.712319,104.578389,164,99,11,19,15,10,20,17,1017,80,0,20141025170000
173,"Shaping Middle School, Yibin",,28.795569,104.681393,162,65,19,22,15,10,20,17,1017,80,0,20141025170000
174,Yibin,,28.748384,104.645766,177,106,19,28,21,16,20,17,1017,80,0,20141025170000
175,"Datang Hill, Zigong",,29.359969,104.757388,246,150,23,10,3,7,20,16,0,75,1,20141025170000
176,"Yanma Road, Zigong",,29.355752,104.724036,282,182,13,33,24,13,20,16,0,75,1,20141025170000
177,"Tanmulin Street, Zigong",,29.353555,104.777397,195,110,25,12,8,13,20,16,0,75,1,20141025170000
178,"Chunhua Road, Zigong",,29.33825,104.771895,259,159,16,22,9,18,20,16,0,75,1,20141025170000
179,Zigong,,29.33617,104.781138,282,182,25,33,24,18,20,16,0,75,1,20141025170000
180,"Jiushi Hill, Luzhou",,28.955347,105.434207,171,97,47,6,1,5,20,16,0,77,1,20141025170000
181,"Xiaoshishang Port, Luzhou",,28.899583,105.447192,169,94,32,31,11,17,20,16,0,77,1,20141025170000
182,"Lantianxian Bridge, Luzhou",,28.852766,105.4358,151,60,37,26,5,7,20,16,0,77,1,20141025170000
183,"City Environment Monitoring Station, Luzhou",,28.895898,105.435802,165,88,24,33,19,12,20,16,0,77,1,20141025170000
184,Luzhou,,28.868782,105.445938,171,97,47,33,19,17,20,16,0,77,1,20141025170000
185,"City Committee, Nanchong",,30.799993,106.082906,162,90,9,11,1,7,19,18,1017,97,1,20141025170000
186,"Refinery Factory, Nanchong",,30.819412,106.10712,173,109,16,5,35,6,19,18,1017,97,1,20141025170000
187,"Gaoping District Monitoring Station, Nanchong",,30.783291,106.110417,184,135,19,34,14,20,19,18,1017,97,1,20141025170000
188,"Jialing District EPB, Nanchong",,30.761255,106.06818,187,122,18,42,11,10,19,18,1017,97,1,20141025170000
189,"City Environmental Monitoring Station, Nanchong",,30.836519,106.11272,175,89,37,29,29,10,19,18,1017,97,1,20141025170000
190,Nanchong,,30.835511,106.114717,187,135,37,42,56,20,19,18,1017,97,1,20141025170000
1249,"City Monitoring Station, Neijiang",,29.592673,105.036234,233,145,21,19,10,12,20,16,0,75,1,20141025170000
1250,"Dongxing District Government , Neijiang",,29.592148,105.074966,225,153,17,33,11,14,20,16,0,75,1,20141025170000
1251,"No 2 middle school, Neijiang",,29.579135,105.068548,256,141,22,37,13,10,20,16,0,75,1,20141025170000
1252,Neijiang,,29.577653,105.06166,256,153,22,37,17,14,20,16,0,75,1,20141025170000
1253,"City Monitoring Station, Suining",,30.610641,105.683583,185,117,45,23,1,12,20,15,0,71,1,20141025170000
1254,"Administrative center , Suining",,30.63206,105.819747,95,58,31,9,12,6,25,13,0,46,2,20141025170000
1255,Suining,,30.530053,105.596307,201,131,45,27,6,12,20,15,0,71,1,20141025170000
1256,"City Monitoring Station, Leshan",,29.560651,103.759211,184,131,6,31,-,14,19,14,0,72,1,20141025170000
1257,"Leshan Giant Buddha Scenic Area , Leshan",,29.543938,103.772706,193,129,23,41,44,13,19,14,0,72,1,20141025170000
1258,Leshan,,29.54935,103.767777,193,131,23,41,44,13,19,14,0,72,1,20141025170000
1259,"Heilongtan , Meishan",,30.047726,103.900649,164,118,31,17,5,10,18,16,1018,88,0,20141025170000
1260,"Bureau of Meteorology, Meishan",,30.084591,103.843715,292,161,22,22,8,11,18,16,1018,88,0,20141025170000
1261,"Xuguang Community , Meishan",,30.066277,103.8516,292,162,18,6,5,7,18,16,1018,88,0,20141025170000
1262,"City Monitoring Station, Meishan",,30.059205,103.836229,251,130,15,27,13,11,18,16,1018,88,0,20141025170000
1263,Meishan,,30.072618,103.85064,292,162,31,27,13,11,18,16,1018,88,0,20141025170000
1264,"Ziyang middle school, Ziyang",,30.147763,104.638024,156,77,26,10,17,6,20,16,0,75,1,20141025170000
1265,Ziyang,,30.126054,104.63004,163,86,37,29,44,13,20,16,0,75,1,20141025170000
191,Shenyang US Consulate,,41.785668,123.432865,187,80,,25,33,,13,10,1012,82,1,20141025170000
192,"Huishan, Shenyang",,41.835421,123.647773,178,152,25,17,8,12,13,10,1012,82,1,20141025170000
193,"Hunnan, Shenyang",,41.758263,123.540809,158,75,40,13,52,12,13,10,1012,82,1,20141025170000
194,"Zhangshi, Shenyang",,41.771679,123.289859,172,103,12,30,18,14,13,10,1012,82,1,20141025170000
195,"Artillery College, Shenyang",,41.835749,123.547799,155,115,39,22,29,13,13,10,1012,82,1,20141025170000
196,"Beiling, Shenyang",,41.849633,123.434146,162,71,13,27,9,13,13,10,1012,82,1,20141025170000
197,"Wenyi Road, Shenyang",,41.767444,123.416144,170,80,42,25,33,13,13,10,1012,82,1,20141025170000
198,"Xiaoheyan, Shenyang",,41.779828,123.484015,160,74,46,17,32,11,13,10,1012,82,1,20141025170000
199,"Taiyuan Street, Shenyang",,41.799646,123.406146,171,76,16,37,17,14,13,10,1012,82,1,20141025170000
200,"Ermao, Shenyang",,41.783011,123.366679,171,96,47,15,25,11,13,10,1012,82,1,20141025170000
201,"Liaoning University, Shenyang",,41.830704,123.361071,192,101,21,18,16,14,13,10,1012,82,1,20141025170000
202,Shenyang,,41.808126,123.437611,187,76,16,37,17,14,13,10,1012,82,1,20141025170000
1104,"wenhua street, Shenyang , Shenyang",,41.774139,123.441839,170,80,42,25,33,13,13,10,1012,82,1,20141025170000
1105,"Tanglin Road , Shenyang , Shenyang",,41.823665,123.562317,155,115,39,22,29,12,13,10,1012,82,1,20141025170000
203,"Ganjingzi, Dalian",,38.9747,121.616893,154,77,37,25,4,8,19,12,1014,64,2,20141025170000
204,"Zhoushuizi, Dalian",,38.951928,121.569981,127,70,49,14,3,14,19,11,1014,60,3,20141025170000
205,"Xinghai No 3 station, Dalian",,38.885779,121.568864,157,71,38,9,6,5,19,11,1013,60,4,20141025170000
206,"Qingniwa Bridge, Dalian",,38.91274,121.638018,119,54,80,11,4,6,19,12,1014,64,2,20141025170000
207,"Fujiazhuang, Dalian",,38.864647,121.629947,107,62,28,12,6,6,19,12,1014,64,2,20141025170000
208,"Qixianling, Dalian",,38.856978,121.523169,119,58,27,22,2,7,19,11,1014,60,3,20141025170000
209,"Lushun, Dalian",,38.808946,121.264063,139,68,32,14,7,5,19,12,1014,64,2,20141025170000
210,"Jinzhou, Dalian",,39.132192,121.753259,129,72,31,13,4,6,19,12,1014,64,2,20141025170000
211,"BDA, Dalian",,39.05213,121.782022,134,55,19,9,6,5,19,12,1014,64,2,20141025170000
212,"D&D Port, Dalian",,39.064087,121.981874,97,55,30,8,1,9,19,11,1014,60,3,20141025170000
213,Dalian,,38.91478,121.619625,119,54,80,11,4,6,-,-,0,-,-,20141025170000
214,"Bearing Factory, Dandong",,40.068929,124.345703,63,37,47,3,11,5,16,14,1016,86,3,20141025170000
215,"Financial school, Dandong",,40.158723,124.432593,63,34,48,3,7,4,16,14,1016,86,3,20141025170000
216,"Yuanbaoshan water, Dandong",,40.149431,124.391698,68,23,45,4,13,5,16,14,1016,86,3,20141025170000
217,"Experimental Primary School, Dandong",,39.887343,124.158056,70,41,45,4,4,5,16,14,1016,86,3,20141025170000
218,Dandong,,40.002046,124.360479,70,41,48,4,13,5,16,14,1016,86,3,20141025170000
1106,"minzhu bridge, Dandong , Dandong",,40.112974,124.373604,70,41,45,4,4,5,16,14,1016,86,3,20141025170000
1107,"yuanbaoshan, Dandong , Dandong",,40.146298,124.399081,68,23,45,4,13,5,16,14,1016,86,3,20141025170000
1108,"linjiang houjie, Dandong , Dandong",,40.152757,124.431745,63,34,48,3,7,4,16,14,1016,86,3,20141025170000
219,"BDA, Panjin",,41.157144,122.06645,173,91,35,10,6,18,11,-2,0,36,9,20141025170000
220,"Xinglongtai, Panjin",,41.140948,122.111343,162,71,36,5,8,12,12,3,0,53,7,20141025170000
221,"Dingxiang, Panjin",,41.16139,121.928781,158,62,81,6,3,9,12,3,0,53,7,20141025170000
222,Panjin,,41.122089,122.076206,165,75,35,8,5,17,12,3,0,53,7,20141025170000
223,"No.3 water company, Yingkou",,40.682052,122.385352,85,41,106,11,11,7,18,11,1012,54,3,20141025170000
224,"Yingkou University, Yingkou",,40.683689,122.388285,65,42,101,17,13,8,18,11,1012,54,3,20141025170000
225,"Botanical garden, Yingkou",,40.711674,122.281568,87,38,80,17,15,8,18,11,1012,54,3,20141025170000
226,Yingkou,,40.668578,122.24059,87,42,93,10,10,7,18,11,1012,54,3,20141025170000
1109,"jinghu west street, Yingkou , Yingkou",,40.653831,122.221943,87,42,93,10,10,7,18,11,1012,54,3,20141025170000
1110,"Daqing Road , Yingkou , Yingkou",,40.709181,122.28243,89,39,73,16,11,8,18,11,1012,54,3,20141025170000
227,"Xishanpo, Huludao",,40.724078,120.921974,165,219,24,22,13,20,,,0,,,20141025170000
228,"Huagong hospital, Huludao",,40.755662,120.848435,161,163,16,28,25,22,,,0,,,20141025170000
229,"New district park, Huludao",,40.723415,120.853801,246,192,25,35,14,23,,,0,,,20141025170000
230,"Lianshan district governement, Huludao",,40.775488,120.872292,161,190,16,36,22,19,,,0,,,20141025170000
231,Huludao,,40.712501,120.842107,246,192,25,35,25,23,,,0,,,20141025170000
1111,"Dongcheng District , Huludao , Huludao",,40.775362,120.871706,161,190,16,36,22,19,,,0,,,20141025170000
1112,"huagong street, Huludao , Huludao",,40.758901,120.842935,161,163,17,28,25,22,,,0,,,20141025170000
232,Anshan,,41.110466,123.000147,159,75,46,17,17,22,16,13,1014,82,7,20141025170000
233,"Qianshan Park, Anshan",,41.033486,123.143897,112,53,37,10,13,6,13,10,1012,82,1,20141025170000
234,"Tiexi, Anshan",,41.121636,122.97506,153,74,35,10,19,26,13,10,1012,82,1,20141025170000
235,"Taiping Station, Anshan",,41.153322,123.052433,144,66,29,9,21,16,13,10,1012,82,1,20141025170000
236,"Central Station, Anshan",,41.106731,123.002736,147,70,50,9,24,19,13,10,1012,82,1,20141025170000
237,"Shengou Temple, Anshan",,41.137157,123.031901,159,75,46,17,17,22,16,13,1014,82,7,20141025170000
1113,"Qianshan , Anshan , Anshan",,41.014521,123.122538,137,60,39,12,15,6,16,13,1014,82,7,20141025170000
1114,"Tiexi Sandao jie, Anshan",,41.103264,122.978613,153,74,36,10,19,26,13,10,1012,82,1,20141025170000
1115,"Taiyang, Anshan",,41.094946,123.019037,158,81,50,11,22,16,16,13,1014,82,7,20141025170000
238,Fushun,,41.883028,123.962984,159,70,30,22,24,17,13,10,1012,82,1,20141025170000
239,"Shenfu new town, Fushun",,41.804638,123.631684,139,79,29,20,14,17,13,10,1012,82,1,20141025170000
240,"Reservoir, Fushun",,41.8464,123.802857,134,58,28,9,12,24,13,10,1012,82,1,20141025170000
241,"Train Station, Fushun",,41.89726,124.017604,159,70,30,7,24,17,13,10,1012,82,1,20141025170000
242,"Dongzhou, Fushun",,41.855578,124.044738,97,75,48,12,10,12,13,10,1012,82,1,20141025170000
243,"Xinhua, Fushun",,41.888598,123.932932,137,73,24,26,14,11,13,10,1012,82,1,20141025170000
244,"Wanghua, Fushun",,41.888825,123.093723,93,79,30,20,32,20,13,10,1012,82,1,20141025170000
245,Benxi,,41.296267,123.772371,134,65,58,20,7,26,16,13,1014,82,7,20141025170000
246,"Weining, Benxi",,41.349663,123.826071,132,65,48,20,3,26,16,13,1014,82,7,20141025170000
247,"Occupational disease hospital, Benxi",,41.305432,123.74645,117,56,85,21,10,10,13,10,1012,82,1,20141025170000
248,"Dongming, Benxi",,41.292369,123.765058,134,47,58,8,7,15,16,13,1014,82,7,20141025170000
249,"Caitun, Benxi",,41.301591,123.746039,124,69,29,13,9,19,16,13,1014,82,7,20141025170000
250,"Xihu, Benxi",,41.331332,123.773537,137,51,54,16,8,13,13,10,1012,82,1,20141025170000
251,"Dayu, Benxi",,41.308091,123.818442,114,54,120,9,16,12,13,10,1012,82,1,20141025170000
1116,"Xinlitun , Benxi , Benxi",,41.264104,123.811523,117,56,86,21,10,10,13,10,1012,82,1,20141025170000
252,Jinzhou,,41.097169,121.132647,201,111,6,20,12,24,12,11,1012,90,1,20141025170000
253,"Beihu Park, Jinzhou",,41.141447,121.137339,197,111,5,16,12,22,12,11,1012,90,1,20141025170000
254,"Monitoring station, Jinzhou",,41.113441,121.140911,159,113,7,28,11,19,12,11,1012,90,1,20141025170000
255,"Nanshan, Jinzhou",,41.570689,122.046753,99,88,12,22,8,25,12,11,1012,90,1,20141025170000
1118,"BDA, Jinzhou",,40.853915,121.061756,164,103,12,38,31,16,12,11,1012,90,1,20141025170000
1119,"tianan street, Jinzhou , Jinzhou",,41.124468,121.126119,160,101,6,20,10,19,12,11,1012,90,1,20141025170000
1120,"baigu street, Jinzhou, Jinzhou",,41.12214,121.21027,201,104,5,15,8,24,12,11,1012,90,1,20141025170000
1121,Chaoyang,,41.576022,120.456053,168,275,11,9,6,45,-,-,0,-,-,20141025170000
472,"Fukang road, Tianjin",,39.098136,117.157621,259,288,3,44,2,24,13,13,1014,100,5,20141025170000
1122,"Agricultural Area, Chaoyang",,43.93968,125.247371,216,159,7,11,8,23,12,9,1010,75,1,20141025170000
1123,Tieling,,42.225197,123.732174,193,109,28,21,8,13,-,-,0,-,-,20141025170000
260,"Waterpark, Tieling",,42.297031,123.880748,162,79,21,11,20,14,16,13,1014,82,7,20141025170000
1124,"Huigong Street West , Tieling , Tieling",,42.311115,123.845614,-,-,-,-,-,-,-,-,0,-,-,20141025170000
1125,Liaoyang,,41.269312,123.24268,151,76,84,12,29,23,-,-,0,-,-,20141025170000
1126,"Riverside Road , Liaoyang , Liaoyang",,41.176884,123.419859,127,57,48,9,17,13,16,13,1014,82,7,20141025170000
1127,Fuxin,,42.02373,121.675733,195,236,13,8,14,22,-,-,0,-,-,20141025170000
266,"Agricultural Area, Fuxin",,42.071291,121.696445,195,104,10,1,14,18,7,-5,0,39,10,20141025170000
267,"Industrial Area, Fuxin",,42.041052,121.715554,324,236,13,8,2,16,7,-5,0,39,10,20141025170000
1128,"Yulong Metro , Fuxin , Fuxin",,42.035091,121.666531,337,176,12,5,3,22,7,-5,0,39,10,20141025170000
1129,"Dongyuan , Fuxin , Fuxin",,42.029119,121.681553,428,140,10,54,22,20,14,12,0,91,3,20141025170000
268,"City Monitoring Station, Jinan",,36.662614,117.054645,155,75,41,6,14,6,22,12,1013,46,6,20141025170000
269,"Shandong Institute of Economics, Jinan",,36.63819,117.074975,155,84,85,7,27,3,22,12,1013,46,6,20141025170000
270,"Quancheng Plaza, Jinan",,36.661711,117.027043,152,75,42,6,19,5,22,12,1013,46,6,20141025170000
271,"Kegansuo, Jinan",,36.611582,116.99384,153,83,95,9,14,5,22,12,1013,46,6,20141025170000
272,"Agriculture Science Institute, Jinan",,36.663115,116.95063,159,103,93,23,16,11,22,12,1013,46,6,20141025170000
273,"Lanxiang technical school, Jinan",,36.700421,116.95342,152,79,47,11,15,8,22,12,1013,46,6,20141025170000
274,"Chemical factory, Jinan",,36.687463,116.994406,151,75,58,19,11,6,22,12,1013,46,6,20141025170000
275,"Provincial Seed Warehouse, Jinan",,36.685706,117.066348,151,67,83,8,10,5,22,12,1013,46,6,20141025170000
276,"Shandong Architecture University, Jinan",,36.681732,117.191868,139,70,28,7,18,7,22,12,1013,46,6,20141025170000
277,"Baosheng cable company, Jinan",,36.724638,117.130855,151,72,41,8,13,8,22,12,1013,46,6,20141025170000
278,"Paomaling, Jinan",,36.47869,117.219027,168,81,94,8,25,9,22,12,1013,46,6,20141025170000
279,"Changqing District Communist Party School, Jinan",,36.548797,116.770859,159,87,86,15,28,7,22,12,1013,46,6,20141025170000
280,"BDA, Jinan",,36.685835,117.130851,142,73,131,14,8,9,22,12,1013,46,6,20141025170000
281,Jinan,,36.651426,117.126625,155,75,41,6,14,6,22,12,1013,46,6,20141025170000
282,"Shinan district No. 1, Qingdao",,36.065534,120.40839,102,48,101,11,5,3,19,17,1016,88,5,20141025170000
283,"Shibei district No. 1, Qingdao",,36.069919,120.341264,38,23,67,7,8,7,19,17,1016,88,5,20141025170000
284,"Shibei district No. 2, Qingdao",,36.104146,120.36637,59,33,62,13,5,6,19,17,1016,88,5,20141025170000
285,"Huangdao District No. 1, Qingdao",,35.958935,120.191041,74,69,49,10,13,2,19,17,1016,88,5,20141025170000
286,"Huangdao District No. 2, Qingdao",,35.970487,120.160339,74,32,47,12,10,3,19,17,1016,88,5,20141025170000
287,"Laoshan District No. 1, Qingdao",,36.085881,120.451839,65,22,70,12,17,8,19,17,1016,88,5,20141025170000
288,"Laoshan District No. 2, Qingdao",,36.091075,120.490388,74,68,116,7,10,3,19,17,1016,88,5,20141025170000
289,"Licang District No. 1, Qingdao",,36.184872,120.38533,61,55,40,6,6,8,19,17,1016,88,5,20141025170000
290,"Licang District No. 2, Qingdao",,36.154369,120.432287,74,43,53,9,6,5,19,17,1016,88,5,20141025170000
291,"Chengyang District No. 1, Qingdao",,36.308502,120.40008,102,41,49,14,12,4,19,17,1016,88,5,20141025170000
292,"Chengyang District No. 2, Qingdao",,36.308429,120.465806,122,59,110,6,9,5,19,17,1016,88,5,20141025170000
293,Qingdao,,36.067358,120.387773,74,48,101,11,5,3,19,17,1016,88,5,20141025170000
294,"Zichuan Meteo. Stations, Zibo",,36.637916,117.960222,147,97,35,30,33,13,16,10,0,66,3,20141025170000
295,"Dongfeng Chemical factory, Zibo",,36.838576,118.050785,151,102,14,43,73,11,16,10,0,66,3,20141025170000
296,"Boshan shuangshan, Zibo",,36.497278,117.853581,137,71,43,14,39,12,16,10,0,66,3,20141025170000
297,"Linzi Putian Park, Zibo",,36.820171,118.315022,157,93,46,13,39,19,16,10,0,66,3,20141025170000
298,"Qilu Petrochemical, Zibo",,36.765907,118.254967,144,115,13,36,7,11,16,10,0,66,3,20141025170000
299,"Zhoucun sanjin Group, Zibo",,36.8044,117.85694,157,69,32,21,11,14,16,10,0,66,3,20141025170000
300,"Vocational College, Zibo",,36.825208,117.926305,162,93,23,28,21,15,15,10,0,71,2,20141025170000
301,"BDA, Zibo",,36.905214,118.021824,147,92,28,19,43,12,16,10,0,66,3,20141025170000
302,Zibo,,36.813618,118.060948,147,97,35,30,33,13,16,10,0,66,3,20141025170000
303,"Shizhong District Government, Zaozhuang",,34.850397,117.569545,170,156,39,34,101,10,15,13,1016,86,0,20141025170000
304,"Sewage treatment plant, Zaozhuang",,34.818951,117.595345,200,167,35,45,86,3,15,13,1016,86,0,20141025170000
305,"Xuecheng EPA, Zaozhuang",,34.790214,117.272455,162,87,58,24,25,8,15,13,1016,86,0,20141025170000
306,"Yicheng District government, Zaozhuang",,34.772806,117.57647,189,136,39,40,25,8,15,13,1016,86,0,20141025170000
307,"Taierzhuang EPA, Zaozhuang",,34.579462,117.741067,167,131,25,38,10,10,15,13,1016,86,0,20141025170000
308,"Shanting EPA, Zaozhuang",,35.070373,117.457691,152,81,52,23,32,12,15,13,1016,86,0,20141025170000
309,"City EPA, Zaozhuang",,34.809466,117.320608,161,93,88,12,39,7,15,13,1016,86,0,20141025170000
310,"High-tech zone, Zaozhuang",,34.821779,117.363495,197,111,45,32,61,13,15,13,1016,86,0,20141025170000
311,Zaozhuang,,34.809693,117.329634,170,156,39,34,101,10,15,13,1016,86,0,20141025170000
312,"City EPA, Dongying",,37.432052,118.672871,172,104,22,38,52,16,17,11,0,66,3,20141025170000
313,"Vocational College, Dongying",,37.438653,118.630567,168,114,24,34,41,12,17,11,0,66,3,20141025170000
314,"Xianhe Oil Production Plant, Dongying",,37.442419,118.510222,169,154,15,49,36,13,17,11,0,66,3,20141025170000
315,"Gengjin village, Dongying",,37.445072,118.55839,171,109,8,44,18,10,17,11,0,66,3,20141025170000
316,"City environmental company, Dongying",,37.466599,118.508012,179,121,19,58,42,11,17,11,0,66,3,20141025170000
317,"Hekou  district, Dongying",,37.883786,118.522171,166,100,28,28,51,10,17,11,0,66,3,20141025170000
318,"BDA, Dongying",,37.435162,118.701827,181,113,24,35,52,17,17,11,0,66,3,20141025170000
319,Dongying,,37.435429,118.680434,172,104,22,38,52,16,17,11,0,66,3,20141025170000
320,"Bearing Factory, Yantai",,37.544126,121.376956,132,66,46,26,6,8,,,0,,,20141025170000
321,"Xijiao Chemical Station, Yantai",,37.547148,121.323695,99,41,134,4,5,9,,,0,,,20141025170000
322,"Fushan Monitoring Stations, Yantai",,37.472245,121.260116,78,52,39,6,4,7,,,0,,,20141025170000
323,"Mouping EPA, Yantai",,37.376681,121.586509,46,33,46,8,6,8,,,0,,,20141025170000
324,"Laishan EPA, Yantai",,37.478422,121.44829,78,35,89,9,4,5,,,0,,,20141025170000
325,"Laishan Shengquan Industrial Park, Yantai",,37.4271,121.408386,80,40,82,3,7,6,,,0,,,20141025170000
326,"China Agricultural University, Yantai",,37.423568,121.511838,61,42,83,5,8,5,,,0,,,20141025170000
327,"BDA EPA, Yantai",,37.560827,121.257954,124,63,42,2,4,6,,,0,,,20141025170000
329,"Dajijia, Yantai",,37.673849,121.071465,109,63,77,5,8,7,,,0,,,20141025170000
330,Yantai,,37.464793,121.453142,132,66,134,4,5,9,,,0,,,20141025170000
331,"BDA, Weifang",,36.720022,119.054064,175,113,47,21,17,9,,,0,,,20141025170000
332,"Business School, Weifang",,36.682442,119.105909,175,106,47,22,18,7,,,0,,,20141025170000
333,"Hanting District, Weifang",,36.773484,119.199705,192,129,57,22,19,8,,,0,,,20141025170000
334,"Gongda Company, Weifang",,36.657635,119.167266,178,115,47,29,19,7,,,0,,,20141025170000
335,"City EPA, Weifang",,36.701272,119.16838,182,128,49,22,17,7,,,0,,,20141025170000
336,"City Arbitration Committee, Weifang",,36.702422,119.145927,176,109,69,22,18,7,,,0,,,20141025180000
337,"Xinhui Group, Weifang",,36.641581,119.11679,171,103,51,22,14,7,,,0,,,20141025180000
338,"Jincheng Middle School, Weifang",,36.773611,119.115539,170,118,89,18,15,7,,,0,,,20141025180000
339,Weifang,,36.707217,119.167638,178,112,76,19,18,10,,,0,,,20141025180000
340,"City Monitoring Station, Jining",,35.408443,116.623917,162,94,50,13,11,8,20,15,1015,67,1,20141025180000
1090,"Shengdi Hollidays Resort, Jining",,35.424746,116.699093,162,78,38,23,21,8,20,15,1015,67,1,20141025180000
341,"Sewage treatment plant, Jining",,35.364286,116.609177,162,74,72,9,8,7,20,15,1015,67,1,20141025180000
342,"Electrochemical Factory, Jining",,35.390473,116.552956,158,87,48,7,12,11,20,15,1015,67,1,20141025180000
343,"Rencheng BDA, Jining",,35.390484,116.662995,174,92,44,19,24,11,20,15,1015,67,1,20141025180000
344,"Agricultural School, Jining",,35.44235,116.601682,161,93,46,14,12,6,20,15,1015,67,1,20141025180000
345,"BDA Huojucheng, Jining",,35.436377,116.642953,161,86,45,19,19,9,20,15,1015,67,1,20141025180000
346,Jining,,35.414473,116.59239,162,94,48,23,12,11,20,15,1015,67,1,20141025180000
347,"Taishan monitoring station, Taian",,36.194362,117.159648,149,94,26,11,21,12,10,10,0,91,10,20141025180000
348,"Shandong Electric Power School, Taian",,36.176071,117.12413,144,83,39,17,24,12,10,10,0,91,10,20141025180000
349,"Population Education school, Taian",,36.194417,117.104131,158,85,46,7,23,9,10,10,0,91,10,20141025180000
350,"Houfeng company, Taian",,36.204863,117.19015,139,111,30,18,19,12,10,10,0,91,10,20141025180000
351,"Nongda new campus, Taian",,36.170179,117.165191,151,88,17,25,37,16,10,10,0,91,10,20141025180000
352,"Transportation technical school, Taian",,36.202126,117.047068,139,75,25,9,28,12,10,10,0,91,10,20141025180000
353,"ICT Technology, Taian",,36.116621,117.107458,155,95,30,14,20,16,10,10,0,91,10,20141025180000
354,Taian,,36.200502,117.093682,149,94,26,11,21,12,10,10,0,91,10,20141025180000
355,"City Environmental Monitoring Station, Weihai",,37.513939,122.067058,78,46,131,7,5,4,17,15,0,87,6,20141025180000
356,"Woodworking Factory, Weihai",,37.325455,122.160777,76,38,48,10,21,2,17,15,0,87,6,20141025180000
357,"Lantian Hotel, Weihai",,37.514641,122.146276,70,47,133,7,7,9,17,15,0,87,6,20141025180000
358,"Zhang village government, Weihai",,37.485561,122.049436,50,29,45,6,4,7,17,15,0,87,6,20141025180000
359,"Gao District Bank, Weihai",,37.534919,122.056294,-,-,-,-,-,-,-,-,0,-,-,20141025180000
360,"Huxia technical school, Weihai",,37.427951,122.130811,59,43,56,10,2,4,17,15,0,87,6,20141025180000
361,Weihai,,37.5141,122.125477,78,46,56,10,2,4,17,15,0,87,6,20141025180000
362,"City governement square, Rizhao",,35.4075,119.526008,142,59,38,20,14,5,17,17,1017,98,1,20141025180000
363,"Port Authority, Rizhao",,35.381297,119.55396,152,83,28,46,9,7,17,17,1017,98,1,20141025180000
364,"City Monitoring Station, Rizhao",,35.388683,119.496405,170,84,28,33,7,9,17,17,1017,98,1,20141025180000
365,"Professor Garden, Rizhao",,35.462161,119.574193,152,100,43,28,9,4,17,17,1017,98,1,20141025180000
366,"Vocational and Technical College, Rizhao",,35.441939,119.538187,156,82,41,20,9,6,17,17,1017,98,1,20141025180000
367,"Lanshan EPA branch, Rizhao",,35.293405,119.345716,167,106,46,29,18,8,17,17,1017,98,1,20141025180000
368,"Jinma Industrial Park, Rizhao",,35.373339,119.514108,157,106,38,17,7,4,17,17,1017,98,1,20141025180000
369,Rizhao,,35.416089,119.532316,142,59,38,20,14,5,17,17,1017,98,1,20141025180000
370,"Vegetable oil factory, Laiwu",,36.205028,117.700917,178,103,23,51,59,14,15,11,1016,68,1,20141025180000
371,"Nursing home, Laiwu",,36.266067,117.652769,167,119,33,27,38,56,15,11,1016,68,1,20141025180000
372,"Xinyi middle school, Laiwu",,36.245086,117.739025,412,96,20,22,59,21,15,11,1016,68,1,20141025180000
373,"Risheng International School, Laiwu",,36.208125,117.730959,177,104,3,23,50,15,15,11,1016,68,1,20141025180000
374,"Gangcheng EPA, Laiwu",,36.066836,117.871823,156,106,10,24,39,23,15,11,1016,68,1,20141025180000
375,"City EPA, Laiwu",,36.228913,117.694797,165,111,25,49,61,22,15,11,1016,68,1,20141025180000
376,Laiwu,,36.213688,117.682612,178,103,33,51,59,14,-,-,0,-,-,20141025180000
377,"Lunan Pharmaceutical Factory, Linyi",,35.061671,118.299527,206,313,5,77,50,35,15,10,0,72,2,20141025180000
378,"Yihe compound, Linyi",,35.056752,118.34739,224,186,14,79,58,31,15,10,0,72,2,20141025180000
379,"Linyi University, Linyi",,35.114777,118.293414,223,195,7,54,53,26,15,10,0,72,2,20141025180000
380,City EPA,Nanfang,35.104871,118.353518,185,157,13,46,28,20,15,10,0,72,2,20141025180000
381,"Xinguang woolen factory, Linyi",,34.981004,118.282,190,157,12,44,109,19,15,10,0,72,2,20141025180000
382,"Hongfu Baijiu Factory, Linyi",,34.998788,118.257275,212,349,12,56,72,20,15,10,0,72,2,20141025180000
384,"Hedong insurance company, Linyi",,35.089354,118.40812,179,125,21,37,27,18,15,10,0,72,2,20141025180000
385,"Jianghua vehicule center, Linyi",,35.010082,118.435749,170,93,21,26,17,15,15,10,0,72,2,20141025180000
386,Linyi,,35.10428,118.362202,206,313,5,44,109,35,15,10,0,72,2,20141025180000
387,"Heima group, Dezhou",,37.466063,116.314134,179,95,36,10,22,9,21,12,1012,49,1,20141025180000
388,"Monitoring station, Dezhou",,37.433107,116.377312,195,121,19,33,50,12,21,12,1012,49,1,20141025180000
389,"Supervision Station, Dezhou",,37.449689,116.324709,182,111,26,22,33,17,21,12,1012,49,1,20141025180000
390,"Huayu technical school, Dezhou",,37.462809,116.357559,183,95,28,19,49,11,21,12,1012,49,1,20141025180000
391,"Shuangyi group, Dezhou",,37.478848,116.316362,204,93,22,26,31,17,21,12,1012,49,1,20141025180000
392,Dezhou,,37.434959,116.363366,179,95,36,10,33,9,21,12,1012,49,1,20141025180000
393,"Dongchang District Government, Liaocheng",,36.444473,115.971733,168,90,46,22,17,17,21,14,1013,54,2,20141025180000
394,"Light Machinery Factory No. 2, Liaocheng",,36.456788,116.002383,173,112,41,21,18,15,21,14,1013,54,2,20141025180000
395,"City committee communist party school, Liaocheng",,36.479537,115.989288,165,101,32,14,18,17,21,14,1013,54,2,20141025180000
396,"Customs, Liaocheng",,36.431933,115.956974,178,105,50,18,15,15,21,14,1013,54,2,20141025180000
397,"Hongshun Garden, Liaocheng",,36.471124,115.960319,167,108,39,22,15,13,21,14,1013,54,2,20141025180000
398,"BDA, Liaocheng",,36.459407,116.043621,174,107,32,17,24,18,21,14,1013,54,2,20141025180000
399,Liaocheng,,36.456792,115.991051,168,90,46,22,17,17,21,14,1013,54,2,20141025180000
400,"City EPA, Binzhou",,37.38024,118.026895,160,69,7,27,15,17,22,11,1013,41,2,20141025180000
401,"Beizhong new school, Binzhou",,37.38374,117.988996,166,85,7,36,13,19,22,11,1013,41,2,20141025180000
402,"No.2 water factory, Binzhou",,37.36155,118.002648,162,87,5,28,17,18,22,11,1013,41,2,20141025180000
403,"Keling Chemical factory, Binzhou",,37.396138,117.943609,163,66,12,63,65,15,22,11,1013,41,2,20141025180000
404,"Yinhe logistics company, Binzhou",,37.356122,117.943326,139,74,24,6,27,14,26,10,1011,27,3,20141025180000
405,"Bilin compond, Binzhou",,37.36815,117.978964,160,93,8,23,19,15,22,11,1013,41,2,20141025180000
406,Binzhou,,37.382639,117.976606,160,69,7,27,15,17,22,11,1013,41,2,20141025180000
407,"Bureau of Meteorology, Heze",,35.248625,115.428775,170,96,35,12,12,11,17,12,0,73,4,20141025180000
408,"Sewage treatment plant, Heze",,35.222517,115.531511,183,131,30,30,10,13,17,12,0,73,4,20141025180000
409,"Municipal CPPCC, Heze",,35.237125,115.480591,168,89,44,14,14,12,17,12,0,73,4,20141025180000
410,"Huarun Pharmaceutical Company, Heze",,35.261463,115.524873,173,121,48,21,30,12,17,12,0,73,4,20141025180000
411,"Heze University, Heze",,35.269706,115.460934,160,94,59,12,19,11,17,12,0,73,4,20141025180000
412,Heze,,35.233354,115.486503,170,96,35,12,12,11,17,12,0,73,4,20141025180000
413,"Shiji Park, Shijiazhuang",,38.03155,114.547873,294,380,12,36,8,22,12,12,1013,100,2,20141025180000
414,"Xinan College, Shijiazhuang",,38.012764,114.473163,284,354,2,22,19,27,12,12,1013,100,2,20141025180000
415,"Chemical College, Shijiazhuang",,38.055503,114.569816,429,273,2,29,7,31,12,12,1013,100,2,20141025180000
416,"Worker hospital, Shijiazhuang",,38.051784,114.461209,273,424,8,29,6,28,12,12,1013,100,2,20141025180000
417,"Northwest Water Company, Shijiazhuang",,38.140638,114.508038,193,159,19,26,22,21,12,12,1013,100,2,20141025180000
418,"High-tech zone, Shijiazhuang",,38.040482,114.610775,262,339,2,25,5,25,12,12,1013,100,2,20141025180000
419,"Fenglong Montain, Shijiazhuang",,37.910829,114.360264,142,86,42,12,50,11,12,12,1013,100,2,20141025180000
1130,"Zhengding Unicom, Shijiazhuang",,38.159458,114.59879,436,650,4,40,8,31,12,12,1013,100,2,20141025180000
1131,"Luancheng Communications, Shijiazhuang",,37.906534,114.638785,289,249,7,28,43,32,12,12,1013,100,2,20141025180000
1132,"Gaocheng Experimental School, Shijiazhuang",,38.039518,114.867812,254,357,4,22,52,30,12,12,1013,100,2,20141025180000
1133,"Wuji EPA, Shijiazhuang",,38.17862,114.997012,185,117,12,17,12,30,12,12,1013,100,2,20141025180000
1134,"Shenze Power Supply Bureau, Shijiazhuang",,38.197674,115.219126,188,151,8,25,7,33,12,12,1013,100,2,20141025180000
1135,"Zhaoxian EPA, Shijiazhuang",,37.77171,114.775957,391,450,4,33,17,31,12,12,1013,100,2,20141025180000
1136,"Gaoyi County City Hall, Shijiazhuang",,37.623535,114.612729,347,426,7,41,9,29,12,12,1013,100,2,20141025180000
1137,"Zanhuang County City Hall, Shijiazhuang",,37.672898,114.398269,323,470,6,44,9,30,12,12,1013,100,2,20141025180000
1138,"Jingxing Bureau of Meteorology, Shijiazhuang",,38.038788,114.158406,442,722,2,49,13,41,12,12,1013,100,2,20141025180000
1139,"Pingshan Ye River, Shijiazhuang",,38.266657,114.210275,181,129,4,33,6,36,12,12,1013,100,2,20141025180000
420,Shijiazhuang,,38.042926,114.520834,288,426,2,32,8,17,12,12,1013,100,2,20141025180000
421,"No. 12 middle school, Tangshan",,39.659306,118.190271,345,457,3,62,77,68,-,-,0,-,-,20141025180000
422,"Ceramics Company, Tangshan",,39.669255,118.225185,282,189,4,34,14,39,13,13,1014,100,5,20141025180000
423,"Commodities Bureau, Tangshan",,39.642301,118.191265,294,288,5,49,6,33,13,13,1014,100,5,20141025180000
424,"Leidazhanzi Station, Tangshan",,39.644375,118.150383,256,315,7,48,10,32,13,13,1014,100,5,20141025180000
425,"Supply and marketing cooperatives, Tangshan",,39.632334,118.17232,319,327,6,67,14,32,14,13,1015,94,2,20141025180000
1140,"Guye District City Hall, Tangshan",,39.741379,118.460246,227,174,4,41,15,51,13,13,1014,100,5,20141025180000
1141,"Kaiping Stations, Tangshan",,39.675246,118.275149,233,256,2,24,12,41,13,13,1014,100,5,20141025180000
1142,"Fengnan District City Hall, Tangshan",,39.5834,118.097454,240,279,8,44,13,34,13,13,1014,100,5,20141025180000
1143,"Fengrun City Hall, Tangshan",,39.840355,118.175338,200,180,1,44,24,47,13,13,1014,100,5,20141025180000
1144,"Qianxi EPA, Tangshan",,40.153339,118.317265,268,292,4,46,13,65,13,13,1014,100,5,20141025180000
1145,"Caofeidian Xinli  Primary School, Tangshan",,39.291232,118.462182,177,91,7,47,53,24,13,13,1014,100,5,20141025180000
1146,"Zunhua EPA, Tangshan",,40.206249,117.997315,358,320,12,31,18,44,13,13,1014,100,5,20141025180000
1147,"Qianan No.1 middle school, Tangshan",,40.004248,118.717055,342,289,1,46,19,92,13,13,1014,100,5,20141025180000
1266,"Luannan County , Tangshan",,39.511132,118.686928,228,135,14,45,10,28,13,13,1014,100,5,20141025180000
1267,"Yutian County , Tangshan",,39.908249,117.751417,291,322,3,53,12,55,13,13,1014,100,5,20141025180000
426,Tangshan,,39.632175,118.186472,294,289,5,62,11,29,-,-,0,-,-,20141025180000
427,"City Monitoring Station, Qinhuangdao",,39.958109,119.607773,268,160,5,27,17,45,,,0,,,20141025180000
428,"Beidaihe, Qinhuangdao",,39.829209,119.53194,266,131,9,37,38,23,,,0,,,20141025180000
429,"Shanhai Pass, Qinhuangdao",,40.019298,119.767898,249,169,4,77,38,42,,,0,,,20141025180000
430,"Contruction Plazz, Qinhuangdao",,39.943187,119.542912,229,173,8,29,24,33,,,0,,,20141025180000
431,"City government, Qinhuangdao",,39.93711,119.612769,317,119,2,33,20,26,,,0,,,20141025180000
1148,"Qinglong EPA, Qinhuangdao",,40.419223,118.958002,326,242,28,34,16,66,,,0,,,20141025180000
1149,"Changli EPA, Qinhuangdao",,39.714369,119.173237,331,299,13,35,13,22,,,0,,,20141025180000
1268,"Lulong County Bureau of Meteorology , Qinhuangdao",,39.901091,118.904857,227,147,8,1,8,29,,,0,,,20141025180000
432,Qinhuangdao,,39.936485,119.606263,317,119,2,33,20,26,,,0,,,20141025180000
433,"CongTai Park, Handan",,36.620197,114.501891,197,125,32,22,17,10,,,0,,,20141025180000
434,"City EPA, Handan",,36.618145,114.518822,189,123,34,31,16,10,,,0,,,20141025180000
435,"East Sewage Factory, Handan",,36.616064,114.548714,205,128,30,25,20,5,,,0,,,20141025180000
436,"Mine Hospital, Handan",,36.578149,114.509854,214,113,35,15,5,7,,,0,,,20141025180000
1150,"Fengfeng mine Inland Revenue Department, Handan",,36.423085,114.245994,189,130,17,30,53,8,,,0,,,20141025180000
1151,"Shexian EPA, Handan",,36.589084,113.692341,168,122,17,40,21,7,,,0,,,20141025180000
1152,"Ci County Vocational Education Center, Handan",,36.380247,114.390119,183,91,27,36,38,9,,,0,,,20141025180000
1153,"Yongnian government guesthouse, Handan",,36.783297,114.502905,195,146,14,46,1,7,,,0,,,20141025180000
1154,"Wuan BDA, Handan",,36.686223,114.269009,198,191,7,45,42,50,,,0,,,20141025180000
1085,Handan,,36.625683,114.544812,205,128,30,25,20,5,,,0,,,20141025180000
437,"Road and Bridge Corporation, Xingtai",,37.096415,114.538799,331,226,1,40,28,31,15,14,1012,100,1,20141025180000
438,"Dahuo fontain, Xingtai",,37.097563,114.488001,256,270,1,44,29,34,15,14,1012,100,1,20141025180000
439,"Xingtai Normal College, Xingtai",,37.053404,114.531819,252,260,2,43,36,42,15,14,1012,100,1,20141025180000
440,"Environment protection office, Xingtai",,37.06253,114.490985,278,379,9,85,34,32,15,14,1012,100,1,20141025180000
1155,"Cultural centers within the mound, Xingtai",,37.293569,114.524873,327,465,5,42,23,48,15,14,1012,100,1,20141025180000
383,Xingtai,,37.071066,114.510749,278,379,2,44,36,42,15,14,1012,100,1,20141025180000
441,"City Monitoring Station, Baoding",,38.871737,115.527103,256,170,9,28,9,27,13,13,1012,98,0,20141025180000
442,"Surface water Company, Baoding",,38.842891,115.467326,251,203,3,73,11,23,13,13,1012,98,0,20141025180000
443,"Huadian II, Baoding",,38.896748,115.528102,222,162,6,6,3,19,13,13,1012,98,0,20141025180000
444,"Reception Center, Baoding",,38.911905,115.477301,221,383,1,20,7,18,13,13,1012,98,0,20141025180000
445,"Film Factory, Baoding",,38.876949,115.448383,251,296,3,36,6,38,13,13,1012,98,0,20141025180000
446,"Natatorium, Baoding",,38.863815,115.499212,206,203,3,33,11,28,13,13,1012,98,0,20141025180000
1156,"Qingyuan City Hall, Baoding",,38.771758,115.502189,194,163,19,23,96,34,13,13,1012,98,0,20141025180000
1157,"Xushui EPA, Baoding",,39.025781,115.668023,236,232,9,33,40,33,13,13,1012,98,0,20141025180000
1158,"Zhouzhou Monitoring Stations, Baoding",,39.493241,116.040187,267,269,23,30,9,28,13,13,1012,98,0,20141025180000
1159,"Gaobeidian EPA, Baoding",,39.3329,115.885891,304,337,10,38,18,30,13,13,1012,98,0,20141025180000
447,Baoding,,38.874791,115.471124,251,296,3,36,6,38,13,13,1012,98,0,20141025180000
448,"Century Compound, Zhangjiakou",,40.770279,114.909106,72,7,16,2,2,5,15,-6,1017,12,5,20141025180000
449,"North Pumping Station, Zhangjiakou",,40.874362,114.910119,57,36,28,2,1,5,15,-6,1017,12,5,20141025180000
450,"Hardware Warehouse, Zhangjiakou",,40.81232,114.887119,9,18,17,7,23,19,15,-6,1017,12,5,20141025180000
451,"Tanji Chang, Zhangjiakou",,40.796301,114.89811,59,18,20,4,18,6,15,-6,1017,12,5,20141025180000
1160,"Xiahuayuan EPA, Zhangjiakou",,40.509345,115.302442,112,114,14,14,22,7,15,-6,1017,12,5,20141025180000
1161,"Huaian EPA, Zhangjiakou",,40.68157,114.398646,53,24,32,3,13,0,15,-6,1017,12,5,20141025180000
1162,"Huailai Fuqian Primary School, Zhangjiakou",,40.422204,115.530285,102,77,5,21,14,14,15,-6,1017,12,5,20141025180000
1269,"Zhangbei EPA , Zhangjiakou",,41.166775,114.732369,61,30,21,2,7,6,15,-6,1017,12,5,20141025180000
1270,"Kangbao County Environmental Protection Agency , Zhangjiakou",,41.837866,114.591246,59,40,32,2,8,2,15,-6,1017,12,5,20141025180000
1271,"Guyuan County welfare , Zhangjiakou",,41.669984,115.687401,63,39,25,3,3,4,15,-6,1017,12,5,20141025180000
1272,"Shangyi County Environmental Protection Bureau , Zhangjiakou",,41.086638,113.984688,68,47,29,6,13,3,15,-6,1017,12,5,20141025180000
1273,"Yuxian Secondary School , Zhangjiakou",,39.84699,114.601986,93,62,21,8,7,7,15,-6,1017,12,5,20141025180000
1274,"Yang County Vocational Education Center , Zhangjiakou",,40.106343,114.134732,89,50,33,1,4,6,15,-6,1017,12,5,20141025180000
1275,"Wan county Environmental Protection Agency , Zhangjiakou",,40.770459,114.75033,78,38,32,11,2,2,15,-6,1017,12,5,20141025180000
473,"Nankou road, Tianjin",,39.174022,117.199688,255,155,2,34,5,28,13,13,1014,100,2,20141025180000
1276,"Zhuolu County Environmental Protection Agency , Zhangjiakou",,40.374273,115.221393,153,49,16,1,16,12,15,-6,1017,12,5,20141025180000
452,Zhangjiakou,,40.825744,114.893659,53,36,22,1,13,2,15,-6,1017,12,5,20141025180000
453,"Railway, Chengde",,40.917557,117.972331,232,172,9,33,11,19,10,8,1016,92,0,20141025180000
454,"Cultural Center, Chengde",,40.974625,117.824437,227,165,2,29,9,23,10,8,1016,92,0,20141025180000
455,"Bank of China, Chengde",,40.985582,117.958304,237,166,1,26,48,21,10,8,1016,92,0,20141025180000
456,"BDA, Chengde",,40.937567,117.969325,233,228,5,33,10,14,10,8,1016,92,0,20141025180000
457,"Ligong, Chengde",,41.012579,117.94428,254,432,13,24,5,17,10,8,1016,92,0,20141025180000
1163,"Chengde County EPA, Chengde",,40.776643,118.17646,264,107,2,28,4,33,10,8,1016,92,0,20141025180000
1164,"Xinglong County City Hall, Chengde",,40.424301,117.513488,259,175,18,28,10,35,10,8,1016,92,0,20141025180000
1165,"Luanping EPA, Chengde",,40.950792,117.350715,267,186,48,39,7,18,10,8,1016,92,0,20141025180000
1166,"Fengning County City Hall, Chengde",,41.216739,116.658037,80,55,28,1,2,10,10,8,1016,92,0,20141025180000
1277,"Longhua EPA , Chengde",,41.311956,117.739605,153,76,27,17,6,17,10,8,1016,92,0,20141025180000
458,Chengde,,40.955652,117.968737,233,228,5,33,10,14,10,8,1016,92,0,20141025180000
459,"Municipal EPB, Cangzhou",,38.323507,116.876746,360,476,8,40,4,23,13,13,1014,100,5,20141025180000
460,"Cangxian Urban Construction Bureau, Cangzhou",,38.299495,116.890734,288,312,2,30,15,23,14,13,1015,94,2,20141025180000
461,"TV Broadcast Station, Cangzhou",,38.325525,116.863761,342,362,5,62,10,23,14,13,1015,94,2,20141025180000
1167,"Qing County City Hall, Cangzhou",,38.589643,116.815876,337,324,1,38,10,37,13,13,1014,100,5,20141025180000
1168,"Poyoushi City Hall, Cangzhou",,38.089516,116.590575,420,399,17,33,8,23,13,13,1014,100,5,20141025180000
1169,"Huanghua Finance Bureau Training Center, Cangzhou",,38.377793,117.343356,264,185,2,34,4,14,13,13,1014,100,5,20141025180000
462,Cangzhou,,38.305035,116.844625,342,362,5,62,10,23,14,13,1015,94,2,20141025180000
463,"Environmental Monitoring Supervision Center, Langfang",,39.558157,116.720995,310,255,14,49,10,23,13,13,1013,100,3,20141025180000
464,"TCM Medical Material Company, Langfang",,39.519096,116.689914,221,199,5,43,8,28,14,13,1015,94,2,20141025180000
465,"BDA, Langfang",,39.576175,116.779041,185,152,2,39,9,21,14,13,1015,94,2,20141025180000
466,"North China Institute of Aerospace, Langfang",,39.53517,116.743027,196,140,7,38,6,28,13,13,1013,100,3,20141025180000
1170,"Guan Party School, Langfang",,39.446185,116.311026,333,253,17,58,6,29,14,13,1013,94,1,20141025180000
1171,"Xianghe EPA, Langfang",,39.76725,117.015252,244,175,9,40,58,26,13,13,1013,100,3,20141025180000
1172,"Wenan County EPA, Langfang",,38.880927,116.47001,209,176,11,44,18,33,13,13,1013,100,3,20141025180000
1173,"Three Rivers Department of Transportation, Langfang",,39.989419,117.091528,287,413,10,27,9,35,13,13,1013,100,3,20141025180000
1278,"Yongqing EPA , Langfang",,39.329071,116.510917,257,196,8,47,16,47,13,13,1013,100,3,20141025180000
1279,"Dacheng EPA, Langfang",,38.712628,116.665751,187,181,11,54,10,33,13,13,1013,100,3,20141025180000
467,Langfang,,39.539148,116.689668,221,199,5,43,8,28,14,13,1015,94,2,20141025180000
468,"Hengshui City EPB, Hengshui",,37.739679,115.695929,185,106,42,16,11,8,15,11,0,72,1,20141025180000
469,"Environmental Monitoring Station, Hengshui",,37.738593,115.648837,199,174,32,45,8,6,15,11,0,72,1,20141025180000
470,"Electrical Machine North Factory, Hengshui",,37.758686,115.70094,182,111,41,17,10,9,15,11,0,72,1,20141025180000
1174,"Anping EPA, Hengshui",,38.238559,115.537988,190,170,9,27,18,31,16,11,0,68,1,20141025180000
1175,"Jizhou EPA, Hengshui",,37.548552,115.58679,192,117,44,13,13,9,16,11,0,68,1,20141025180000
1280,"Zaoqiang EPA, Hengshui",,37.520698,115.714936,191,122,90,12,10,10,16,11,0,68,1,20141025180000
1281,"Wuyi EPA, Hengshui",,37.801554,115.898697,203,132,42,12,22,8,16,11,0,68,1,20141025180000
1282,"Wuqiang EPA , Hengshui",,38.03557,115.959767,321,329,8,1,9,24,16,11,0,68,1,20141025180000
1283,"Raoyang EPA , Hengshui",,38.230652,115.741041,200,157,4,1,3,25,16,11,0,68,1,20141025180000
1284,"Gucheng County , Hengshui",,37.347569,115.966707,196,106,95,13,12,3,16,11,0,68,1,20141025180000
471,Hengshui,,37.739562,115.676066,182,111,41,17,10,9,15,11,0,72,1,20141025180000
1176,"Xinji City Hall, Xinji",,37.949711,115.230084,247,199,3,14,17,34,16,11,0,68,1,20141025180000
474,"Qinjian street, Tianjin",,39.166588,117.15104,228,186,2,38,3,26,13,13,1014,100,2,20141025180000
475,"Nanjing Road, Tianjin",,39.120958,117.195112,288,242,2,26,4,28,13,13,1014,100,2,20141025180000
476,"Dazhigu No.8 road, Tianjin",,39.111811,117.25147,248,171,4,34,3,30,13,13,1014,100,2,20141025180000
477,"Qianjin street, Tianjin",,39.09371,117.207981,278,183,2,33,5,31,13,13,1014,100,2,20141025180000
478,"Huaihe street, Tianjin",,39.227167,117.191293,179,80,1,26,4,18,13,13,1014,100,2,20141025180000
479,"Xiangshan street, Tianjin",,39.134752,117.275125,201,117,1,9,3,32,13,13,1014,100,2,20141025180000
480,"Yuejin Road, Tianjin",,39.088177,117.320884,194,124,2,28,3,32,13,13,1014,100,2,20141025180000
482,"No.4 street, Tianjin",,39.035228,117.713424,185,129,3,39,1,19,13,13,1014,100,2,20141025180000
483,"Yongming road, Tianjin",,38.840392,117.463805,246,181,6,35,3,21,13,13,1014,100,2,20141025180000
484,"Xinhua street, Tianjin",,39.138671,117.010083,184,125,2,22,3,25,13,13,1014,100,2,20141025180000
485,"Jingu Road, Tianjin",,38.985659,117.381254,172,89,4,31,2,23,13,13,1014,100,2,20141025180000
486,"Tanggu Yingkou street, Tianjin",,39.021768,117.656454,232,135,4,41,3,14,13,13,1014,100,2,20141025180000
487,"Hexi Yijing road, Tianjin",,39.248392,117.798043,189,110,6,10,7,29,13,13,1014,100,2,20141025180000
488,"Jianshe Road, Tianjin",,39.720075,117.310588,347,199,7,18,3,27,13,13,1014,100,2,20141025180000
489,"Quanzhou South road, Tianjin",,39.373857,117.050329,212,150,5,12,4,18,13,13,1014,100,2,20141025180000
490,"Donghuan road, Tianjin",,40.043144,117.451062,308,176,3,25,3,30,13,13,1014,100,2,20141025180000
491,"Tuanpowa, Tianjin",,38.920418,117.16299,167,134,1,42,2,25,13,13,1014,100,2,20141025180000
493,"Beiwei No.2 road, Tianjin",,38.943857,116.920624,176,77,2,33,3,30,13,13,1014,100,2,20141025180000
494,"Haitai fazhan No.2 road, Tianjin",,39.079608,117.096583,208,109,3,37,3,31,13,13,1014,100,2,20141025180000
495,"Hangtian road, Tianjin",,39.152244,117.381309,195,141,2,29,5,24,13,13,1014,100,2,20141025180000
496,"Hanbei road, Tianjin",,39.159768,117.770477,216,69,4,18,6,23,13,13,1014,100,2,20141025180000
497,"Baobai highway, Tianjin",,39.51757,117.349635,353,677,14,12,9,20,13,13,1014,100,2,20141025180000
498,Tianjin,,39.085164,117.207281,278,183,2,33,5,31,13,13,1014,100,2,20141025180000
499,"Wolong bridge, Hangzhou",,30.24371,120.132762,163,74,18,27,10,12,17,14,1017,82,1,20141025180000
500,"Hemu primary school, Hangzhou",,30.309669,120.124507,172,104,25,51,5,12,17,14,1017,82,1,20141025180000
501,"Zhejiang Agricultural University, Hangzhou",,30.265601,120.197583,154,87,16,58,9,11,17,14,1017,82,1,20141025180000
502,"Xiasha, Hangzhou",,30.303516,120.352618,163,90,18,38,7,8,17,14,1017,82,1,20141025180000
503,"Yunqi, Hangzhou",,30.178555,120.093142,155,64,15,22,5,9,17,14,1017,82,1,20141025180000
504,"Xixi, Hangzhou",,30.272425,120.068144,162,73,21,38,6,9,17,14,1017,82,1,20141025180000
505,"Chengxiang town, Hangzhou",,30.179493,120.274184,168,118,11,53,17,12,17,14,1017,82,1,20141025180000
506,"Qiandao lake, Hangzhou",,29.638139,119.031092,124,50,38,6,4,4,17,14,1017,82,1,20141025180000
507,"Linping town, Hangzhou",,30.415948,120.305059,155,60,22,31,10,12,17,14,1017,82,1,20141025180000
509,"No.2 Middle School, Hangzhou",,30.044303,119.956356,170,128,15,24,8,11,17,14,1017,82,1,20141025180000
510,"City Hall, Hangzhou",,30.234185,119.723503,152,67,33,17,10,10,17,14,1017,82,1,20141025180000
511,"No. 4 middle school, Hangzhou",,30.229428,119.699591,144,64,17,16,8,10,17,14,1017,82,1,20141025180000
512,Hangzhou,,30.271756,120.159765,171,91,14,62,7,10,17,14,1017,82,1,20141025180000
513,"City Station, Wenzhou",,28.009715,120.679129,124,56,25,24,9,8,15,13,0,88,1,20141025180000
514,"Ouhai, Wenzhou",,28.001846,120.641982,154,81,18,44,15,11,15,13,0,88,1,20141025180000
515,"Longwan, Wenzhou",,27.968122,120.768393,154,91,21,44,9,9,15,13,0,88,1,20141025180000
516,"Nanpu, Wenzhou",,27.981763,120.683685,97,55,22,21,9,8,15,13,0,88,1,20141025180000
517,Wenzhou,,27.990985,120.703425,97,55,22,21,9,8,15,13,0,88,1,20141025180000
518,"Monitoring station, Jiaxing",,30.75437,120.767373,175,102,38,27,13,8,19,16,1017,83,2,20141025180000
519,"Jiaxing University, Jiaxing",,30.745099,120.735004,127,0,38,23,6,6,19,16,1018,83,2,20141025180000
520,"Qinghe Primary School, Jiaxing",,30.775685,120.747969,97,64,31,22,9,6,19,16,1018,83,2,20141025180000
521,Jiaxing,,30.751627,120.762862,175,102,38,27,13,8,19,16,1017,83,2,20141025180000
522,"Chengbei water plant, Huzhou",,30.891155,120.096593,157,66,21,37,5,9,19,16,1017,83,2,20141025180000
523,"Jishan new village, Huzhou",,30.859939,120.120168,168,68,22,33,8,9,19,16,1017,83,2,20141025180000
524,"Town west water plant, Huzhou",,30.862371,120.084577,142,61,33,28,15,9,19,16,1018,83,2,20141025180000
525,Huzhou,,30.892304,120.091694,157,66,21,37,5,9,19,16,1017,83,2,20141025180000
526,"Donghu middle school, Shaoxing",,29.990447,120.647547,168,84,30,14,13,9,17,14,1017,82,1,20141025180000
527,"City EPA station, Shaoxing",,30.001695,120.584318,189,107,16,41,27,8,17,14,1017,82,0,20141025180000
528,"Chengdong BDA committee, Shaoxing",,29.986643,120.613578,183,97,18,31,12,7,17,14,1017,82,0,20141025180000
529,"Paojiang station, Shaoxing",,30.07574,120.62154,180,108,13,30,11,13,17,14,1017,82,0,20141025180000
530,"Shaoxing technical school, Shaoxing",,29.930983,120.577131,159,77,35,17,5,8,17,14,1017,82,1,20141025180000
531,"Library, Shaoxing",,29.706266,120.253183,159,76,8,14,5,18,17,14,1017,82,1,20141025180000
532,"Transporation management station, Shaoxing",,29.726405,120.221602,154,74,11,21,7,21,17,14,1017,82,1,20141025180000
533,"Dongpu Town Governement, Shaoxing",,30.049601,120.539893,191,124,19,35,19,8,17,14,1017,82,1,20141025180000
534,Shaoxing,,29.993122,120.590182,189,108,16,41,27,8,-,-,0,-,-,20141025180000
535,"City Monitoring Station, Jinhua",,29.100031,119.690373,158,70,12,40,9,10,15,14,0,90,1,20141025180000
536,"No.15 middle school, Jinhua",,29.074022,119.652121,154,65,34,6,8,8,15,14,0,90,1,20141025180000
537,"No.4 middle school, Jinhua",,29.110109,119.653654,158,67,23,22,7,10,15,14,0,90,1,20141025180000
538,"Beiyuan, Jinhua",,29.332898,120.083351,162,97,7,38,34,16,15,14,0,90,1,20141025180000
539,"Jiangdong, Jinhua",,29.302486,120.095291,154,82,10,30,21,15,15,14,0,90,1,20141025180000
540,Jinhua,,29.076083,119.65215,154,65,34,6,8,8,15,14,0,90,1,20141025180000
541,"EPA building, Quzhou",,28.937291,118.876081,124,65,4,38,21,10,16,13,1018,77,1,20141025180000
542,"Experimental school, Quzhou",,28.961502,118.880916,127,60,13,42,13,5,16,13,1018,77,1,20141025180000
543,"Quzhou University, Quzhou",,28.971452,118.860052,132,58,7,24,9,10,16,13,1018,77,1,20141025180000
544,Quzhou,,28.966994,118.864252,132,58,7,24,9,10,16,13,1018,77,1,20141025180000
545,"Putuo east port, Zhoushan",,29.951412,122.317679,46,16,39,2,2,2,17,16,1018,94,1,20141025180000
546,"Dinghai tanfeng, Zhoushan",,30.018014,122.126566,53,25,16,11,4,11,17,16,1018,94,1,20141025180000
547,Zhoushan,,29.983049,122.210763,61,37,17,7,2,5,17,16,1018,94,1,20141025180000
548,"Taizhou EPA building, Taizhou",,28.651216,121.42331,142,66,27,8,3,12,14,13,0,93,1,20141025180000
549,"Luqiao Tian Yang Wang, Taizhou",,28.574364,121.381194,127,57,25,18,5,7,14,13,0,93,1,20141025180000
550,"Huangyan EPA building, Taizhou",,28.656151,121.285064,134,67,14,26,2,9,14,13,0,93,1,20141025180000
551,"Yu Zhuang Qian, Lishui",,28.419638,119.883884,159,61,11,23,3,7,19,16,1019,78,0,20141025180000
552,"Monitoring station building, Lishui",,28.444379,119.923103,127,56,11,24,6,7,19,16,1019,78,0,20141025180000
553,"Liandu primary school, Lishui",,28.450912,119.939332,122,65,15,15,1,6,19,16,1019,78,0,20141025180000
554,Lishui,,28.464224,119.927201,127,56,11,24,6,7,19,16,1019,78,0,20141025180000
1248,Jingningxian,,27.977454,119.634837,104,52,4,15,2,6,,,,,,20141025180000
555,Taigu Primary School,,29.864178,121.60022,87,46,30,4,5,5,17,16,1018,94,1,20141025180000
556,Qianhu shuihan,,29.862459,121.5328,99,59,19,16,5,8,17,16,1018,94,2,20141025180000
557,Sanjiang secondary schools,,29.891563,121.568427,109,57,26,24,8,9,17,16,1018,94,2,20141025180000
558,Longsai Hospital,,29.957301,121.726734,107,49,34,17,10,5,17,16,1018,94,1,20141025180000
559,Beilun District EPB,,29.911633,121.850773,65,32,42,4,3,5,17,16,1018,94,1,20141025180000
560,Wanli University,,29.821314,121.574364,158,80,31,6,7,5,17,16,1018,94,1,20141025180000
561,Qianhu water plant,,29.774416,121.648136,63,26,32,11,4,4,17,16,1018,94,2,20141025180000
562,Municipal management station,,29.899182,121.626691,82,42,31,12,4,6,17,16,1018,94,1,20141025180000
1177,Daxie Literary Museum,,29.9027,121.986447,61,23,37,6,4,3,17,16,1018,94,1,20141025180000
1178,Cixi EPB,,30.165807,121.248991,95,51,37,7,4,10,17,16,1018,94,2,20141025180000
1179,Cixi Experimently Primary School,,30.179808,121.268672,102,45,40,9,6,6,17,16,1018,94,1,20141025180000
1180,"Yongsan Park, Yuyao",,30.050842,121.162477,122,52,31,14,9,7,17,16,1018,94,1,20141025180000
1181,"Qilupu Water Company, Yuyao",,30.039112,121.133416,127,59,24,22,10,7,17,16,1018,94,2,20141025180000
1182,Fenghua EPB,,29.666557,121.42069,91,36,44,32,6,7,17,16,1018,94,1,20141025190000
1183,"Yuelong station, Ninghai",,29.296505,121.445872,112,51,16,15,7,6,17,16,1018,94,2,20141025190000
1184,"Wenfeng Primary School, Xiangshan",,29.470908,121.889544,70,39,25,8,3,4,17,16,1018,94,2,20141025190000
1185,"Chengnan Primary School, Ninghai",,29.293812,121.43666,-,-,-,-,-,-,-,-,0,-,-,20141025190000
1186,"Xingang Primary School, Xiangshan",,29.203878,121.952514,91,48,18,30,6,5,17,16,1018,94,1,20141025190000
1356,Haishu City Monitoring Center,,29.86835,121.539341,95,56,15,6,60,8,17,16,1018,94,1,20141025190000
1357,Fenghua Xikou government,,29.693164,121.29331,89,39,24,13,4,8,17,16,1018,94,1,20141025190000
1294,Ningbo,,29.865766,121.548164,82,42,31,12,4,6,17,16,1018,94,1,20141025190000
1187,Fuyang,,30.046157,119.96468,170,128,15,24,8,11,-,-,0,-,-,20141025190000
1188,Yiwu,,29.304353,120.079794,162,97,10,38,34,16,-,-,0,-,-,20141025190000
1189,Zhuji,,29.711185,120.240748,159,76,11,21,7,21,17,14,1017,82,1,20141025190000
563,"Shanxi Road , Nanjing",,32.06795,118.779216,174,156,23,65,11,4,14,14,1017,100,1,20141025190000
564,"Ruijin Road , Nanjing",,32.029321,118.80817,168,87,11,45,8,7,14,14,1017,100,1,20141025190000
565,"Xuanwu Lake, Nanjing",,32.075423,118.800188,160,83,22,53,10,5,14,14,1017,100,1,20141025190000
566,"Olympic Center, Nanjing",,32.007171,118.742217,178,112,22,32,4,3,14,14,1017,100,1,20141025190000
567,"Xianlin University Town , Nanjing",,32.106958,118.919882,170,100,20,43,14,6,14,14,1017,100,1,20141025190000
568,Nanjing,,32.058179,118.802061,170,107,12,70,15,3,14,14,1017,100,1,20141025190000
569,"Shangfang hill , Suzhou",,31.24502,120.565211,109,44,27,19,5,3,19,16,1017,83,2,20141025190000
570,"Wuzhong District , Suzhou",,31.268105,120.61717,102,37,36,25,5,2,19,16,1017,83,2,20141025190000
571,"Suzhou New District , Suzhou",,31.297277,120.547262,107,39,26,24,19,3,19,16,1017,83,2,20141025190000
572,"Suzhou Industrial Area, Suzhou",,31.307603,120.673257,119,52,29,19,9,3,19,16,1017,83,2,20141025190000
573,"Xiangcheng district, Suzhou",,31.368674,120.645209,72,55,32,25,6,2,19,16,1017,83,2,20141025190000
574,Suzhou,,31.296701,120.589493,142,55,41,30,15,4,19,16,1017,83,2,20141025190000
575,"South suburb , Nantong",,31.957836,120.917218,124,48,22,23,8,2,16,14,0,91,2,20141025190000
576,"Xinghu park, Nantong",,31.927873,120.944254,80,60,31,24,10,4,16,14,0,91,2,20141025190000
577,"Zilang school, Nantong",,32.039638,120.814358,107,60,23,33,20,0,16,14,0,92,2,20141025190000
578,Nantong,,31.978005,120.898555,117,60,30,33,20,4,16,14,0,92,2,20141025190000
579,Lianyungang,,34.595509,119.226814,152,84,21,27,10,7,8,8,1016,96,0,20141025190000
580,"Hongmen police substation, Lianyungang",,34.588692,119.146693,166,92,30,12,21,6,17,14,1016,77,2,20141025190000
581,"Xugou Nuclear Expert Village , Lianyungang",,34.749957,119.373707,129,75,38,12,15,7,18,13,1016,65,1,20141025190000
582,"Hengrui pharmaceutical company, BDA, Lianyungang",,34.697574,119.353668,152,78,39,16,14,3,17,14,1016,77,2,20141025190000
583,"City Monitoring Station, Lianyungang",,34.586791,119.186929,168,92,26,20,25,5,18,13,1016,65,1,20141025190000
584,"Yellow river new village , Xuzhou",,34.271542,117.177241,152,84,22,28,10,6,15,13,1016,86,0,20141025190000
585,"Tongshan Veterinary Hospital , Xuzhou",,34.307086,117.197766,124,77,25,30,4,5,15,13,1016,86,0,20141025190000
586,"New Town , Xuzhou",,34.213992,117.261718,152,81,18,29,5,4,15,13,1016,86,0,20141025190000
587,"Taoyuan road, Xuzhou",,34.289822,117.249721,155,81,28,8,6,6,15,13,1016,86,0,20141025190000
588,"Agricultural Science Academy , Xuzhou",,34.27655,117.299079,122,91,21,11,7,3,15,13,1016,86,0,20141025190000
589,"Tongshan EPA, Xuzhou",,34.179384,117.171798,170,96,4,11,11,6,15,13,1016,86,0,20141025190000
590,Xuzhou,,34.20346,117.289825,170,96,28,30,11,6,15,13,1016,86,0,20141025190000
591,Yangzhou,,32.39233,119.418446,159,69,10,19,10,5,11,9,0,90,6,20141025190000
592,"Hanjiang Monitoring Station, Yangzhou",,32.374218,119.394484,109,90,11,17,14,4,17,13,0,75,3,20141025190000
593,"No. 4 Hospital, Yangzhou",,32.401394,119.44444,147,79,19,17,25,7,17,13,0,73,3,20141025190000
594,"City Monitoring Station, Yangzhou",,32.406588,119.41591,109,77,5,27,27,7,17,13,0,73,3,20141025190000
595,"University Town , Wuxi",,31.484752,120.273571,112,60,30,12,11,3,19,16,1017,83,2,20141025190000
596,"Shibei High School , Wuxi",,31.619969,120.279584,107,64,28,27,18,7,19,16,1017,83,2,20141025190000
597,"Yuhong Elementary School , Wuxi",,31.561155,120.249588,129,70,20,22,10,4,19,16,1017,83,2,20141025190000
598,Wuxi,,31.488746,120.31575,153,70,41,27,18,7,-,-,0,-,-,20141025190000
599,Changzhou,,31.808037,119.979205,172,86,6,22,36,13,11,9,0,88,5,20141025190000
600,"Chengjian School, Changzhou",,31.776476,119.937681,153,80,25,17,9,3,17,14,0,85,2,20141025190000
601,"Changzhou Engineering Institute , Changzhou",,31.806828,119.966724,149,70,23,17,13,3,17,14,0,85,2,20141025190000
602,"Wujin Monitoring Station, Changzhou",,31.701788,119.939676,161,77,34,14,13,2,17,14,0,85,2,20141025190000
603,"City Monitoring Station, Changzhou",,31.777201,119.979426,158,71,23,26,13,6,17,14,0,85,2,20141025190000
604,Zhenjiang,,32.18597,119.431281,170,79,4,39,15,13,9,8,0,93,5,20141025190000
605,"New District Administrative office , Zhenjiang",,32.186174,119.685021,176,112,23,38,9,8,13,13,1017,100,1,20141025190000
606,"Vocational Education Center , Zhenjiang",,32.212973,119.496253,166,123,46,32,13,5,14,14,1017,100,1,20141025190000
607,"Dantu Monitoring Station , Zhenjiang",,32.130026,119.435432,168,113,27,34,14,6,13,13,1017,100,1,20141025190000
608,"City Monitoring Station, Zhenjiang",,32.202178,119.439766,159,99,31,29,21,11,13,13,1017,100,1,20141025190000
609,"Gaogang Adminstrative office , Taizhoushi",,32.300768,119.886757,168,110,6,17,22,10,17,13,0,75,3,20141025190000
610,"Students Innovation Park , Taizhoushi",,32.461672,119.892761,167,72,19,23,36,5,17,13,0,75,3,20141025190000
611,Taizhoushi,,32.453555,119.927852,170,121,19,55,36,10,17,13,0,75,3,20141025190000
612,"Yancheng power station , Yancheng",,33.400859,120.123067,159,73,32,15,13,2,,,0,,,20141025190000
613,Yancheng,,33.345939,120.168504,144,52,30,5,3,7,11,10,1016,95,4,20141025190000
614,"Wenfeng Middle School , Yancheng",,33.370531,120.134041,157,66,33,16,10,4,,,0,,,20141025190000
615,"BDA Management Committe, Yancheng",,33.393191,120.22978,109,36,31,8,6,1,,,0,,,20141025190000
616,"City Monitoring Station, Yancheng",,33.390623,120.164423,155,60,29,15,8,2,,,0,,,20141025190000
617,Suqian,,33.960666,118.281004,160,87,24,7,5,7,11,10,0,91,6,20141025190000
618,"Suqian College , Suqian",,33.951472,118.298523,109,68,39,11,11,4,17,9,0,61,3,20141025190000
619,"Suqian Middle School , Suqian",,33.95784,118.249505,160,135,33,31,21,4,17,9,0,61,3,20141025190000
620,"Suyu District Environmental Protection Agency , Suqian",,33.94932,118.326569,170,89,44,20,39,8,17,9,0,61,3,20141025190000
621,"City Monitoring Station, Suqian",,33.956982,118.277022,154,65,34,12,18,3,17,9,0,61,3,20141025190000
622,Taizhou,,28.653436,121.425185,152,70,27,8,4,12,14,13,0,93,1,20141025190000
623,Donghu Liyuan,,30.572324,114.377844,177,1,2,60,0,9,18,16,1015,88,2,20141025190000
624,Yuehu Lake,,30.554662,114.256937,173,1,2,0,0,13,18,16,1015,88,2,20141025190000
625,Hankou Huaqiao ,,30.61724,114.287652,161,1,3,0,0,12,18,16,1015,88,2,20141025190000
626,Wuchang Ziyang ,,30.530801,114.309438,175,1,20,0,0,15,18,16,1015,88,2,20141025190000
627,Qingshan Ganghua,,30.622435,114.375599,1,1,6,0,0,21,18,16,1015,88,2,20141025190000
628,Dunkou Xinou,,30.480091,114.162176,179,1,2,0,0,9,18,16,1015,88,2,20141025190000
629,Donghu Gaoxin,,30.48095,114.40724,187,1,9,0,0,10,18,16,1015,88,2,20141025190000
630,Wujianshan,,30.63114,114.135907,199,1,3,0,0,32,18,16,1015,88,2,20141025190000
631,Yuanshun Road,,30.297142,113.858587,174,1,23,0,0,5,18,16,1015,88,2,20141025190000
632,Wuhan,,30.590689,114.310838,164,1,2,0,0,11,18,16,1015,88,2,20141025190000
1190,"Silingsan Factory, Yichang",,30.713288,111.306585,1,1,6,0,0,9,19,15,1016,68,2,20141025190000
633,Yichang,,30.689528,111.292131,162,87,8,24,10,13,17,14,1015,79,2,20141025190000
633,Yichang,,30.689528,111.292131,162,87,8,24,10,13,17,14,1015,79,2,20141025190000
1191,"City Library , Jingzhou",,30.31494,112.260844,1,1,37,0,0,12,17,16,1015,89,1,20141025190000
1192,"City committee communist party school, Jingzhou",,30.35054,112.20743,1,1,24,0,0,11,17,16,1015,89,1,20141025190000
1193,"kerong EPA, Jingzhou",,30.302965,112.29443,1,1,25,0,0,13,17,16,1015,89,1,20141025190000
634,Jingzhou,,30.332608,112.245451,1,1,37,0,0,13,17,16,1015,89,1,20141025190000
634,Jingzhou,,30.332608,112.245451,1,1,37,0,0,13,17,16,1015,89,1,20141025190000
635,Huangshi,,30.19723,115.043908,195,128,24,36,30,29,17,,1020,92,2,20141025190000
635,Huangshi,,30.19723,115.043908,195,128,24,36,30,29,17,,1020,92,2,20141025190000
1194,"Chenjiaying, Huangshi",,30.232823,115.067923,192,131,8,25,15,18,17,,1020,92,2,20141025190000
1195,"Chenjiawan , Huangshi",,30.200422,115.082138,179,104,13,39,10,20,17,,1020,92,2,20141025190000
1196,"Xinxialu, Huangshi",,30.17332,114.954357,175,106,19,30,35,21,17,,1020,92,2,20141025190000
1197,"Tie montian, Huangshi",,30.203885,114.906439,180,99,16,27,12,28,17,,1020,92,2,20141025190000
1198,"BDA, Huangshi",,30.207491,115.031739,197,124,16,37,28,30,17,,1020,92,2,20141025190000
636,Shiyan,,32.627208,110.803311,104,51,6,9,8,5,8,,,85,1,20141025190000
636,Shiyan,,32.627208,110.803311,104,51,6,9,8,5,8,,,85,1,20141025190000
1199,"Wudang Mountain , Shiyan",,32.392921,111.047655,53,20,28,2,3,4,8,,,85,1,20141025190000
1200,"Riverside Village , Shiyan",,32.647286,110.785335,107,49,11,14,13,10,8,,,85,1,20141025190000
1201,"Liujiagou , Shiyan",,32.636732,110.731129,104,50,7,5,10,2,8,,,85,1,20141025190000
637,Xiangyang,,32.007029,112.128496,267,148,27,27,17,14,13,,1017,85,1,20141025190000
637,Xiangyang,,32.007029,112.128496,267,148,27,27,17,14,13,,1017,85,1,20141025190000
638,Ezhou,,30.389244,114.899884,200,142,36,29,29,18,18,,1027,94,3,20141025190000
638,Ezhou,,30.389244,114.899884,200,142,36,29,29,18,18,,1027,94,3,20141025190000
1203,"City government, Ezhou",,30.391836,114.892822,181,86,35,33,14,13,18,,1027,94,3,20141025190000
1204,"Zhaojiaba, Ezhou",,30.368966,114.90365,182,101,35,6,13,13,18,,1027,94,3,20141025190000
1205,"Fankou BDA, Ezhou",,30.410759,114.818225,200,143,17,44,45,18,18,,1027,94,3,20141025190000
639,Jingmen,,31.033208,112.205093,207,115,15,36,21,12,13,,1010,87,1,20141025190000
639,Jingmen,,31.033208,112.205093,207,115,15,36,21,12,13,,1010,87,1,20141025190000
640,Xiaogan,,30.922089,113.922387,172,102,26,1,10,10,19,,1016,88,2,20141025190000
640,Xiaogan,,30.922089,113.922387,172,102,26,1,10,10,19,,1016,88,2,20141025190000
1206,"wenhua street, Shenyang , Xiaogan",,30.925856,113.92104,163,91,85,28,14,14,22,,1015,68,3,20141025190000
1207,"Dongcheng District , Huludao , Xiaogan",,30.917963,113.943904,172,102,26,1,10,10,18,,1015,88,2,20141025190000
641,Huanggang,,30.45124,114.877378,174,93,24,15,6,14,18,,1027,94,3,20141025190000
641,Huanggang,,30.45124,114.877378,174,93,24,15,6,14,18,,1027,94,3,20141025190000
1208,"Dazhou Island, Huanggang",,30.446205,114.900323,178,102,22,21,6,14,18,,1027,94,3,20141025190000
1209,"Workers Center , Huanggang",,30.469244,114.912504,175,85,25,10,7,15,18,,1027,94,3,20141025190000
642,Xianning,,29.838978,114.327898,127,66,15,10,7,18,13,,992,85,1,20141025190000
642,Xianning,,29.838978,114.327898,127,66,15,10,7,18,13,,992,85,1,20141025190000
1210,"Municipal Development and Reform Commission , Xianning",,29.818645,114.328461,124,65,13,17,1,21,13,,992,85,1,20141025190000
1211,"Xianan District Governement, Xianning",,29.51107,114.181864,107,66,17,10,4,18,14,,1000,84,1,20141025190000
1212,"Yangtze River Industrial Park , Xianning",,29.883098,114.32909,144,69,16,5,19,18,13,,992,85,1,20141025190000
1213,"Qianshan Park, Xianning",,29.815351,114.328689,127,64,16,6,4,15,13,,992,85,1,20141025190000
643,Suizhou,,31.688342,113.388675,183,107,28,6,31,19,13,,1012,83,1,20141025190000
643,Suizhou,,31.688342,113.388675,183,107,28,6,31,19,13,,1012,83,1,20141025190000
1338,"City committee communist party school, Suizhou",,31.725316,113.3648,188,122,33,7,5,15,13,,1012,83,1,20141025190000
1339,"Forestry Bureau, Suizhou",,31.690065,113.383157,183,103,36,9,57,12,13,,1012,83,1,20141025190000
645,Xiantao,,30.360228,113.460616,171,90,12,11,15,12,15,,1026,81,1,20141025190000
645,Xiantao,,30.360228,113.460616,171,90,12,11,15,12,15,,1026,81,1,20141025190000
1214,"Xiangcheng Yundong Street, Xiangfan",,32.017716,112.16102,-,-,-,-,-,-,-,,0,-,-,20141025190000
1359,"Fancheng Xinhua Road , Xiangfan",,32.0544,112.145224,234,133,25,19,13,14,13,,1017,85,1,20141025190000
655,"City Environmental Monitoring Station, Baotou",,40.657201,109.886738,30,63,24,9,7,2,,,0,,,20141025190000
656,"Donghe EPB, Baotou",,40.586213,110.002224,50,91,17,24,10,21,,,0,,,20141025190000
657,"Baotou shopping mall, Baotou",,40.508334,109.819085,38,75,26,5,8,7,,,0,,,20141025190000
658,"Huilong logistics, Baotou",,40.633436,109.879821,68,65,15,10,8,4,,,0,,,20141025190000
659,Baotou,,40.658597,109.846051,68,91,29,26,10,21,,,0,,,20141025190000
660,"Huatai Automobile Mall, Eerduosi",,39.837048,109.972209,59,56,44,6,4,4,10,-2,1017,30,2,20141025190000
661,"Olympus Garden, Eerduosi",,39.789171,109.987742,80,70,36,18,12,7,10,-2,1017,30,2,20141025190000
662,Eerduosi,,39.609284,109.78704,80,70,44,18,12,7,10,-2,1017,30,2,20141025190000
663,"Tianyi Road, Chifeng",,42.275552,118.88507,70,122,42,1,1,16,4,-5,1024,44,5,20141025190000
664,"Songshan No.1 Middle School, Chifeng",,42.329307,118.793045,59,157,22,1,6,14,4,-5,1024,44,5,20141025190000
665,"Hada Street, Chifeng",,42.280714,118.988235,127,120,18,2,7,16,4,-5,1024,44,5,20141025190000
666,"Songshan Road, Chifeng",,42.171487,118.89501,159,441,95,2,5,6,4,-5,1024,44,5,20141025190000
667,Chifeng,,42.259752,118.893027,159,441,95,2,5,16,4,-5,1024,44,5,20141025190000
674,Fuzhou,,26.071406,119.301294,154,61,114,22,7,7,20,18,1018,88,2,20141025190000
675,"Xidong, Xiamen",,24.815345,118.161848,114,47,40,10,2,5,22,20,1018,88,2,20141025190000
676,"Hongwen, Xiamen",,24.473969,118.156281,78,50,41,28,9,6,22,20,1018,88,2,20141025190000
677,"Gulangyu, Xiamen",,24.443168,118.068571,85,35,49,15,7,5,22,20,1018,88,2,20141025190000
678,"Huli, Xiamen",,24.51235,118.099146,109,56,39,17,9,4,22,20,1018,88,2,20141025190000
679,Xiamen,,24.477187,118.094402,109,56,39,17,9,4,-,-,0,-,-,20141025190000
680,"Qingyuan Montain, Quanzhou",,24.939503,118.598337,63,26,40,3,3,5,22,20,1018,88,2,20141025190000
681,"Tushan Street, Quanzhou",,24.90867,118.586397,57,31,31,9,7,5,22,20,1018,88,2,20141025190000
682,"Wanan, Quanzhou",,24.304154,118.070903,91,39,18,5,4,5,22,20,1018,88,2,20141025190000
683,Quanzhou,,24.87179,118.68001,91,39,40,14,10,6,22,20,1018,88,2,20141025190000
687,"Jiancaoping, Taiyuan",,37.887889,112.528383,177,145,2,26,20,27,9,4,1018,71,1,20141025190000
688,"Jianhe, Taiyuan",,37.910779,112.579258,187,228,2,12,26,27,10,4,1018,66,1,20141025190000
689,"Shanglan, Taiyuan",,38.011589,112.440679,63,57,12,19,26,12,9,4,1018,71,1,20141025190000
690,"Jinyuan, Taiyuan",,37.713164,112.475552,169,108,1,28,42,13,9,4,1018,71,1,20141025190000
691,"Xiaodian, Taiyuan",,37.782137,112.483533,184,124,15,26,65,21,9,4,1018,71,1,20141025190000
692,"Taoyuan, Taiyuan",,37.869752,112.543332,184,141,1,48,16,34,10,4,1018,66,1,20141025190000
693,"Wucheng, Taiyuan",,37.819998,112.576252,235,303,1,22,37,34,9,4,1018,71,1,20141025190000
694,"Nanzhai, Taiyuan",,37.985902,112.555312,172,108,4,17,11,24,9,4,1018,71,1,20141025190000
695,"Jinsheng, Taiyuan",,37.781205,112.494494,157,93,4,33,46,14,9,4,1018,71,1,20141025190000
696,Taiyuan,,37.871115,112.555178,184,141,2,48,16,34,-,-,0,-,-,20141025190000
697,"Monitoring station, Changzhi",,36.194062,113.10389,109,60,15,30,12,11,,,0,,,20141025190000
698,"Auditing bureau, Changzhi",,36.212787,113.095221,144,62,23,28,9,13,,,0,,,20141025190000
699,"Qinghua station, Changzhi",,36.154328,113.116385,122,61,11,22,6,17,,,0,,,20141025190000
700,"No.8 middle school, Changzhi",,36.185451,113.099481,151,61,19,25,23,26,,,0,,,20141025190000
701,Changzhi,,36.195553,113.12292,151,62,35,30,23,26,,,0,,,20141025190000
702,"Yungang Hotel, Datong",,40.076997,113.278079,25,76,28,1,6,6,11,0,1018,33,5,20141025190000
703,"college of education, Datong",,40.085608,113.27808,34,62,17,2,3,7,7,-5,1019,29,1,20141025190000
704,Datong,,40.078016,113.307143,42,76,28,1,10,6,11,0,1018,42,5,20141025190000
705,"Technical Schools, Linfen",,36.07131,111.509046,191,172,14,43,7,29,9,0,0,50,1,20141025190000
706,"Municipal party committee, Linfen",,36.087425,111.508771,172,87,18,2,4,25,9,0,0,50,1,20141025190000
1073,"City Monitoring Station, Linfen",,36.097676,111.518739,199,126,8,45,16,29,9,-1,0,46,1,20141025190000
707,"South Airport, Linfen",,36.041614,111.497968,174,73,9,33,11,14,9,0,0,50,1,20141025190000
708,Linfen,,36.087944,111.525098,199,172,18,45,21,36,9,-1,0,46,1,20141025190000
709,"City center, Yangquan",,37.848012,113.578636,165,131,31,32,71,13,10,4,1018,66,1,20141025190000
710,Yangquan,,37.857475,113.586921,184,325,38,48,104,21,9,4,1018,71,1,20141025190000
711,"Water Company, Jincheng",,35.504787,112.857245,161,83,6,34,60,21,18,10,1015,49,1,20141025190000
712,"Baiyun shopping mall, Jincheng",,35.492858,112.841566,161,112,5,29,28,24,18,10,1015,49,1,20141025190000
713,"City EPA, Jincheng",,35.488422,112.858528,169,171,6,22,19,25,18,10,1015,49,1,20141025190000
714,"Institute of Technology, Jincheng",,35.484844,112.878073,168,131,8,13,20,15,18,10,1015,49,1,20141025190000
715,"No.1 middle school, Jincheng",,35.478725,112.838636,158,104,11,24,43,8,18,10,1015,49,1,20141025190000
716,Jincheng,,35.490287,112.85794,169,171,8,34,60,25,18,10,1015,49,1,20141025190000
718,"District Government, Shuozhou",,39.320857,112.430641,,50,,17,22,,13,-1,1016,27,3,20141025190000
719,"City EPA, Shuozhou",,39.331495,112.407997,164,73,20,15,18,11,15,3,1015,32,1,20141025190000
720,"No.2 middle school, Shuozhou",,39.377963,112.432877,107,62,13,21,14,10,13,-1,1016,27,3,20141025190000
721,Shuozhou,,39.332756,112.439672,107,88,13,18,20,10,15,3,1015,32,1,20141025190000
722,"Jinlun compound, Jinzhong",,37.697891,112.771017,162,80,6,12,55,2,10,4,1018,66,1,20141025190000
723,"Hydraulic Component Factory, Jinzhong",,37.688355,112.725844,157,82,3,29,32,16,10,4,1018,66,1,20141025190000
724,"Nandu compound, Jinzhong",,37.713148,112.732036,-,-,-,-,-,-,-,-,0,-,-,20141025190000
725,"Yuci district government, Jinzhong",,37.698228,112.714167,164,81,3,7,21,22,10,4,1018,66,1,20141025190000
726,Jinzhong,,37.687705,112.759187,164,82,6,29,55,22,9,4,1018,71,1,20141025190000
727,"Yuncheng Middle School, Yuncheng",,35.012345,111.003215,174,110,13,15,1,17,11,10,1016,92,0,20141025190000
728,"Yudou BDA, Yuncheng",,35.05065,111.029571,197,111,10,15,9,17,11,10,1016,92,0,20141025190000
730,"Regional Technical School, Yuncheng",,35.028727,110.974076,198,134,7,10,10,30,11,10,1016,92,0,20141025190000
731,"Airport new district, Yuncheng",,35.084515,111.05339,192,105,13,26,49,23,11,10,1016,92,0,20141025190000
732,Yuncheng,,35.025675,111.013344,198,134,13,26,49,30,-,-,0,-,-,20141025190000
733,"Jiyin, Xinzhou",,38.413292,112.742432,,78,,36,54,,10,4,1018,66,1,20141025190000
734,"BDA, Xinzhou",,38.450069,112.736723,165,77,3,6,29,14,10,4,1018,66,1,20141025190000
735,"Convention Center, Xinzhou",,38.492043,112.709772,196,123,17,26,26,27,10,4,1018,66,1,20141025190000
736,Xinzhou,,38.417244,112.740742,196,123,3,36,54,27,9,4,1018,71,1,20141025190000
737,"City EPA, Luliang",,37.522189,111.144365,87,54,3,24,19,21,10,9,0,84,1,20141025190000
738,"Soybean factory, Luliang",,37.51689,111.135101,119,84,1,24,52,28,10,9,0,84,1,20141025190000
739,"Water Company, Luliang",,37.53394,111.138834,149,106,6,18,14,25,10,9,0,84,1,20141025190000
740,Luliang,,25.027007,103.668566,149,106,6,24,52,28,10,9,0,84,1,20141025190000
741,"City government, Sanmenxia",,34.776251,111.198781,147,71,7,22,9,15,11,10,1016,92,0,20141025190000
743,"BDA, Sanmenxia",,34.800434,111.204332,153,93,22,24,4,17,11,10,1016,92,0,20141025190000
744,Sanmenxia,,34.771506,111.206129,157,94,8,24,9,17,11,10,1016,92,0,20141025190000
745,"Food Factory, Changchun",,43.919094,125.329521,124,126,21,6,7,18,5,-7,1015,42,7,20141025190000
746,"Bus Factory, Changchun",,43.912337,125.293431,78,112,10,6,4,16,5,-7,1015,42,7,20141025190000
747,"Institute of Posts and Telecommunications, Changchun",,43.842368,125.285005,122,84,2,34,22,16,5,-7,1015,42,7,20141025190000
748,"Laodong Park, Changchun",,43.877293,125.371519,168,121,8,26,10,18,5,-7,1015,42,7,20141025190000
749,"Forest area, Changchun",,43.871825,125.331519,134,114,8,-,7,25,5,-7,1015,42,7,20141025190000
750,"Jinyuetan, Changchun",,43.79031,125.460561,158,109,39,14,5,20,5,-7,1015,42,7,20141025190000
751,"Shuaiwanzi, Changchun",,43.552321,125.639086,195,160,10,2,4,16,5,-7,1015,42,7,20141025190000
752,"Economic Development Zone Sanitation Department, Changchun",,43.869221,125.42365,134,79,23,14,16,20,5,-7,1015,42,7,20141025190000
753,"High-tech Zone Administrative Committee, Changchun",,43.819064,125.256375,109,196,11,6,3,20,5,-7,1015,42,7,20141025190000
754,"Daishan Park, Changchun",,43.852365,125.223399,122,146,11,4,5,19,5,-7,1015,42,7,20141025190000
755,Changchun,,43.819415,125.329977,122,84,8,34,22,16,-,-,0,-,-,20141025190000
756,"Hadawan, Jilin",,43.888081,126.545727,290,174,30,10,9,23,4,-1,0,61,7,20141025190000
757,"Fengman, Jilin",,43.768169,126.678802,253,144,29,9,5,11,4,-1,0,61,7,20141025190000
758,"Electric Power College, Jilin",,43.827403,126.502281,241,133,19,9,5,15,4,-1,0,61,7,20141025190000
759,"Jiangnan Park, Jilin",,43.83531,126.556519,239,128,29,8,8,17,4,-1,0,61,7,20141025190000
760,"Dongjuzi, Jilin",,43.838597,126.590068,209,143,11,9,8,18,4,-1,0,61,7,20141025190000
763,Jilin,,43.840137,126.555262,290,178,31,26,9,23,4,-1,0,61,7,20141025190000
764,"Lingbei, Haerbin",,45.756979,126.548008,85,94,18,7,13,16,3,-7,1008,48,10,20141025190000
765,"Songbei Commercial University, Haerbin",,45.818624,126.566963,82,91,21,8,21,6,3,-7,1008,48,10,20141025190000
766,"Acheng huining, Haerbin",,45.544286,126.985183,157,106,12,4,5,7,3,-7,1008,48,10,20141025190000
767,"Nangang College Street, Haerbin",,45.724121,126.604906,95,99,15,8,13,11,3,-7,1008,48,10,20141025190000
768,"Taiping Hongwei Park, Haerbin",,45.775332,126.695101,119,110,16,10,14,12,3,-7,1008,48,10,20141025190000
769,"Daowai Chengde Square, Haerbin",,45.768637,126.640955,134,93,13,8,14,12,3,-7,1008,48,10,20141025190000
770,"Xiangfang Hongqi Street, Haerbin",,45.733936,126.691083,124,123,10,1,17,15,3,-7,1008,48,10,20141025190000
771,"Dongli Heping Road, Haerbin",,45.727765,126.651974,0,107,11,10,23,7,3,-7,1008,48,10,20141025190000
772,"Daoli Jianguo Road, Haerbin",,45.749715,126.59891,97,88,21,11,16,10,3,-7,1008,48,10,20141025190000
773,"Pingfang Light Factory, Haerbin",,45.611951,126.620898,229,132,3,27,14,13,7,0,1006,61,8,20141025190000
774,"Hulan Normal College, Haerbin",,45.983745,126.616553,182,138,21,6,7,12,3,-7,1008,48,10,20141025190000
775,"Provincial Academy of Agricultural Sciences, Haerbin",,45.686141,126.626517,102,91,10,9,20,6,3,-7,1008,48,10,20141025190000
776,Haerbin,,45.805757,126.541007,82,91,21,8,21,6,-,-,0,-,-,20141025190000
777,"Anju Compound, Qiqihaer",,47.365672,123.937016,0,18,24,1,3,7,0,-1,1006,92,3,20141025190000
778,"Farming Vehicule Factory, Qiqihaer",,47.326793,123.961427,25,11,19,6,14,10,0,-1,1006,92,3,20141025190000
779,"Fuqu EPA, Qiqihaer",,47.1853,123.62322,34,46,25,,2,7,0,-1,1006,92,3,20141025190000
780,"City Center Square, Qiqihaer",,47.343096,123.96192,46,14,22,1,7,12,0,-1,1006,92,3,20141025190000
1217,"City Environmental Monitoring Station, Qiqihaer",,47.303639,123.957551,419,39,19,1,2,4,0,-1,1006,92,3,20141025190000
781,Qiqihaer,,47.356387,123.924736,419,46,25,6,14,12,0,-1,1006,92,3,20141025190000
782,"Saertu District, Daqing",,46.582368,125.152904,34,48,25,10,10,6,3,-7,1007,33,3,20141025190000
783,"Datong District, Daqing",,46.036786,124.842115,53,83,31,2,4,7,3,-7,1007,33,3,20141025190000
784,"Honggang District, Daqing",,46.418381,124.88973,21,39,24,4,4,6,3,-7,1007,33,3,20141025190000
785,"Longfeng District, Daqing",,46.535426,125.107043,63,56,21,12,13,7,3,-7,1007,33,3,20141025190000
786,"Ranghulu District, Daqing",,46.635123,124.85648,65,44,33,4,6,5,3,-7,1007,33,3,20141025190000
787,Daqing,,46.591414,125.110838,65,83,33,12,13,7,3,-7,1007,33,3,20141025190000
788,"Locomotive Factory, Mudanjiang",,44.610589,129.652672,153,64,34,13,4,16,11,10,1006,91,5,20141025190000
789,"No. 1 hospital, Mudanjiang",,44.567775,129.617043,132,412,33,12,174,13,11,10,1006,91,5,20141025190000
1220,"EPA building, Mudanjiang",,44.567777,129.620658,151,65,14,9,4,10,11,10,1006,91,5,20141025190000
1221,"Cultural Square, Mudanjiang",,44.586388,129.623164,117,55,4,29,5,14,11,10,1006,91,5,20141025190000
790,Mudanjiang,,44.553619,129.640246,153,64,38,13,56,16,11,10,1006,91,5,20141025190000
791,"Mingzhu Plaza, Hefei",,31.782847,117.201512,166,98,105,21,15,9,15,13,1016,88,2,20141025190000
792,"Sanli Street, Hefei",,31.874637,117.312573,168,90,45,34,8,13,15,13,1016,88,2,20141025190000
793,"Hupo Compound, Hefei",,31.868583,117.264491,168,83,43,22,11,16,15,13,1016,88,2,20141025190000
794,"Dongpu Reservoir, Hefei",,31.90319,117.165584,158,89,80,25,7,8,15,13,1016,88,2,20141025190000
795,"Changjiang middle road, Hefei",,31.855185,117.255484,163,77,7,15,3,15,15,13,1016,88,2,20141025190000
796,"Luyang District, Hefei",,31.941771,117.271504,176,138,6,2,14,11,15,13,1016,88,2,20141025190000
797,"Yaohai District, Hefei",,31.856595,117.341644,168,98,12,7,4,23,15,13,1016,88,2,20141025190000
798,"Baohe District, Hefei",,31.793644,117.307554,164,104,3,1,2,8,15,13,1016,88,2,20141025190000
799,"Lake district, Hefei",,31.736619,117.283501,161,76,17,15,4,6,15,13,1016,88,2,20141025190000
800,"High-tech zone, Hefei",,31.849755,117.129624,164,89,10,16,6,5,15,13,1016,88,2,20141025190000
801,Hefei,,31.819449,117.232753,163,77,7,15,3,15,-,-,0,-,-,20141025190000
802,"Hudong Road No.4 Elementary School, Maanshan",,31.684121,118.511017,172,109,43,49,8,15,14,14,1016,100,1,20141025190000
803,"Tianping Garment Factory, Maanshan",,31.64197,118.488043,195,133,114,37,18,21,14,14,1016,100,1,20141025190000
804,"City education base, Maanshan",,31.711216,118.648913,163,86,12,8,8,6,14,14,1016,100,1,20141025190000
805,"Cihu No.2 elementary school, Maanshan",,31.748546,118.515729,185,169,24,45,25,14,14,14,1016,100,1,20141025190000
806,"Maanshan steel factory power plant, Maanshan",,31.690864,118.48528,173,119,21,44,7,16,14,14,1016,100,1,20141025190000
807,Maanshan,,31.668461,118.511939,195,169,114,49,25,21,14,14,1016,100,1,20141025190000
808,"Science Innovation Center, Wuhu",,31.417056,118.375406,169,68,9,26,4,13,14,14,1016,100,1,20141025190000
809,"No.4 Water Plant, Wuhu",,31.315914,118.376231,179,80,28,23,5,20,14,14,1016,100,1,20141025190000
810,"Monitoring station, Wuhu",,31.348955,118.358154,-,-,-,-,-,-,-,-,0,-,-,20141025190000
811,"Wuqierling Factory, Wuhu",,31.382068,118.407639,161,70,50,17,7,6,14,14,1016,100,1,20141025190000
812,Wuhu,,31.351007,118.438322,179,80,50,26,7,20,14,14,1016,100,1,20141025190000
813,"Jiangxi Foreign Affairs Office, Nanchang",,28.678027,115.903436,200,128,8,4,2,26,19,16,1016,73,1,20141025190000
814,"Provincial forestry company, Nanchang",,28.69065,115.898546,191,135,3,5,3,11,19,16,1016,73,1,20141025190000
815,"Institute of Forestry, Nanchang",,28.731518,115.82478,177,109,22,4,7,13,19,16,1016,73,1,20141025190000
816,"Jingdong town government, Nanchang",,28.680659,115.972736,195,119,12,3,1,9,19,16,1016,73,1,20141025190000
817,"Contruction Industry College, Nanchang",,28.684018,115.865891,179,103,4,44,9,14,19,16,1016,73,1,20141025190000
818,"Xianghu, Nanchang",,28.637831,115.9033,237,273,1,92,12,13,19,16,1016,73,1,20141025190000
819,"Martial Arts School, Nanchang",,28.794538,115.752876,161,88,16,7,5,6,19,16,1016,73,1,20141025190000
820,"Petrifaction Company, Nanchang",,28.608634,115.912999,182,101,11,3,3,13,19,16,1016,73,1,20141025190000
821,"Provincial Station, Nanchang",,28.677155,115.941896,199,174,9,6,2,18,19,16,1016,73,1,20141025190000
822,Nanchang,,28.679883,115.863022,237,273,22,92,12,26,19,16,1016,73,1,20141025190000
939,Sanya,,18.251142,109.515993,17,9,18,2,1,5,24,23,1013,94,2,20141025190000
823,"Lushan Mountain Observatory, Jiujiang",,29.5751,115.998926,76,51,80,28,109,3,16,10,1018,60,3,20141025190000
824,"Shili, Jiujiang",,29.668119,115.992381,155,80,6,28,10,9,16,10,1018,60,3,20141025190000
825,"Maoshantou, Jiujiang",,29.700819,115.967192,139,87,25,38,128,14,16,10,1018,60,3,20141025190000
826,"Xiyuan, Jiujiang",,29.723929,115.998206,161,107,11,40,109,9,16,10,1018,60,3,20141025190000
827,"Wuqierling Factory, Jiujiang",,29.640802,116.022713,117,72,45,27,135,5,16,10,1018,60,3,20141025190000
828,"Water Scientific Research Institute, Jiujiang",,29.679179,116.068081,155,74,19,32,121,8,16,10,1018,60,3,20141025190000
829,"Zonghe Industrial Park, Jiujiang",,29.592047,115.916335,149,74,31,45,102,4,16,10,1018,60,3,20141025190000
830,"Petrochemical General Plant, Jiujiang",,29.738832,116.09463,163,91,18,30,139,5,16,10,1018,60,3,20141025190000
831,Jiujiang,,29.70254,116.007025,163,107,80,45,139,9,16,10,1018,60,3,20141025190000
1332,"Feiyu, Xinyu",,27.844697,115.000136,169,128,8,25,18,,19,,1016,81,3,20141025190000
1333,"Beigang, Xinyu",,27.932491,115.103767,156,73,22,6,10,,19,,1016,81,3,20141025190000
1334,"No.2 water factory, Xinyu",,27.839577,114.933915,170,103,1,28,17,,19,,1016,81,3,20141025190000
1335,"Bureau of Meteorology, Xinyu",,27.81048,114.936507,157,118,4,21,36,,19,,1016,81,3,20141025190000
1336,Xinyu,,27.814351,114.922194,170,128,22,28,36,,19,,1016,81,3,20141025190000
832,"Tobacco Factory, Zhengzhou",,34.753419,113.687131,124,85,13,28,11,19,15,13,1014,88,1,20141025190000
833,"Textile Machinery Factory, Zhengzhou",,34.773366,113.647067,163,102,16,34,17,22,15,13,1014,88,1,20141025190000
834,"Banking College, Zhengzhou",,34.800856,113.681126,139,85,11,24,21,9,15,13,1014,88,1,20141025190000
835,"Water Supply Company, Zhengzhou",,34.807188,113.571089,164,93,9,37,51,12,15,13,1014,88,1,20141025190000
836,"Economic Development Zone Management Committee, Zhengzhou",,34.717652,113.733182,174,102,6,16,13,12,15,13,1014,88,1,20141025190000
837,"No. 47 middle school, Zhengzhou",,34.772211,113.74009,149,87,8,33,10,11,15,13,1014,88,1,20141025190000
838,"City Monitoring Station, Zhengzhou",,34.748404,113.60514,170,108,11,39,7,24,15,13,1014,88,1,20141025190000
839,"Henan Medical University, Zhengzhou",,34.752637,113.641658,132,94,23,21,14,18,15,13,1014,88,1,20141025190000
840,"Gangli Reservoir, Zhengzhou",,34.952652,113.64248,157,77,4,18,10,13,15,13,1014,88,1,20141025190000
841,Zhengzhou,,34.745417,113.631415,132,94,23,21,14,18,-,-,0,-,-,20141025190000
842,"Henan University No.1 Hospital, Kaifeng",,34.799302,114.352706,152,69,6,17,5,8,13,12,1014,94,1,20141025190000
843,"Maternity And Child Hospital, Kaifeng",,34.795803,114.386103,159,64,14,19,7,8,13,12,1014,94,1,20141025190000
844,"Cancer Hospital, Kaifeng",,34.775428,114.350292,161,63,11,20,9,8,13,12,1014,94,1,20141025190000
845,"Yellow River Conservancy Institute, Kaifeng",,34.826066,114.324772,95,68,100,9,32,6,13,12,1014,94,1,20141025190000
846,"Shijixing Kindergarden, Kaifeng",,34.793606,114.302744,152,108,8,18,9,6,13,12,1014,94,1,20141025190000
847,Kaifeng,,34.796346,114.313426,152,69,6,17,5,8,13,12,1014,94,1,20141025190000
852,Jiaozuo,,35.215381,113.248188,134,68,11,36,52,14,13,12,1014,94,1,20141025190000
853,"Cotton Research Institute, Anyang",,36.081435,114.486451,85,64,17,11,6,8,19,10,1012,42,2,20141025190000
854,"Hongmiao Street, Anyang",,36.086733,114.326,159,102,13,37,49,13,19,10,1012,42,2,20141025190000
855,"Yinxing Compound, Anyang",,36.056519,114.36495,147,100,11,40,35,15,19,10,1012,42,2,20141025190000
856,"Tiefo Temple, Anyang",,36.110041,114.309309,175,101,12,30,11,10,19,10,1012,42,2,20141025190000
857,Anyang,,36.097767,114.398846,175,102,17,40,49,21,19,10,1012,42,2,20141025190000
858,"City Monitoring Station, Luoyang",,34.669055,112.439633,159,80,8,23,25,15,16,,1014,80,1,20141025190000
859,"BDA Management Committee, Luoyang",,34.622084,112.390759,137,58,16,13,12,19,16,,1014,80,1,20141025200000
860,"New municipal office, Luoyang",,34.623745,112.432973,160,69,19,18,13,23,16,,1014,80,1,20141025200000
861,"City committee communist party school, Luoyang",,34.650169,112.400212,137,65,11,25,17,12,16,,1014,80,1,20141025200000
862,"Henan Forestry College, Luoyang",,34.685566,112.509429,173,117,8,26,24,42,16,,1014,80,1,20141025200000
