locationid,stationname,chinesename,latitude,longitude,pm25,pm10,o3,no2,so2,co,temperature,dewpoint,pressure,humidity,wind,est_time
1,Dongcheng Dongsi,,39.9304,116.423239,197,99,48,33,3,11,23,21,1016,88,2,20140829170000
2,"Temple of Heaven, Dongcheng",,39.887403,116.41324,174,76,40,22,2,9,23,21,1016,88,2,20140829170000
3,West Park officials,,39.930333,116.345162,167,78,46,25,2,10,23,21,1016,88,2,20140829170000
4,West Wanshou Nishinomiya,,39.879354,116.358183,168,71,45,37,2,13,23,21,1016,88,2,20140829170000
5,Chaoyang Olympic Sports Center,,39.983406,116.403253,187,102,41,44,2,8,23,21,1016,88,2,20140829170000
6,Chaoyang Agricultural Exhibition Hall,,39.938331,116.46715,171,93,51,21,2,11,23,21,1016,88,2,20140829170000
7,Haidian Wanliu,,39.988245,116.293062,163,83,34,39,5,8,23,21,1016,88,2,20140829170000
8,The Haidian northern New Area,,40.091313,116.180194,167,-,32,34,3,8,23,21,1016,88,2,20140829170000
9,Haidian Beijing Botanical Garden,,40.003252,116.213097,152,-,66,13,3,12,23,21,1016,88,2,20140829170000
10,Fengtai garden,,39.86423,116.285037,167,-,39,42,3,9,23,21,1016,88,2,20140829170000
11,Fengtai Yungang,,39.82535,116.152237,160,-,39,21,2,8,23,21,1016,88,2,20140829170000
12,Shijingshan city,,39.915286,116.190144,167,92,44,34,2,9,23,21,1016,88,2,20140829170000
13,"Fangshan, Liangxiang",,39.743357,116.14225,152,-,39,20,2,11,23,21,1016,88,2,20140829170000
14,"Huangcunzhen, Daxing",,39.719389,116.410219,169,56,52,31,4,9,23,21,1016,88,2,20140829170000
15,BDA,,39.796197,116.51197,181,-,57,18,2,9,23,21,1016,88,2,20140829170000
16,Tongzhou New Town,,39.887113,116.6689,188,-,37,14,3,11,23,21,1016,88,2,20140829170000
17,Shunyi New Town ,,40.128111,116.660908,211,109,43,23,2,14,23,21,1016,88,2,20140829170000
18,Changping Town,,40.218245,116.236084,159,63,77,12,2,9,23,21,1016,88,2,20140829170000
19,"Mentougou, Longquan Town",,39.938397,116.112323,152,70,39,24,2,7,23,21,1016,88,2,20140829170000
20,Pinggu town,,40.144433,117.106563,160,-,41,6,2,16,23,21,1016,88,2,20140829170000
21,Huairou town,,40.329104,116.63387,162,-,0,6,2,0,23,21,1016,88,2,20140829170000
22,The town of Miyun,,40.371186,116.838053,157,44,43,9,2,13,23,21,1016,88,2,20140829170000
23,Yanqing town,,40.454217,115.978106,153,-,38,10,2,7,23,21,1016,88,2,20140829170000
24,Changping Dingling,,40.293269,116.226108,154,54,54,6,2,6,23,21,1016,88,2,20140829170000
25,Badaling Northwest,,40.36623,115.994146,170,-,31,40,2,8,23,21,1016,88,2,20140829170000
26,Miyun Reservoir,,40.500157,116.91701,153,-,65,1,2,9,23,21,1016,88,2,20140829170000
27,"Donggaocun Zhen, Pinggu",,40.10142,117.126556,174,-,48,11,2,15,23,21,1016,88,2,20140829170000
28,"Yongledianzhen, Tongzhou",,39.713192,116.78905,177,-,23,30,5,9,23,21,1016,88,2,20140829170000
29,"Yufazhen, Daxing",,39.521203,116.306026,160,76,21,1,2,7,23,21,1016,88,2,20140829170000
30,"Liulihezhen, Fangshan",,39.581169,116.006089,164,66,26,23,2,6,23,21,1016,88,2,20140829170000
31,"Qianmen E St, Dongcheng",,39.900402,116.401242,184,-,32,45,2,12,23,21,1016,88,2,20140829170000
32,Yongdingmen Inner St,,39.877401,116.400238,173,-,25,43,4,11,23,21,1016,88,2,20140829170000
33,Xizhimen N St,,39.955352,116.355187,170,-,32,33,2,11,23,21,1016,88,2,20140829170000
34,South Ring Road,,39.857377,116.37421,161,69,15,50,3,13,23,21,1016,88,2,20140829170000
35,East Fourth Ring Road,,39.940273,116.489075,183,54,16,65,2,16,23,21,1016,88,2,20140829170000
36,Beijing,,39.955906,116.474246,178,93,65,38,4,12,23,21,1016,88,2,20140829170000
37,Putuo,,31.232979,121.415378,88,47,16,29,7,9,24,22,1014,89,3,20140829170000
38,Yangpu Sipiao,,31.263795,121.540311,76,29,20,11,5,6,24,22,1014,89,3,20140829170000
39,Shanghai Normal College Primary Division,,31.199031,121.487719,75,24,20,17,4,11,24,22,1014,89,3,20140829170000
40,Dianshan Lake,,31.091338,120.982293,131,48,32,13,10,10,24,22,1014,89,3,20140829170000
41,Hongkou Liangcheng,,31.298906,121.47155,86,27,20,23,6,5,24,22,1014,89,3,20140829170000
42,Jingan,,31.224251,121.429637,73,25,20,18,4,12,24,22,1014,89,3,20140829170000
43,Shanghai Normal University,,31.163531,121.416643,95,33,23,23,6,13,24,22,1014,89,3,20140829170000
44,Chuansha,,31.188626,121.707342,70,43,16,24,7,8,24,22,1014,89,3,20140829170000
45,Zhangjiang,,31.204896,121.581215,61,24,21,17,4,9,24,22,1014,89,3,20140829170000
46,Lingshan Road,,31.226286,121.537317,76,29,23,18,3,8,24,22,1014,89,3,20140829170000
1080,City average,,31.228451,121.478227,78,31,20,20,5,9,24,22,1014,89,3,20140829170000
47,Shanghai,,31.202842,121.453493,75,25,20,18,4,12,24,22,1014,89,3,20140829170000
48,Guangzhou,,23.138517,113.263701,134,51,46,35,17,8,30,26,1012,79,0,20140829170000
49,"Huadu town, Guangzhou",,23.389121,113.220062,144,66,79,19,16,6,30,26,1012,79,0,20140829170000
50,"Luogang Zhenlong, Guangzhou",,23.308027,113.567032,155,91,36,25,6,7,30,26,1012,79,0,20140829170000
51,"LuHu, Guangzhou",,23.151743,113.281842,134,51,41,35,4,7,30,26,1012,79,0,20140829170000
52,"Tianhu, Guangzhou",,23.647433,113.629715,53,19,63,3,5,4,30,26,1012,79,0,20140829170000
53,"Zhudong, Guangzhou",,23.418406,113.078552,127,58,93,14,16,6,30,26,1012,79,0,20140829170000
54,"Modiesha station, Guangzhou",,23.103814,113.338238,68,72,43,28,15,6,30,26,1012,79,0,20140829170000
55,Zhuhai,,22.2677,113.581765,76,50,22,19,5,7,29,25,1012,79,3,20140829170000
1075,"Huicai technical school, Foshan",,23.039667,113.105492,72,39,39,22,15,6,30,26,1012,79,2,20140829170000
56,"Sanshuiyun donghai, Foshan",,23.185788,112.865368,89,48,78,16,16,7,30,26,1012,79,2,20140829170000
57,"Nanhai Bureau of Meteorology, Foshan",,23.046836,113.145764,68,38,38,23,16,8,30,26,1012,79,2,20140829170000
58,"Sanshui Monitoring Station, Foshan",,23.163551,112.890843,91,39,66,20,13,8,30,26,1012,79,2,20140829170000
1087,Foshan,,23.018995,113.126899,72,42,39,23,16,8,30,26,1012,79,2,20140829170000
59,"Ronggui street committee, Shunde",,22.762729,113.258356,89,50,22,23,13,7,30,26,1012,79,2,20140829170000
60,Shunde,,22.80246,113.298701,89,50,25,24,13,7,30,26,1012,79,2,20140829170000
61,"Donghu, Jiangmen",,22.590411,113.087351,53,39,24,10,7,3,29,25,1012,79,3,20140829170000
62,"Taoyuan Atmosphere Premier Station, Jiangmen",,22.72489,112.93404,97,54,30,15,8,4,29,25,1012,79,3,20140829170000
63,Jiangmen,,22.576047,113.087351,63,39,24,10,15,10,29,25,1012,79,3,20140829170000
64,"Kengkouzi station, Zhaoqing",,23.158865,112.570287,129,58,130,7,5,6,30,26,1012,79,0,20140829170000
65,"Mugangzi station, Zhaoqing",,23.067961,112.431934,132,72,77,31,7,11,30,26,1012,79,0,20140829170000
66,"Qixingyanzi station, Zhaoqing",,23.075974,112.477437,-,-,-,-,-,-,-,-,0,-,-,20140829170000
67,Zhaoqing,,23.044571,112.470346,155,74,84,44,10,11,30,26,1012,79,0,20140829170000
68,"Jinguo Bay, Huizhou",,22.937223,114.385567,55,27,26,10,4,6,29,26,1012,84,1,20140829170000
1091,"Xiabu, Huizhou",,23.077493,114.410275,61,33,18,11,4,3,29,26,1012,84,1,20140829170000
69,"Xijiao, Huizhou",,23.338178,114.112867,70,28,31,7,4,5,29,26,1012,84,1,20140829170000
70,"Jiangbei, Huizhou",,23.111706,114.415274,55,19,18,14,6,4,29,26,1012,84,1,20140829170000
71,"Huiyang chuanhu, Huizhou",,22.814485,114.329292,50,23,11,11,4,5,29,26,1012,84,1,20140829170000
72,"Daya bay management committee, Huizhou",,22.739283,114.53631,63,40,16,16,4,3,29,26,1012,84,1,20140829170000
73,Huizhou,,23.109349,114.421164,61,33,18,14,6,4,29,26,1012,84,1,20140829170000
74,"Guancheng No.2 water plant, Dongguan",,23.057294,113.753254,82,40,42,28,11,8,29,26,1012,84,1,20140829170000
75,"Dongcheng Shijing, Dongguan",,23.010039,113.799529,72,38,36,21,6,6,29,26,1012,84,1,20140829170000
76,"Nancheng Xiping, Dongguan",,22.963051,113.743494,68,22,37,16,7,7,29,26,1012,84,1,20140829170000
77,"Nancheng Yuanling, Dongguan",,23.025058,113.751308,72,37,39,26,11,6,29,26,1012,84,1,20140829170000
78,Dongguan,,23.017813,113.756958,82,40,42,28,11,9,29,26,1012,84,1,20140829170000
79,"Zimaling, Zhongshan",,22.505112,113.407183,53,26,16,11,7,6,29,25,1012,79,3,20140829170000
80,"Yangtze River tourist area, Zhongshan",,22.48589,113.439054,50,19,18,3,2,5,29,25,1012,79,3,20140829170000
81,"Huabai Park, Zhongshan",,22.51839,113.374362,59,18,13,12,4,11,29,25,1012,79,3,20140829170000
82,Zhongshan,,22.513997,113.398277,59,30,18,12,7,11,29,25,1012,79,3,20140829170000
83,"No.8 middle school, Shaoguan",,24.767777,113.583537,112,48,22,13,13,8,27,23,1013,76,2,20140829170000
83,"No.8 middle school, Shaoguan",,24.767777,113.583537,112,48,22,13,13,8,27,23,1013,76,2,20140829170000
84,"Forest area, Shaoguan",,24.796106,113.612131,76,40,29,5,14,10,27,23,1013,76,2,20140829170000
84,"Forest area, Shaoguan",,24.796107,113.612131,76,40,29,5,14,10,27,23,1013,76,2,20140829170000
86,"Shaoguan University, Shaoguan",,24.790864,113.646598,87,51,29,16,8,9,27,23,1013,76,2,20140829170000
86,"Shaoguan University, Shaoguan",,24.790864,113.646599,87,51,29,16,8,9,27,23,1013,76,2,20140829170000
88,"Qujiang Monitoring Station, Shaoguan",,24.683042,113.60157,93,74,27,29,6,10,29,23,1012,63,3,20140829170000
88,"Qujiang Monitoring Station, Shaoguan",,24.683042,113.60157,93,74,27,29,6,10,29,23,1012,63,3,20140829170000
89,Shaoguan,,24.807342,113.602712,112,54,29,16,14,10,29,23,1012,63,3,20140829170000
90,"Chaonanzi Station, Shantou",,23.251213,116.406762,114,56,35,10,15,8,27,25,1013,89,1,20140829170000
91,Shantou,,23.350642,116.686306,74,71,29,14,12,8,27,25,1013,89,1,20140829170000
92,"City Environmental Monitoring Station, Zhanjiang",,21.220431,110.397317,17,10,42,6,6,3,27,25,1013,87,3,20140829170000
93,"EPB Dormitory, Zhanjiang",,21.197376,110.406487,25,19,8,6,2,6,27,25,1013,87,3,20140829170000
94,"Xiashan Swimming Park, Zhanjiang",,21.200431,110.415655,13,10,9,6,5,6,27,25,1013,87,3,20140829170000
95,"Zhanjiang Theatre, Zhanjiang",,21.268177,110.366445,30,18,6,3,3,6,27,25,1013,87,3,20140829170000
96,"Mazhang EPA, Zhanjiang",,21.265486,110.335993,9,14,20,3,2,2,27,25,1013,87,3,20140829170000
97,"Potou District EPB, Zhanjiang",,21.247604,110.454508,21,16,8,5,2,6,27,25,1013,87,3,20140829170000
98,Zhanjiang,,21.26832,110.363883,30,19,99,6,5,6,27,25,1013,87,3,20140829170000
99,"Maogang sub-office EPB, Maoming",,21.466435,111.033462,34,29,14,5,3,3,28,25,0,83,4,20140829170000
100,"Petrochemical No. 7 elementaty school, Maoming",,21.648905,110.937861,46,29,12,8,6,9,28,25,0,83,4,20140829170000
101,"Jiankang road, Maoming",,21.662211,110.909482,68,33,7,12,5,12,28,25,0,83,4,20140829170000
102,"Gaoling, Maoming",,21.690558,110.871146,70,50,11,8,41,8,28,25,0,83,4,20140829170000
1094,Maoming,,21.660223,110.929968,70,50,12,12,41,12,28,25,0,83,4,20140829170000
103,"Jiaying University, Meizhou",,24.325415,116.12816,57,21,24,4,3,6,27,25,1013,89,1,20140829170000
104,"Mexian new town, Meizhou",,24.269283,116.084546,59,26,22,14,5,8,27,25,1013,89,1,20140829170000
105,"Environmental Monitoring Center, Meizhou",,24.262778,116.129621,57,35,20,12,4,8,27,25,1013,89,1,20140829170000
1095,Meizhou,,24.285988,116.127065,59,35,24,14,5,8,27,25,1013,89,1,20140829170000
106,"City EPA, Shanwei",,22.772349,115.370227,76,30,35,6,5,9,28,25,1013,78,1,20140829170000
107,"City government, Shanwei",,22.787161,115.375536,70,35,33,9,6,9,28,25,1013,78,1,20140829170000
108,"Xincheng Middle School, Shanwei",,22.789851,115.367124,72,27,27,6,4,6,28,25,1013,78,1,20140829170000
1099,Shanwei,,22.783576,115.38022,76,35,35,9,6,9,28,25,1013,78,1,20140829170000
109,"No.3 elementary school, Heyuan",,23.755946,114.699091,70,20,22,15,5,6,25,22,1014,76,2,20140829170000
109,"No.3 elementary school, Heyuan",,23.75435,114.703514,70,20,22,15,5,6,25,22,1014,76,2,20140829170000
111,"City water company, Heyuan",,23.754246,114.682459,80,32,20,20,7,7,25,22,1014,76,2,20140829170000
111,"City water company, Heyuan",,23.688709,114.954652,80,32,20,20,7,7,25,22,1014,76,2,20140829170000
113,"Heyuan high school, Heyuan",,23.720666,114.693879,65,30,24,12,4,6,25,22,1014,76,2,20140829170000
113,"Heyuan high school, Heyuan",,23.720037,114.699563,65,30,24,12,4,6,25,22,1014,76,2,20140829170000
115,Heyuan,,23.740888,114.705147,80,32,24,20,7,7,25,22,1014,76,2,20140829170000
116,"Yuanyang Lake, Yangjiang",,21.855869,111.983676,78,49,11,10,3,11,27,25,1013,82,1,20140829170000
1100,Yangjiang,,21.855227,111.987308,82,50,11,13,8,15,27,25,1013,82,1,20140829170000
118,"Town governement, Qingyuan",,23.708005,113.026215,78,39,31,18,4,11,30,26,1012,79,2,20140829170000
119,"Fupin district, Qingyuan",,24.185415,113.419369,107,53,28,16,11,11,30,26,1012,79,2,20140829170000
119,"Fupin district, Qingyuan",,23.624781,113.067713,107,53,28,16,11,11,30,26,1012,79,2,20140829170000
121,"Environment protection office, Qingyuan",,23.685931,113.053239,65,38,30,6,6,10,30,26,1012,79,2,20140829170000
121,"Environment protection office, Qingyuan",,23.691109,113.047948,65,38,30,6,6,10,30,26,1012,79,2,20140829170000
123,"Fengcheng Subdistrict, Qingyuan",,23.695447,113.068189,78,40,28,18,3,11,30,26,1012,79,2,20140829170000
124,Qingyuan,,23.679304,113.061513,107,53,31,18,11,11,30,26,1012,79,2,20140829170000
125,"Xiyuan Road, Chaozhou",,23.668654,116.638272,68,21,36,5,4,8,27,25,1013,89,1,20140829170000
126,"Archives Bureau, Chaozhou",,23.667881,116.649104,70,20,33,4,4,7,27,25,1013,89,1,20140829170000
127,"Municipal Corporation, Chaozhou",,23.65035,116.621859,55,28,38,7,9,11,27,25,1013,89,1,20140829170000
1101,Chaozhou,,23.654204,116.626969,70,28,38,7,9,11,27,25,1013,89,1,20140829170000
128,"Donghu Park, Jieyang",,23.532877,116.374427,85,30,26,10,16,12,27,25,1013,89,1,20140829170000
129,"Yuhu Middle School, Jieyang",,23.52682,116.414123,137,46,36,16,9,8,27,25,1013,89,1,20140829170000
130,"Experimental Primary School, Jieyang",,23.571473,116.364137,153,66,32,10,16,8,27,25,1013,89,1,20140829170000
1102,Jieyang,,23.547596,116.37754,153,66,36,16,16,12,27,25,1013,89,1,20140829170000
131,"City Environmental Monitoring Station, Yunfu",,22.936779,112.042248,76,52,41,14,4,12,30,26,1012,79,2,20140829170000
132,"The new city government headquarters, Yunfu",,22.914275,112.044475,134,52,44,6,4,16,30,26,1012,79,2,20140829170000
133,"Muyang police sub-station, Yunfu",,22.951267,112.05923,104,43,59,10,8,11,30,26,1012,79,2,20140829170000
1103,Yunfu,,22.912436,112.049811,134,52,59,14,8,16,30,26,1012,79,2,20140829170000
134,Yantian,,22.587949,114.266899,87,47,23,22,5,13,29,26,1012,84,1,20140829170000
135,Kwai Chung,,22.572837,113.867166,95,46,11,27,3,13,29,26,1012,84,1,20140829170000
135,Kwai Chung,,22.627947,114.428875,95,46,11,27,3,13,29,26,1012,84,1,20140829170000
135,Kwai Chung,,22.354168,114.134558,95,46,11,27,3,13,29,26,1012,84,1,20140829170000
137,Nanyou,,22.513802,113.928051,57,18,28,21,7,6,29,26,1012,84,1,20140829170000
138,Meisha,,22.59611,114.318345,34,10,11,11,1,9,29,26,1012,84,1,20140829170000
139,Xi xiang,,22.717524,114.252304,57,40,16,21,3,10,29,26,1012,84,1,20140829170000
140,Liyuan,,22.54732,114.101205,55,23,14,22,2,9,29,26,1012,84,1,20140829170000
1072,Kwai Chung,,22.572837,113.867166,53,20,12,15,2,7,29,26,1012,84,1,20140829170000
1072,Kwai Chung,,22.627947,114.428875,53,20,12,15,2,7,29,26,1012,84,1,20140829170000
1072,Kwai Chung,,22.354168,114.134558,53,20,12,15,2,7,29,26,1012,84,1,20140829170000
141,OCT,,22.539549,113.992458,63,51,12,25,2,10,29,27,1012,89,1,20140829170000
142,Honghu,,22.559647,114.121976,50,30,15,29,3,9,29,26,1012,84,1,20140829170000
143,Mission Hills,,22.694131,114.050496,85,64,13,22,3,11,29,27,1012,89,1,20140829170000
144,Shenzhen,,22.540382,114.062982,95,64,28,29,7,13,29,26,1012,84,1,20140829170000
145,Chengdu,,30.622581,104.069564,170,80,37,44,9,7,24,20,1012,78,0,20140829170000
146,"Jinquan lianghe, Chengdu",,30.710359,103.974209,171,97,27,28,8,9,24,20,1012,78,0,20140829170000
147,"Shilidian, Chengdu",,30.684718,104.17845,156,95,20,56,24,8,24,20,1012,78,0,20140829170000
148,"Sanwayao, Chengdu",,30.568159,104.081524,155,81,16,57,9,7,24,20,1012,78,0,20140829170000
149,"Shahepu, Chengdu",,30.633685,104.120536,157,86,16,57,9,10,24,20,1012,78,0,20140829170000
150,"Liang Lane, Chengdu",,30.682601,104.076522,163,82,32,41,9,7,24,21,1012,83,0,20140829170000
151,"Caotang Temple, Chengdu",,30.651891,104.0284,155,75,33,25,6,8,24,20,1012,78,0,20140829170000
152,"Lingyansi, Chengdu",,31.025729,103.615022,112,42,47,5,2,2,24,20,1012,78,0,20140829170000
153,"Fuleshan, Mianyang",,31.472493,104.7806,144,55,25,10,9,7,24,20,1010,79,2,20140829170000
154,"High-tech Zone Water Company, Mianyang",,31.463309,104.674293,104,42,25,14,4,6,24,20,1010,79,2,20140829170000
155,"No.3 water company, Mianyang",,31.505002,104.731054,122,53,22,24,12,4,24,20,1010,79,2,20140829170000
156,Mianyang,,31.465174,104.681731,144,55,25,24,12,7,24,20,1010,79,2,20140829170000
157,"Dongshan Park, Deyang",,31.118648,104.424587,127,55,29,6,5,7,24,20,1012,78,0,20140829170000
158,"Xixiaoqu, Deyang",,31.131159,104.390972,151,54,29,11,14,10,24,20,1012,78,0,20140829170000
159,"City Procuratorate, Deyang",,31.114554,104.407986,144,67,26,12,16,7,24,20,1012,78,0,20140829170000
160,"Refractory Factory, Deyang",,31.108606,104.356506,153,50,29,12,14,4,24,20,1012,78,0,20140829170000
161,Deyang,,31.124715,104.400703,153,67,29,12,16,10,24,20,1012,78,0,20140829170000
162,"Nongnongping, Panzhihua",,26.566698,101.695438,63,25,25,12,2,8,21,16,0,71,1,20140829170000
163,"Hemenkou, Panzhihua",,26.589072,101.578312,117,69,17,27,71,19,21,16,0,71,1,20140829170000
164,"Bingcaogang, Panzhihua",,26.58143,101.718473,61,24,19,19,5,8,21,16,0,71,1,20140829170000
165,"Renhe, Panzhihua",,26.498166,101.746887,53,31,16,9,4,10,21,16,0,71,1,20140829170000
166,"Jinjina, Panzhihua",,26.553226,101.84862,132,76,17,12,16,13,21,16,0,71,1,20140829170000
167,Panzhihua,,26.578779,101.720211,132,76,25,27,16,13,21,16,0,71,1,20140829170000
168,"Shima Middle School, Yibin",,28.815979,104.599199,91,39,28,4,5,7,25,21,1010,77,1,20140829170000
169,"Municipal party committee, Yibin",,28.762654,104.624834,102,38,16,6,5,9,25,21,1010,77,1,20140829170000
170,"No. 4 middle school, Yibin",,28.783257,104.608407,104,49,19,8,5,6,25,21,1010,77,1,20140829170000
171,"City government, Yibin",,28.760477,104.644079,93,57,22,8,7,9,25,21,1010,77,1,20140829170000
172,"Huangjinzui, Yibin",,28.712319,104.578389,-,-,-,-,-,-,-,-,0,-,-,20140829170000
173,"Shaping Middle School, Yibin",,28.795569,104.681393,95,34,31,11,7,6,25,21,1010,77,1,20140829170000
174,Yibin,,28.748384,104.645766,104,57,31,11,7,9,-,-,0,-,-,20140829170000
175,"Datang Hill, Zigong",,29.359969,104.757388,132,62,18,12,9,3,23,22,1001,93,2,20140829170000
176,"Yanma Road, Zigong",,29.355752,104.724036,153,86,29,3,4,8,23,22,1001,93,2,20140829170000
177,"Tanmulin Street, Zigong",,29.353555,104.777397,139,50,23,11,8,4,23,22,1001,93,2,20140829170000
178,"Chunhua Road, Zigong",,29.33825,104.771895,156,73,19,11,7,9,23,22,1001,93,2,20140829170000
179,Zigong,,29.33617,104.781138,156,86,29,12,9,9,23,22,1001,93,2,20140829170000
180,"Jiushi Hill, Luzhou",,28.955347,105.434207,154,64,56,10,2,3,23,22,1001,93,1,20140829170000
181,"Xiaoshishang Port, Luzhou",,28.899583,105.447192,155,65,64,10,7,6,23,22,1001,93,1,20140829170000
182,"Lantianxian Bridge, Luzhou",,28.852766,105.4358,159,67,67,18,3,4,23,22,1001,93,1,20140829170000
183,"City Environment Monitoring Station, Luzhou",,28.895898,105.435802,153,68,38,22,9,6,23,22,1001,93,1,20140829170000
184,Luzhou,,28.868782,105.445938,159,68,91,22,9,6,23,22,1001,93,1,20140829170000
185,"City Committee, Nanchong",,30.799993,106.082906,109,35,36,19,10,6,25,24,1010,90,2,20140829170000
186,"Refinery Factory, Nanchong",,30.819412,106.10712,93,30,25,15,11,3,25,24,1010,90,2,20140829170000
187,"Gaoping District Monitoring Station, Nanchong",,30.783291,106.110417,109,55,15,14,46,6,25,24,1010,90,2,20140829170000
188,"Jialing District EPB, Nanchong",,30.761255,106.06818,104,51,4,12,3,2,25,24,1010,90,2,20140829170000
189,"City Environmental Monitoring Station, Nanchong",,30.836519,106.11272,99,38,8,9,2,3,25,24,1010,90,2,20140829170000
190,Nanchong,,30.835511,106.114717,109,55,36,19,46,6,25,24,1010,90,2,20140829170000
1249,"City Monitoring Station, Neijiang",,29.592673,105.036234,153,30,29,1,4,5,23,22,1001,93,2,20140829170000
1250,"Dongxing District Government , Neijiang",,29.592148,105.074966,142,54,27,3,4,3,23,22,1001,93,2,20140829170000
1251,"No 2 middle school, Neijiang",,29.579135,105.068548,155,62,36,2,4,8,23,22,1001,93,2,20140829170000
1252,Neijiang,,29.577653,105.06166,155,62,36,3,4,8,23,22,1001,93,2,20140829170000
1253,"City Monitoring Station, Suining",,30.610641,105.683583,87,55,34,18,3,2,22,22,0,91,2,20140829170000
1254,"Administrative center , Suining",,30.63206,105.819747,80,54,29,5,1,3,22,22,0,91,2,20140829170000
1255,Suining,,30.530053,105.596307,95,55,36,18,4,11,22,22,0,91,2,20140829170000
1256,"City Monitoring Station, Leshan",,29.560651,103.759211,82,33,26,7,5,11,22,19,0,85,1,20140829170000
1257,"Leshan Giant Buddha Scenic Area , Leshan",,29.543938,103.772706,91,37,29,8,5,10,22,19,0,85,1,20140829170000
1258,Leshan,,29.54935,103.767777,91,43,29,19,5,11,22,19,0,85,1,20140829170000
1259,"Heilongtan , Meishan",,30.047726,103.900649,112,49,29,3,2,6,24,20,1012,78,0,20140829170000
1260,"Bureau of Meteorology, Meishan",,30.084591,103.843715,171,76,25,12,5,5,24,20,1012,78,0,20140829170000
1261,"Xuguang Community , Meishan",,30.066277,103.8516,179,99,24,15,6,5,24,20,1012,78,0,20140829170000
1262,"City Monitoring Station, Meishan",,30.059205,103.836229,161,79,23,18,5,6,24,20,1012,78,0,20140829170000
1263,Meishan,,30.072618,103.85064,179,99,29,18,6,6,24,20,1012,78,0,20140829170000
1264,"Ziyang middle school, Ziyang",,30.147763,104.638024,59,39,31,3,17,9,23,22,1001,93,2,20140829170000
1265,Ziyang,,30.126054,104.63004,65,42,33,13,17,12,23,22,1001,93,2,20140829170000
191,Shenyang US Consulate,,41.785668,123.432865,34,13,32,3,3,8,20,12,1016,60,2,20140829170000
192,"Huishan, Shenyang",,41.835421,123.647773,53,32,32,4,5,8,20,12,1016,60,2,20140829170000
193,"Hunnan, Shenyang",,41.758263,123.540809,46,13,81,4,4,6,20,12,1016,60,2,20140829170000
194,"Zhangshi, Shenyang",,41.771679,123.289859,63,26,41,15,17,5,20,12,1016,60,2,20140829170000
195,"Artillery College, Shenyang",,41.835749,123.547799,38,59,201,1,2,8,20,16,1019,78,6,20140829170000
196,"Beiling, Shenyang",,41.849633,123.434146,55,13,53,12,4,5,20,12,1016,60,2,20140829170000
197,"Wenyi Road, Shenyang",,41.767444,123.416144,46,13,97,3,3,6,20,12,1016,60,2,20140829170000
198,"Xiaoheyan, Shenyang",,41.779828,123.484015,65,21,88,5,2,5,20,12,1016,60,2,20140829170000
199,"Taiyuan Street, Shenyang",,41.799646,123.406146,46,13,26,28,4,7,20,12,1016,60,2,20140829170000
200,"Ermao, Shenyang",,41.783011,123.366679,38,15,121,12,3,6,20,12,1016,60,2,20140829170000
201,"Liaoning University, Shenyang",,41.830704,123.361071,38,17,43,8,3,6,20,12,1016,60,2,20140829170000
202,Shenyang,,41.808126,123.437611,34,13,53,28,4,7,20,12,1016,60,2,20140829170000
1104,"wenhua street, Shenyang , Shenyang",,41.774139,123.441839,53,15,79,11,10,5,20,12,1016,60,2,20140829170000
1105,"Tanglin Road , Shenyang , Shenyang",,41.823665,123.562317,38,59,201,1,2,9,20,16,1019,78,6,20140829170000
203,"Ganjingzi, Dalian",,38.9747,121.616893,153,62,36,25,5,4,23,20,1017,83,1,20140829170000
204,"Zhoushuizi, Dalian",,38.951928,121.569981,102,40,34,23,3,9,23,20,1017,83,1,20140829170000
205,"Xinghai No 3 station, Dalian",,38.885779,121.568864,124,52,34,7,7,3,23,20,1017,83,1,20140829170000
206,"Qingniwa Bridge, Dalian",,38.91274,121.638018,87,39,34,28,1,6,23,20,1017,83,1,20140829170000
207,"Fujiazhuang, Dalian",,38.864647,121.629947,85,45,27,11,17,4,23,20,1017,83,1,20140829170000
208,"Qixianling, Dalian",,38.856978,121.523169,97,41,39,16,2,13,23,20,1017,83,1,20140829170000
209,"Lushun, Dalian",,38.808946,121.264063,87,37,24,2,2,5,23,20,1017,83,1,20140829170000
210,"Jinzhou, Dalian",,39.132192,121.753259,89,44,15,12,1,1,23,20,1017,83,1,20140829170000
211,"BDA, Dalian",,39.05213,121.782022,85,33,12,27,2,4,23,20,1017,83,1,20140829170000
212,"D&D Port, Dalian",,39.064087,121.981874,99,43,11,6,1,6,23,20,1017,83,1,20140829170000
213,Dalian,,38.91478,121.619625,87,39,34,28,1,6,23,20,1017,83,1,20140829170000
214,"Bearing Factory, Dandong",,40.068929,124.345703,59,30,32,5,14,10,19,16,1017,77,1,20140829170000
215,"Financial school, Dandong",,40.158723,124.432593,50,28,34,3,7,5,19,16,1017,77,1,20140829170000
216,"Yuanbaoshan water, Dandong",,40.149431,124.391698,57,14,34,3,11,4,19,16,1017,77,1,20140829170000
217,"Experimental Primary School, Dandong",,39.887343,124.158056,63,28,28,8,4,23,19,16,1017,77,1,20140829170000
218,Dandong,,40.002046,124.360479,63,30,35,8,14,23,19,16,1017,77,1,20140829170000
1106,"minzhu bridge, Dandong , Dandong",,40.112974,124.373604,63,28,29,8,4,23,19,16,1017,77,1,20140829170000
1107,"yuanbaoshan, Dandong , Dandong",,40.146298,124.399081,57,14,34,3,11,4,19,16,1017,77,1,20140829170000
1108,"linjiang houjie, Dandong , Dandong",,40.152757,124.431745,50,28,35,3,7,5,19,16,1017,77,1,20140829170000
219,"BDA, Panjin",,41.157144,122.06645,76,33,38,5,3,15,19,17,0,88,1,20140829170000
220,"Xinglongtai, Panjin",,41.140948,122.111343,65,36,28,7,12,8,19,17,0,88,1,20140829170000
221,"Dingxiang, Panjin",,41.16139,121.928781,59,32,34,5,7,7,18,16,0,88,2,20140829170000
222,Panjin,,41.122089,122.076206,76,36,38,7,12,15,19,17,0,88,1,20140829170000
223,"No.3 water company, Yingkou",,40.682052,122.385352,46,23,46,8,10,8,20,16,1018,68,4,20140829170000
224,"Yingkou University, Yingkou",,40.683689,122.388285,21,26,39,13,9,8,20,16,1018,68,4,20140829170000
225,"Botanical garden, Yingkou",,40.711674,122.281568,57,25,36,20,4,7,20,16,1018,68,4,20140829170000
226,Yingkou,,40.668578,122.24059,57,26,41,20,9,8,20,16,1018,68,4,20140829170000
1109,"jinghu west street, Yingkou , Yingkou",,40.653831,122.221943,46,23,47,8,10,7,20,16,1018,68,4,20140829170000
1110,"Daqing Road , Yingkou , Yingkou",,40.709181,122.28243,57,25,41,20,4,8,20,16,1018,68,4,20140829170000
227,"Xishanpo, Huludao",,40.724078,120.921974,124,55,42,6,9,5,18,16,0,88,2,20140829170000
228,"Huagong hospital, Huludao",,40.755662,120.848435,153,66,27,15,3,14,18,16,0,88,2,20140829170000
229,"New district park, Huludao",,40.723415,120.853801,70,56,19,19,2,8,18,16,0,88,2,20140829170000
230,"Lianshan district governement, Huludao",,40.775488,120.872292,61,62,29,37,8,9,18,16,0,88,2,20140829170000
231,Huludao,,40.712501,120.842107,153,66,43,37,9,14,22,20,1018,81,5,20140829170000
1111,"Dongcheng District , Huludao , Huludao",,40.775362,120.871706,61,62,32,37,8,9,,,,,,20140829170000
1112,"huagong street, Huludao , Huludao",,40.758901,120.842935,153,66,29,15,3,14,,,,,,20140829170000
232,Anshan,,41.110466,123.000147,57,44,49,11,14,15,20,12,1016,60,2,20140829170000
233,"Qianshan Park, Anshan",,41.033486,123.143897,34,19,35,4,8,7,20,12,1016,60,2,20140829170000
234,"Tiexi, Anshan",,41.121636,122.97506,30,15,41,6,7,13,20,12,1016,60,2,20140829170000
235,"Taiping Station, Anshan",,41.153322,123.052433,46,24,31,5,4,13,20,12,1016,60,2,20140829170000
236,"Central Station, Anshan",,41.106731,123.002736,46,26,49,3,6,10,20,12,1016,60,2,20140829170000
237,"Shengou Temple, Anshan",,41.137157,123.031901,38,17,41,4,4,15,20,12,1016,60,2,20140829170000
1113,"Qianshan , Anshan , Anshan",,41.014521,123.122538,34,19,35,4,8,7,20,12,1016,60,2,20140829170000
1114,"Tiexi Sandao jie, Anshan",,41.103264,122.978613,30,15,41,6,7,13,20,12,1016,60,2,20140829170000
1115,"Taiyang, Anshan",,41.094946,123.019037,46,26,49,3,6,10,20,12,1016,60,2,20140829170000
238,Fushun,,41.883028,123.962984,42,22,58,9,5,10,20,12,1016,60,2,20140829170000
239,"Shenfu new town, Fushun",,41.804638,123.631684,21,17,58,6,2,10,20,12,1016,60,2,20140829170000
240,"Reservoir, Fushun",,41.8464,123.802857,-,-,-,-,-,-,-,-,0,-,-,20140829170000
241,"Train Station, Fushun",,41.89726,124.017604,30,9,58,10,7,7,20,12,1016,60,2,20140829170000
242,"Dongzhou, Fushun",,41.855578,124.044738,21,13,44,3,2,4,20,12,1016,60,2,20140829170000
243,"Xinhua, Fushun",,41.888598,123.932932,42,22,45,9,5,8,20,12,1016,60,2,20140829170000
244,"Wanghua, Fushun",,41.888825,123.093723,21,28,51,17,10,13,20,12,1016,60,2,20140829170000
245,Benxi,,41.296267,123.772371,182,40,44,25,14,27,20,12,1016,60,2,20140829170000
246,"Weining, Benxi",,41.349663,123.826071,17,23,31,20,2,27,20,12,1016,60,2,20140829170000
247,"Occupational disease hospital, Benxi",,41.305432,123.74645,30,36,49,9,5,6,20,12,1016,60,2,20140829170000
248,"Dongming, Benxi",,41.292369,123.765058,95,32,33,17,14,9,20,12,1016,60,2,20140829170000
249,"Caitun, Benxi",,41.301591,123.746039,63,40,29,11,1,7,20,12,1016,60,2,20140829170000
250,"Xihu, Benxi",,41.331332,123.773537,182,31,39,22,8,8,20,12,1016,60,2,20140829170000
251,"Dayu, Benxi",,41.308091,123.818442,42,11,32,25,12,5,20,12,1016,60,2,20140829170000
1116,"Xinlitun , Benxi , Benxi",,41.264104,123.811523,34,36,44,6,6,5,20,12,1016,60,2,20140829170000
252,Jinzhou,,41.097169,121.132647,63,44,34,6,6,6,22,20,1018,81,5,20140829170000
253,"Beihu Park, Jinzhou",,41.141447,121.137339,102,56,32,11,12,7,22,20,1018,81,5,20140829170000
254,"Monitoring station, Jinzhou",,41.113441,121.140911,95,52,35,16,16,6,22,20,1018,81,5,20140829170000
255,"Nanshan, Jinzhou",,41.570689,122.046753,89,42,27,13,8,6,22,20,1018,81,5,20140829170000
1118,"BDA, Jinzhou",,40.853915,121.061756,109,48,24,4,9,7,22,20,1018,81,5,20140829170000
1119,"tianan street, Jinzhou , Jinzhou",,41.124468,121.126119,95,52,35,16,16,6,22,20,1018,81,5,20140829170000
1120,"baigu street, Jinzhou, Jinzhou",,41.12214,121.21027,85,53,21,16,21,5,22,20,1018,81,5,20140829170000
1121,Chaoyang,,41.576022,120.456053,153,67,43,8,9,15,-,-,0,-,-,20140829170000
472,"Fukang road, Tianjin",,39.098136,117.157621,160,62,17,4,4,9,23,21,1016,88,1,20140829170000
1122,"Agricultural Area, Chaoyang",,43.93968,125.247371,144,55,4,6,5,6,23,19,1016,70,2,20140829170000
1123,Tieling,,42.225197,123.732174,57,24,50,10,6,7,17,15,1015,88,1,20140829170000
260,"Waterpark, Tieling",,42.297031,123.880748,76,28,35,23,9,4,20,12,1016,60,2,20140829170000
1124,"Huigong Street West , Tieling , Tieling",,42.311115,123.845614,46,24,50,6,4,3,17,15,1015,88,1,20140829170000
1125,Liaoyang,,41.269312,123.24268,59,56,43,16,19,26,17,15,1015,88,1,20140829170000
1126,"Riverside Road , Liaoyang , Liaoyang",,41.176884,123.419859,59,33,40,16,2,8,17,15,1015,88,1,20140829170000
1127,Fuxin,,42.02373,121.675733,76,57,39,13,8,8,-,-,0,-,-,20140829170000
266,"Agricultural Area, Fuxin",,42.071291,121.696445,59,63,34,6,52,6,17,15,0,88,2,20140829170000
267,"Industrial Area, Fuxin",,42.041052,121.715554,68,69,32,9,4,8,17,15,0,88,2,20140829170000
1128,"Yulong Metro , Fuxin , Fuxin",,42.035091,121.666531,76,62,34,8,8,8,17,15,0,88,2,20140829170000
268,"City Monitoring Station, Jinan",,36.662614,117.054645,193,139,45,37,33,9,22,20,1015,80,2,20140829170000
269,"Shandong Institute of Economics, Jinan",,36.63819,117.074975,175,141,46,17,21,8,22,20,1015,80,2,20140829170000
270,"Quancheng Plaza, Jinan",,36.661711,117.027043,175,114,47,23,17,9,22,20,1015,80,2,20140829170000
271,"Kegansuo, Jinan",,36.611582,116.99384,169,108,48,22,18,8,22,20,1015,80,2,20140829170000
272,"Agriculture Science Institute, Jinan",,36.663115,116.95063,170,120,46,35,17,11,22,20,1015,80,2,20140829170000
273,"Lanxiang technical school, Jinan",,36.700421,116.95342,165,103,60,16,35,8,22,20,1015,80,2,20140829170000
274,"Chemical factory, Jinan",,36.687463,116.994406,159,110,54,26,30,8,22,20,1015,80,2,20140829170000
275,"Provincial Seed Warehouse, Jinan",,36.685706,117.066348,184,131,44,44,21,11,22,20,1015,80,2,20140829170000
276,"Shandong Architecture University, Jinan",,36.681732,117.191868,173,113,35,42,24,11,22,20,1015,80,2,20140829170000
277,"Baosheng cable company, Jinan",,36.724638,117.130855,190,192,18,56,9,8,22,20,1015,80,2,20140829170000
278,"Paomaling, Jinan",,36.47869,117.219027,178,99,130,9,49,15,22,20,1015,80,2,20140829170000
279,"Changqing District Communist Party School, Jinan",,36.548797,116.770859,171,121,39,56,29,13,22,20,1015,80,2,20140829170000
280,"BDA, Jinan",,36.685835,117.130851,182,124,41,49,21,11,22,20,1015,80,2,20140829170000
281,Jinan,,36.651426,117.126625,193,141,91,37,35,11,22,20,1015,80,2,20140829170000
282,"Shinan district No. 1, Qingdao",,36.065534,120.40839,55,17,45,4,9,2,22,18,1016,78,2,20140829170000
283,"Shibei district No. 1, Qingdao",,36.069919,120.341264,25,18,39,4,5,4,22,18,1016,78,2,20140829170000
284,"Shibei district No. 2, Qingdao",,36.104146,120.36637,5,17,82,17,9,7,22,18,1016,78,2,20140829170000
285,"Huangdao District No. 1, Qingdao",,35.958935,120.191041,46,39,42,9,11,5,22,18,1016,78,2,20140829170000
286,"Huangdao District No. 2, Qingdao",,35.970487,120.160339,50,38,37,13,9,6,22,18,1016,78,2,20140829170000
287,"Laoshan District No. 1, Qingdao",,36.085881,120.451839,70,36,39,10,8,9,22,18,1016,78,2,20140829170000
288,"Laoshan District No. 2, Qingdao",,36.091075,120.490388,30,23,58,9,5,3,22,18,1016,78,2,20140829170000
289,"Licang District No. 1, Qingdao",,36.184872,120.38533,30,31,29,10,13,5,22,18,1016,78,2,20140829170000
290,"Licang District No. 2, Qingdao",,36.154369,120.432287,53,39,31,20,7,3,22,18,1016,78,2,20140829170000
291,"Chengyang District No. 1, Qingdao",,36.308502,120.40008,50,23,25,22,8,5,22,18,1016,78,2,20140829170000
292,"Chengyang District No. 2, Qingdao",,36.308429,120.465806,57,23,40,12,7,3,22,18,1016,78,2,20140829170000
293,Qingdao,,36.067358,120.387773,70,39,49,13,9,9,22,18,1016,78,2,20140829170000
294,"Zichuan Meteo. Stations, Zibo",,36.637916,117.960222,199,104,72,30,54,20,20,18,0,85,2,20140829170000
295,"Dongfeng Chemical factory, Zibo",,36.838576,118.050785,173,127,37,58,39,23,20,18,0,85,2,20140829170000
296,"Boshan shuangshan, Zibo",,36.497278,117.853581,200,101,35,40,42,16,20,18,0,85,2,20140829170000
297,"Linzi Putian Park, Zibo",,36.820171,118.315022,183,138,43,41,21,17,20,18,0,85,2,20140829170000
643,Suizhou,,31.688342,113.388675,107,42,21,4,7,15,23,,1010,99,2,20140829170000
643,Suizhou,,31.688342,113.388675,107,42,21,4,7,15,23,,1010,99,2,20140829170000
298,"Qilu Petrochemical, Zibo",,36.765907,118.254967,161,109,21,58,13,17,20,18,0,85,2,20140829170000
299,"Zhoucun sanjin Group, Zibo",,36.8044,117.85694,194,112,49,32,29,19,20,18,0,85,2,20140829170000
300,"Vocational College, Zibo",,36.825208,117.926305,175,116,45,46,53,19,20,18,0,85,2,20140829170000
301,"BDA, Zibo",,36.905214,118.021824,178,132,27,38,28,13,20,18,0,85,2,20140829170000
302,Zibo,,36.813618,118.060948,200,161,72,58,54,28,20,18,0,85,2,20140829170000
303,"Shizhong District Government, Zaozhuang",,34.850397,117.569545,160,94,43,20,52,9,24,20,1016,74,1,20140829170000
304,"Sewage treatment plant, Zaozhuang",,34.818951,117.595345,164,78,31,28,12,9,24,20,1016,74,1,20140829170000
305,"Xuecheng EPA, Zaozhuang",,34.790214,117.272455,155,67,107,23,14,7,24,20,1016,74,1,20140829170000
306,"Yicheng District government, Zaozhuang",,34.772806,117.57647,164,83,48,18,12,7,24,20,1016,74,1,20140829170000
307,"Taierzhuang EPA, Zaozhuang",,34.579462,117.741067,89,60,32,14,9,7,24,20,1016,74,1,20140829170000
308,"Shanting EPA, Zaozhuang",,35.070373,117.457691,161,105,126,12,15,12,24,20,1016,74,1,20140829170000
309,"City EPA, Zaozhuang",,34.809466,117.320608,162,100,130,16,20,6,24,20,1016,74,1,20140829170000
310,"High-tech zone, Zaozhuang",,34.821779,117.363495,179,97,52,17,35,11,24,20,1016,74,1,20140829170000
311,Zaozhuang,,34.809693,117.329634,179,105,126,23,52,12,24,20,1016,74,1,20140829170000
312,"City EPA, Dongying",,37.432052,118.672871,95,61,91,13,38,11,23,20,0,81,3,20140829170000
313,"Vocational College, Dongying",,37.438653,118.630567,112,75,112,12,26,9,23,20,0,81,3,20140829170000
314,"Xianhe Oil Production Plant, Dongying",,37.442419,118.510222,155,90,123,15,26,8,23,20,0,81,3,20140829170000
315,"Gengjin village, Dongying",,37.445072,118.55839,163,85,44,24,40,10,23,20,0,81,3,20140829170000
316,"City environmental company, Dongying",,37.466599,118.508012,160,88,114,18,15,10,23,20,0,79,3,20140829170000
317,"Hekou  district, Dongying",,37.883786,118.522171,160,106,100,8,13,9,23,20,0,81,3,20140829170000
318,"BDA, Dongying",,37.435162,118.701827,104,60,124,11,26,12,23,20,0,81,3,20140829170000
319,Dongying,,37.435429,118.680434,163,106,125,24,40,11,23,20,0,81,3,20140829170000
320,"Bearing Factory, Yantai",,37.544126,121.376956,76,54,24,37,4,5,,,,,,20140829170000
321,"Xijiao Chemical Station, Yantai",,37.547148,121.323695,117,61,31,23,6,7,,,,,,20140829170000
322,"Fushan Monitoring Stations, Yantai",,37.472245,121.260116,53,35,85,9,2,6,,,,,,20140829170000
323,"Mouping EPA, Yantai",,37.376681,121.586509,78,52,34,11,5,2,,,,,,20140829170000
324,"Laishan EPA, Yantai",,37.478422,121.44829,74,33,38,12,5,4,,,,,,20140829170000
325,"Laishan Shengquan Industrial Park, Yantai",,37.4271,121.408386,61,45,34,13,6,4,,,,,,20140829170000
326,"China Agricultural University, Yantai",,37.423568,121.511838,63,43,33,18,6,4,,,,,,20140829170000
327,"BDA EPA, Yantai",,37.560827,121.257954,25,24,24,16,1,5,,,,,,20140829170000
329,"Dajijia, Yantai",,37.673849,121.071465,74,42,26,23,8,4,,,,,,20140829170000
330,Yantai,,37.464793,121.453142,117,61,85,35,6,7,22,19,0,79,2,20140829170000
331,"BDA, Weifang",,36.720022,119.054064,157,100,38,17,17,7,,,,,,20140829170000
332,"Business School, Weifang",,36.682442,119.105909,157,102,30,28,6,6,,,,,,20140829170000
333,"Hanting District, Weifang",,36.773484,119.199705,157,86,53,16,12,6,,,,,,20140829170000
334,"Gongda Company, Weifang",,36.657635,119.167266,127,83,42,22,15,4,,,,,,20140829170000
335,"City EPA, Weifang",,36.701272,119.16838,144,81,34,24,11,8,,,,,,20140829170000
336,"City Arbitration Committee, Weifang",,36.702422,119.145927,122,73,42,20,8,7,,,,,,20140829170000
337,"Xinhui Group, Weifang",,36.641581,119.11679,95,79,36,16,14,6,,,,,,20140829170000
338,"Jincheng Middle School, Weifang",,36.773611,119.115539,159,84,60,22,18,7,,,,,,20140829170000
339,Weifang,,36.707217,119.167638,161,102,60,28,18,8,23,20,0,81,3,20140829170000
340,"City Monitoring Station, Jining",,35.408443,116.623917,173,86,107,20,27,11,24,22,1014,84,1,20140829170000
1090,"Shengdi Hollidays Resort, Jining",,35.424746,116.699093,192,108,47,73,24,14,24,22,1014,84,1,20140829170000
341,"Sewage treatment plant, Jining",,35.364286,116.609177,179,89,50,28,17,6,24,22,1014,84,1,20140829170000
342,"Electrochemical Factory, Jining",,35.390473,116.552956,158,81,109,20,23,20,24,22,1014,84,1,20140829170000
343,"Rencheng BDA, Jining",,35.390484,116.662995,196,121,40,41,13,17,24,22,1014,84,1,20140829170000
344,"Agricultural School, Jining",,35.44235,116.601682,163,136,42,45,10,9,24,22,1014,84,1,20140829170000
345,"BDA Huojucheng, Jining",,35.436377,116.642953,165,84,122,16,17,13,24,22,1014,84,1,20140829170000
346,Jining,,35.414473,116.59239,196,136,122,73,27,20,24,22,1014,84,1,20140829170000
347,"Taishan monitoring station, Taian",,36.194362,117.159648,168,105,47,16,16,14,15,14,0,88,5,20140829170000
348,"Shandong Electric Power School, Taian",,36.176071,117.12413,185,125,50,48,20,15,15,14,0,88,5,20140829170000
349,"Population Education school, Taian",,36.194417,117.104131,164,100,108,12,21,13,15,14,0,88,5,20140829170000
350,"Houfeng company, Taian",,36.204863,117.19015,164,97,44,23,17,13,15,14,0,88,5,20140829170000
351,"Nongda new campus, Taian",,36.170179,117.165191,168,107,23,42,29,16,15,14,0,88,5,20140829170000
352,"Transportation technical school, Taian",,36.202126,117.047068,160,74,23,12,13,12,15,14,0,88,5,20140829170000
353,"ICT Technology, Taian",,36.116621,117.107458,168,109,24,44,11,15,15,14,0,88,5,20140829170000
354,Taian,,36.200502,117.093682,185,125,108,48,29,16,15,14,0,88,5,20140829170000
355,"City Environmental Monitoring Station, Weihai",,37.513939,122.067058,72,48,46,22,5,6,22,19,0,79,2,20140829170000
356,"Woodworking Factory, Weihai",,37.325455,122.160777,59,30,74,6,4,2,22,19,0,79,2,20140829170000
357,"Lantian Hotel, Weihai",,37.514641,122.146276,78,30,92,10,6,6,22,19,0,79,2,20140829170000
358,"Zhang village government, Weihai",,37.485561,122.049436,63,28,38,10,5,4,22,19,0,79,2,20140829170000
359,"Gao District Bank, Weihai",,37.534919,122.056294,85,39,45,19,12,4,22,19,0,79,2,20140829170000
360,"Huxia technical school, Weihai",,37.427951,122.130811,82,49,44,18,10,5,22,19,0,79,2,20140829170000
361,Weihai,,37.5141,122.125477,85,48,92,22,12,6,22,19,0,79,2,20140829170000
362,"City governement square, Rizhao",,35.4075,119.526008,55,20,40,3,7,3,23,21,1017,81,1,20140829170000
363,"Port Authority, Rizhao",,35.381297,119.55396,42,30,37,5,2,3,23,21,1017,81,1,20140829170000
364,"City Monitoring Station, Rizhao",,35.388683,119.496405,21,24,36,12,6,2,23,21,1017,81,1,20140829170000
365,"Professor Garden, Rizhao",,35.462161,119.574193,34,24,46,1,8,7,23,21,1017,81,1,20140829170000
366,"Vocational and Technical College, Rizhao",,35.441939,119.538187,59,21,41,4,4,1,23,21,1017,81,1,20140829170000
367,"Lanshan EPA branch, Rizhao",,35.293405,119.345716,53,20,27,3,8,4,23,21,1017,81,1,20140829170000
368,"Jinma Industrial Park, Rizhao",,35.373339,119.514108,17,16,40,4,7,2,23,21,1017,81,1,20140829170000
369,Rizhao,,35.416089,119.532316,59,24,46,5,8,7,23,21,1017,81,1,20140829170000
370,"Vegetable oil factory, Laiwu",,36.205028,117.700917,219,146,27,28,51,14,23,19,1016,71,0,20140829170000
371,"Nursing home, Laiwu",,36.266067,117.652769,189,125,69,15,37,21,23,19,1016,71,0,20140829170000
372,"Xinyi middle school, Laiwu",,36.245086,117.739025,157,92,39,12,48,19,25,19,1016,61,0,20140829170000
373,"Risheng International School, Laiwu",,36.208125,117.730959,199,115,27,18,31,16,23,19,1016,71,0,20140829170000
374,"Gangcheng EPA, Laiwu",,36.066836,117.871823,168,106,27,-,31,26,23,19,1016,71,0,20140829170000
375,"City EPA, Laiwu",,36.228913,117.694797,183,107,39,28,38,24,23,19,1016,71,0,20140829170000
376,Laiwu,,36.213688,117.682612,219,146,69,28,51,26,23,19,1016,71,0,20140829170000
377,"Lunan Pharmaceutical Factory, Linyi",,35.061671,118.299527,59,39,24,7,10,15,18,18,0,98,1,20140829170000
378,"Yihe compound, Linyi",,35.056752,118.34739,65,68,24,16,4,11,18,18,0,98,1,20140829170000
379,"Linyi University, Linyi",,35.114777,118.293414,76,38,20,14,11,13,18,18,0,98,1,20140829170000
380,City EPA,Nanfang,35.104871,118.353518,78,45,31,11,6,6,18,18,0,98,1,20140829170000
381,"Xinguang woolen factory, Linyi",,34.981004,118.282,132,86,18,23,18,7,18,18,0,98,1,20140829170000
382,"Hongfu Baijiu Factory, Linyi",,34.998788,118.257275,76,64,16,45,13,14,18,18,0,98,1,20140829170000
384,"Hedong insurance company, Linyi",,35.089354,118.40812,70,68,28,17,9,6,18,18,0,98,1,20140829170000
385,"Jianghua vehicule center, Linyi",,35.010082,118.435749,72,48,21,16,8,6,18,18,0,98,1,20140829170000
386,Linyi,,35.10428,118.362202,132,86,31,45,18,15,18,18,0,98,1,20140829170000
387,"Heima group, Dezhou",,37.466063,116.314134,175,126,37,44,11,10,25,20,1015,61,0,20140829170000
388,"Monitoring station, Dezhou",,37.433107,116.377312,167,94,19,43,8,15,25,20,1015,61,0,20140829170000
389,"Supervision Station, Dezhou",,37.449689,116.324709,169,102,41,22,9,18,25,20,1015,61,0,20140829170000
390,"Huayu technical school, Dezhou",,37.462809,116.357559,157,1,50,14,14,10,25,20,1015,61,0,20140829170000
391,"Shuangyi group, Dezhou",,37.478848,116.316362,194,169,33,108,5,16,25,20,1015,61,0,20140829170000
392,Dezhou,,37.434959,116.363366,194,169,41,108,11,18,25,20,1015,61,0,20140829170000
393,"Dongchang District Government, Liaocheng",,36.444473,115.971733,182,139,33,38,41,23,24,20,1015,77,0,20140829170000
394,"Light Machinery Factory No. 2, Liaocheng",,36.456788,116.002383,199,197,31,40,23,17,24,20,1015,77,0,20140829170000
395,"City committee communist party school, Liaocheng",,36.479537,115.989288,192,146,23,51,46,19,24,20,1015,77,0,20140829170000
396,"Customs, Liaocheng",,36.431933,115.956974,177,126,34,34,38,16,24,20,1015,77,0,20140829170000
397,"Hongshun Garden, Liaocheng",,36.471124,115.960319,177,138,35,65,52,15,24,20,1015,77,0,20140829170000
398,"BDA, Liaocheng",,36.459407,116.043621,192,135,29,30,34,16,24,20,1015,77,0,20140829170000
399,Liaocheng,,36.456792,115.991051,199,197,35,65,52,23,24,20,1015,77,0,20140829170000
400,"City EPA, Binzhou",,37.38024,118.026895,176,83,25,17,30,16,24,21,1015,77,2,20140829170000
401,"Beizhong new school, Binzhou",,37.38374,117.988996,204,123,14,25,13,17,24,21,1015,77,2,20140829170000
402,"No.2 water factory, Binzhou",,37.36155,118.002648,187,112,16,14,5,13,24,21,1015,77,2,20140829170000
403,"Keling Chemical factory, Binzhou",,37.396138,117.943609,172,99,27,10,9,15,24,21,1015,77,2,20140829170000
404,"Yinhe logistics company, Binzhou",,37.356122,117.943326,185,115,20,15,10,14,24,21,1015,77,2,20140829170000
405,"Bilin compond, Binzhou",,37.36815,117.978964,182,109,15,18,14,13,24,21,1015,77,2,20140829170000
406,Binzhou,,37.382639,117.976606,204,123,27,25,30,17,24,21,1015,77,2,20140829170000
407,"Bureau of Meteorology, Heze",,35.248625,115.428775,153,82,44,18,15,14,20,17,0,83,2,20140829170000
408,"Sewage treatment plant, Heze",,35.222517,115.531511,168,123,16,15,8,14,20,17,0,83,2,20140829170000
409,"Municipal CPPCC, Heze",,35.237125,115.480591,156,82,47,19,21,15,20,17,0,83,2,20140829170000
410,"Huarun Pharmaceutical Company, Heze",,35.261463,115.524873,158,93,30,33,23,17,20,17,0,83,2,20140829170000
411,"Heze University, Heze",,35.269706,115.460934,158,86,43,38,17,11,20,17,0,83,2,20140829170000
412,Heze,,35.233354,115.486503,158,93,58,38,23,17,20,17,0,83,2,20140829170000
413,"Shiji Park, Shijiazhuang",,38.03155,114.547873,154,64,35,6,5,7,22,21,1015,94,1,20140829170000
414,"Xinan College, Shijiazhuang",,38.012764,114.473163,158,67,0,1,3,0,22,21,1015,94,1,20140829170000
415,"Chemical College, Shijiazhuang",,38.055503,114.569816,129,63,17,14,14,23,22,21,1015,94,1,20140829170000
416,"Worker hospital, Shijiazhuang",,38.051784,114.461209,164,68,44,7,6,10,22,21,1016,94,1,20140829170000
417,"Northwest Water Company, Shijiazhuang",,38.140638,114.508038,169,87,30,12,13,7,22,21,1015,94,1,20140829170000
418,"High-tech zone, Shijiazhuang",,38.040482,114.610775,170,93,34,12,5,6,22,21,1015,94,1,20140829170000
419,"Fenglong Montain, Shijiazhuang",,37.910829,114.360264,187,103,72,5,26,11,22,21,1015,94,1,20140829170000
1130,"Zhengding Unicom, Shijiazhuang",,38.159458,114.59879,183,110,41,17,8,9,22,21,1016,94,1,20140829170000
1131,"Luancheng Communications, Shijiazhuang",,37.906534,114.638785,189,112,50,13,17,8,22,21,1016,94,1,20140829170000
1132,"Gaocheng Experimental School, Shijiazhuang",,38.039518,114.867812,166,100,39,16,24,10,22,21,1016,94,1,20140829170000
1133,"Wuji EPA, Shijiazhuang",,38.17862,114.997012,152,82,45,8,3,8,22,21,1016,94,1,20140829170000
1134,"Shenze Power Supply Bureau, Shijiazhuang",,38.197674,115.219126,179,110,30,12,8,10,22,21,1016,94,1,20140829170000
1135,"Zhaoxian EPA, Shijiazhuang",,37.77171,114.775957,177,111,65,14,18,10,22,21,1016,94,1,20140829180000
1136,"Gaoyi County City Hall, Shijiazhuang",,37.623535,114.612729,213,136,58,11,10,8,22,21,1016,94,1,20140829180000
1137,"Zanhuang County City Hall, Shijiazhuang",,37.672898,114.398269,237,122,92,11,14,9,22,21,1016,94,1,20140829180000
1138,"Jingxing Bureau of Meteorology, Shijiazhuang",,38.038788,114.158406,192,123,57,21,25,14,22,21,1016,94,1,20140829180000
1139,"Pingshan Ye River, Shijiazhuang",,38.266657,114.210275,179,97,45,20,9,6,22,21,1016,94,1,20140829180000
420,Shijiazhuang,,38.042926,114.520834,170,93,44,14,14,23,22,21,1015,94,1,20140829180000
421,"No. 12 middle school, Tangshan",,39.659306,118.190271,68,24,21,11,9,8,-,-,0,-,-,20140829180000
422,"Ceramics Company, Tangshan",,39.669255,118.225185,112,68,9,17,18,6,23,20,1015,83,2,20140829180000
423,"Commodities Bureau, Tangshan",,39.642301,118.191265,151,75,33,19,14,7,23,20,1015,83,2,20140829180000
424,"Leidazhanzi Station, Tangshan",,39.644375,118.150383,122,53,39,8,9,6,23,20,1015,83,2,20140829180000
425,"Supply and marketing cooperatives, Tangshan",,39.632334,118.17232,158,70,33,15,9,6,23,20,1015,83,2,20140829180000
1140,"Guye District City Hall, Tangshan",,39.741379,118.460246,197,120,48,32,17,14,24,21,1016,83,1,20140829180000
1141,"Kaiping Stations, Tangshan",,39.675246,118.275149,197,142,49,33,10,5,24,21,1016,83,1,20140829180000
1142,"Fengnan District City Hall, Tangshan",,39.5834,118.097454,189,113,55,23,13,13,24,21,1016,83,1,20140829180000
1143,"Fengrun City Hall, Tangshan",,39.840355,118.175338,196,163,42,33,17,12,24,21,1016,83,1,20140829180000
1144,"Qianxi EPA, Tangshan",,40.153339,118.317265,179,81,68,14,12,19,24,21,1016,83,1,20140829180000
1145,"Caofeidian Xinli  Primary School, Tangshan",,39.291232,118.462182,179,90,49,17,7,4,24,21,1016,83,1,20140829180000
1146,"Zunhua EPA, Tangshan",,40.206249,117.997315,171,90,39,35,17,22,24,21,1016,83,1,20140829180000
1147,"Qianan No.1 middle school, Tangshan",,40.004248,118.717055,173,84,46,7,6,10,24,21,1016,83,1,20140829180000
1266,"Luannan County , Tangshan",,39.511132,118.686928,175,90,44,28,5,8,24,21,1016,83,1,20140829180000
1267,"Yutian County , Tangshan",,39.908249,117.751417,195,136,20,47,12,22,24,21,1016,83,1,20140829180000
426,Tangshan,,39.632175,118.186472,158,75,39,27,18,7,23,20,1015,83,2,20140829180000
427,"City Monitoring Station, Qinhuangdao",,39.958109,119.607773,93,7,16,41,6,7,,,,,,20140829180000
428,"Beidaihe, Qinhuangdao",,39.829209,119.53194,93,55,18,34,14,7,,,,,,20140829180000
429,"Shanhai Pass, Qinhuangdao",,40.019298,119.767898,112,57,7,45,2,6,,,,,,20140829180000
430,"Contruction Plazz, Qinhuangdao",,39.943187,119.542912,109,91,19,37,4,5,,,,,,20140829180000
431,"City government, Qinhuangdao",,39.93711,119.612769,117,62,9,33,5,5,,,,,,20140829180000
1148,"Qinglong EPA, Qinhuangdao",,40.419223,118.958002,167,65,68,12,3,7,24,21,1016,83,1,20140829180000
1149,"Changli EPA, Qinhuangdao",,39.714369,119.173237,159,77,35,33,1,6,,,,,,20140829180000
1268,"Lulong County Bureau of Meteorology , Qinhuangdao",,39.901091,118.904857,195,85,47,12,7,5,24,21,1016,83,1,20140829180000
432,Qinhuangdao,,39.936485,119.606263,117,62,9,33,5,5,23,20,1015,83,2,20140829180000
433,"CongTai Park, Handan",,36.620197,114.501891,134,67,32,6,3,3,24,18,1015,59,1,20140829180000
434,"City EPA, Handan",,36.618145,114.518822,154,68,38,41,4,6,24,18,1015,59,1,20140829180000
435,"East Sewage Factory, Handan",,36.616064,114.548714,151,99,27,28,11,4,24,18,1015,59,1,20140829180000
436,"Mine Hospital, Handan",,36.578149,114.509854,173,94,22,22,4,3,24,18,1015,59,1,20140829180000
1150,"Fengfeng mine Inland Revenue Department, Handan",,36.423085,114.245994,170,104,38,11,10,9,24,17,1014,59,1,20140829180000
1151,"Shexian EPA, Handan",,36.589084,113.692341,160,84,53,21,18,14,,,,,,20140829180000
1152,"Ci County Vocational Education Center, Handan",,36.380247,114.390119,152,64,59,23,5,7,,,,,,20140829180000
1153,"Yongnian government guesthouse, Handan",,36.783297,114.502905,177,108,38,22,15,2,24,18,1015,59,1,20140829180000
1154,"Wuan BDA, Handan",,36.686223,114.269009,167,170,31,1,5,18,,,,,,20140829180000
1085,Handan,,36.625683,114.544812,173,99,38,28,11,6,24,18,1015,59,1,20140829180000
437,"Road and Bridge Corporation, Xingtai",,37.096415,114.538799,169,100,16,11,6,2,24,18,1015,59,1,20140829180000
438,"Dahuo fontain, Xingtai",,37.097563,114.488001,182,99,12,8,6,6,24,18,1015,59,1,20140829180000
439,"Xingtai Normal College, Xingtai",,37.053404,114.531819,154,80,6,11,14,4,24,18,1015,59,1,20140829180000
440,"Environment protection office, Xingtai",,37.06253,114.490985,162,117,20,5,8,5,24,18,1015,59,1,20140829180000
1155,"Cultural centers within the mound, Xingtai",,37.293569,114.524873,217,165,73,8,17,10,24,18,1015,59,1,20140829180000
383,Xingtai,,37.071066,114.510749,182,117,20,11,14,6,24,18,1015,59,1,20140829180000
441,"City Monitoring Station, Baoding",,38.871737,115.527103,157,64,77,3,8,10,24,20,1015,71,2,20140829180000
442,"Surface water Company, Baoding",,38.842891,115.467326,178,76,60,28,26,8,24,20,1015,71,2,20140829180000
443,"Huadian II, Baoding",,38.896748,115.528102,102,84,55,1,6,8,24,20,1015,71,2,20140829180000
444,"Reception Center, Baoding",,38.911905,115.477301,171,72,31,26,1,9,24,20,1015,71,2,20140829180000
445,"Film Factory, Baoding",,38.876949,115.448383,172,87,44,13,9,9,24,20,1015,71,2,20140829180000
446,"Natatorium, Baoding",,38.863815,115.499212,147,88,59,10,6,12,24,20,1015,71,2,20140829180000
1156,"Qingyuan City Hall, Baoding",,38.771758,115.502189,192,116,47,9,4,5,24,20,1015,71,2,20140829180000
1157,"Xushui EPA, Baoding",,39.025781,115.668023,13,87,46,12,12,7,24,20,1015,71,2,20140829180000
1158,"Zhouzhou Monitoring Stations, Baoding",,39.493241,116.040187,171,108,65,22,7,4,24,20,1015,71,2,20140829180000
1159,"Gaobeidian EPA, Baoding",,39.3329,115.885891,164,94,51,20,24,5,24,20,1015,71,2,20140829180000
447,Baoding,,38.874791,115.471124,178,88,77,28,26,12,24,20,1015,71,2,20140829180000
448,"Century Compound, Zhangjiakou",,40.770279,114.909106,142,20,18,10,11,5,19,14,1015,65,3,20140829180000
449,"North Pumping Station, Zhangjiakou",,40.874362,114.910119,157,62,7,13,16,12,19,14,1015,65,3,20140829180000
450,"Hardware Warehouse, Zhangjiakou",,40.81232,114.887119,127,65,37,15,12,16,19,14,1015,65,3,20140829180000
451,"Tanji Chang, Zhangjiakou",,40.796301,114.89811,87,31,36,11,16,5,19,14,1015,65,3,20140829180000
1160,"Xiahuayuan EPA, Zhangjiakou",,40.509345,115.302442,53,84,44,14,1,5,19,14,1015,65,3,20140829180000
1161,"Huaian EPA, Zhangjiakou",,40.68157,114.398646,168,81,54,15,33,3,19,14,1015,65,3,20140829180000
1162,"Huailai Fuqian Primary School, Zhangjiakou",,40.422204,115.530285,158,75,35,35,10,4,19,14,1015,65,3,20140829180000
1269,"Zhangbei EPA , Zhangjiakou",,41.166775,114.732369,162,65,45,4,3,6,19,14,1015,65,3,20140829180000
1270,"Kangbao County Environmental Protection Agency , Zhangjiakou",,41.837866,114.591246,172,86,3,2,3,6,19,14,1015,65,3,20140829180000
1271,"Guyuan County welfare , Zhangjiakou",,41.669984,115.687401,151,57,34,6,5,31,19,14,1015,65,3,20140829180000
1272,"Shangyi County Environmental Protection Bureau , Zhangjiakou",,41.086638,113.984688,160,31,84,2,26,6,19,14,1015,65,3,20140829180000
1273,"Yuxian Secondary School , Zhangjiakou",,39.84699,114.601986,162,68,49,7,1,4,19,14,1015,65,3,20140829180000
1274,"Yang County Vocational Education Center , Zhangjiakou",,40.106343,114.134732,177,82,45,11,4,9,19,14,1015,65,3,20140829180000
1275,"Wan county Environmental Protection Agency , Zhangjiakou",,40.770459,114.75033,167,6,0,2,3,0,19,14,1015,65,3,20140829180000
473,"Nankou road, Tianjin",,39.174022,117.199688,182,93,20,33,4,9,23,20,1015,83,2,20140829180000
1276,"Zhuolu County Environmental Protection Agency , Zhangjiakou",,40.374273,115.221393,163,76,46,3,3,10,19,14,1015,65,3,20140829180000
452,Zhangjiakou,,40.825744,114.893659,157,75,39,15,22,16,19,14,1015,65,3,20140829180000
453,"Railway, Chengde",,40.917557,117.972331,102,61,20,24,5,5,18,15,1017,82,0,20140829180000
454,"Cultural Center, Chengde",,40.974625,117.824437,124,64,23,17,3,8,18,15,1017,82,0,20140829180000
455,"Bank of China, Chengde",,40.985582,117.958304,139,59,17,17,16,9,18,15,1017,82,0,20140829180000
456,"BDA, Chengde",,40.937567,117.969325,151,63,30,22,14,7,18,15,1017,82,0,20140829180000
457,"Ligong, Chengde",,41.012579,117.94428,173,42,30,11,1,7,18,15,1017,82,0,20140829180000
1163,"Chengde County EPA, Chengde",,40.776643,118.17646,164,100,37,28,3,12,18,15,1017,82,0,20140829180000
1164,"Xinglong County City Hall, Chengde",,40.424301,117.513488,152,68,25,13,4,12,18,15,1017,82,0,20140829180000
1165,"Luanping EPA, Chengde",,40.950792,117.350715,157,53,38,4,4,10,18,15,1017,82,0,20140829180000
1166,"Fengning County City Hall, Chengde",,41.216739,116.658037,153,56,31,9,5,11,18,15,1017,82,0,20140829180000
1277,"Longhua EPA , Chengde",,41.311956,117.739605,164,79,35,14,7,12,18,15,1017,82,0,20140829180000
458,Chengde,,40.955652,117.968737,151,63,30,24,16,9,18,15,1017,82,0,20140829180000
459,"Municipal EPB, Cangzhou",,38.323507,116.876746,174,130,40,33,13,8,24,21,1016,83,1,20140829180000
460,"Cangxian Urban Construction Bureau, Cangzhou",,38.299495,116.890734,163,128,29,25,8,6,23,21,1016,88,3,20140829180000
461,"TV Broadcast Station, Cangzhou",,38.325525,116.863761,179,134,31,17,15,8,23,21,1016,88,3,20140829180000
1167,"Qing County City Hall, Cangzhou",,38.589643,116.815876,226,119,33,17,8,5,24,21,1016,83,1,20140829180000
1168,"Poyoushi City Hall, Cangzhou",,38.089516,116.590575,185,132,1,20,23,4,24,21,1016,83,1,20140829180000
1169,"Huanghua Finance Bureau Training Center, Cangzhou",,38.377793,117.343356,187,66,49,12,39,2,24,21,1016,83,1,20140829180000
462,Cangzhou,,38.305035,116.844625,179,134,31,33,15,8,23,21,1016,88,3,20140829180000
463,"Environmental Monitoring Supervision Center, Langfang",,39.558157,116.720995,171,104,25,24,11,11,24,21,1016,83,1,20140829180000
464,"TCM Medical Material Company, Langfang",,39.519096,116.689914,168,88,26,24,4,10,23,21,1016,88,3,20140829180000
465,"BDA, Langfang",,39.576175,116.779041,179,100,27,44,8,10,23,21,1016,88,3,20140829180000
466,"North China Institute of Aerospace, Langfang",,39.53517,116.743027,184,120,29,37,4,12,24,21,1016,83,1,20140829180000
1170,"Guan Party School, Langfang",,39.446185,116.311026,186,113,46,56,3,8,24,21,1016,83,1,20140829180000
1171,"Xianghe EPA, Langfang",,39.76725,117.015252,223,141,60,38,14,12,24,21,1016,83,1,20140829180000
1172,"Wenan County EPA, Langfang",,38.880927,116.47001,195,110,55,33,27,16,24,21,1016,83,1,20140829180000
1173,"Three Rivers Department of Transportation, Langfang",,39.989419,117.091528,204,137,48,33,10,17,24,21,1016,83,1,20140829180000
1278,"Yongqing EPA , Langfang",,39.329071,116.510917,200,167,41,18,1,9,24,21,1016,83,1,20140829180000
1279,"Dacheng EPA, Langfang",,38.712628,116.665751,278,156,107,11,14,11,24,21,1016,83,1,20140829180000
467,Langfang,,39.539148,116.689668,179,100,27,44,8,10,23,21,1016,88,3,20140829180000
468,"Hengshui City EPB, Hengshui",,37.739679,115.695929,173,104,44,21,16,8,21,15,0,66,2,20140829180000
469,"Environmental Monitoring Station, Hengshui",,37.738593,115.648837,171,103,43,14,11,7,21,15,0,66,2,20140829180000
470,"Electrical Machine North Factory, Hengshui",,37.758686,115.70094,181,137,45,53,7,9,21,15,0,66,2,20140829180000
1174,"Anping EPA, Hengshui",,38.238559,115.537988,186,84,72,11,9,8,22,15,0,63,2,20140829180000
1175,"Jizhou EPA, Hengshui",,37.548552,115.58679,187,91,75,20,17,7,22,15,0,63,2,20140829180000
1280,"Zaoqiang EPA, Hengshui",,37.520698,115.714936,190,117,108,17,14,7,22,15,0,63,2,20140829180000
1281,"Wuyi EPA, Hengshui",,37.801554,115.898697,193,123,53,20,13,7,22,15,0,63,2,20140829180000
1282,"Wuqiang EPA , Hengshui",,38.03557,115.959767,232,148,43,12,11,14,22,15,0,63,2,20140829180000
1283,"Raoyang EPA , Hengshui",,38.230652,115.741041,238,123,101,10,16,11,22,15,0,63,2,20140829180000
1284,"Gucheng County , Hengshui",,37.347569,115.966707,185,104,57,13,7,8,22,15,0,63,2,20140829180000
471,Hengshui,,37.739562,115.676066,181,137,45,53,16,9,21,15,0,66,2,20140829180000
1176,"Xinji City Hall, Xinji",,37.949711,115.230084,196,106,49,15,8,10,22,15,0,63,2,20140829180000
474,"Qinjian street, Tianjin",,39.166588,117.15104,180,108,24,38,7,10,23,20,1015,83,2,20140829180000
475,"Nanjing Road, Tianjin",,39.120958,117.195112,169,76,32,13,6,9,23,20,1015,83,2,20140829180000
476,"Dazhigu No.8 road, Tianjin",,39.111811,117.25147,161,91,26,30,4,7,23,20,1015,83,2,20140829180000
477,"Qianjin street, Tianjin",,39.09371,117.207981,161,91,21,11,7,8,23,20,1015,83,2,20140829180000
478,"Huaihe street, Tianjin",,39.227167,117.191293,179,91,13,35,4,10,23,20,1015,83,2,20140829180000
479,"Xiangshan street, Tianjin",,39.134752,117.275125,185,82,40,13,4,10,23,20,1015,83,2,20140829180000
480,"Yuejin Road, Tianjin",,39.088177,117.320884,173,136,24,30,4,9,23,20,1015,83,2,20140829180000
482,"No.4 street, Tianjin",,39.035228,117.713424,162,68,20,23,7,5,23,20,1015,83,2,20140829180000
483,"Yongming road, Tianjin",,38.840392,117.463805,157,66,32,8,3,7,23,20,1015,83,2,20140829180000
484,"Xinhua street, Tianjin",,39.138671,117.010083,187,124,30,40,14,13,23,20,1015,83,2,20140829180000
485,"Jingu Road, Tianjin",,38.985659,117.381254,160,98,48,8,5,12,23,20,1015,83,2,20140829180000
486,"Tanggu Yingkou street, Tianjin",,39.021768,117.656454,160,77,37,55,10,9,23,20,1015,83,2,20140829180000
487,"Hexi Yijing road, Tianjin",,39.248392,117.798043,-,69,45,13,8,11,23,20,1015,83,2,20140829180000
488,"Jianshe Road, Tianjin",,39.720075,117.310588,165,103,14,34,4,17,23,20,1015,83,2,20140829180000
489,"Quanzhou South road, Tianjin",,39.373857,117.050329,181,118,43,33,10,17,23,20,1015,83,2,20140829180000
490,"Donghuan road, Tianjin",,40.043144,117.451062,160,66,38,10,7,24,23,20,1015,83,2,20140829180000
491,"Tuanpowa, Tianjin",,38.920418,117.16299,179,96,29,14,4,8,23,20,1015,83,2,20140829180000
493,"Beiwei No.2 road, Tianjin",,38.943857,116.920624,-,-,-,-,-,-,-,-,0,-,-,20140829180000
494,"Haitai fazhan No.2 road, Tianjin",,39.079608,117.096583,181,103,12,20,6,20,23,20,1015,83,2,20140829180000
495,"Hangtian road, Tianjin",,39.152244,117.381309,176,72,22,36,5,9,23,20,1015,83,2,20140829180000
496,"Hanbei road, Tianjin",,39.159768,117.770477,153,57,43,13,5,7,23,20,1015,83,2,20140829180000
497,"Baobai highway, Tianjin",,39.51757,117.349635,163,148,39,11,3,15,23,20,1015,83,2,20140829180000
498,Tianjin,,39.085164,117.207281,169,91,32,13,6,9,23,20,1015,83,2,20140829180000
499,"Wolong bridge, Hangzhou",,30.24371,120.132762,109,50,11,11,4,13,25,21,1014,78,2,20140829180000
500,"Hemu primary school, Hangzhou",,30.309669,120.124507,156,57,30,21,6,11,25,21,1014,78,2,20140829180000
501,"Zhejiang Agricultural University, Hangzhou",,30.265601,120.197583,171,75,26,37,12,15,25,21,1014,78,2,20140829180000
502,"Xiasha, Hangzhou",,30.303516,120.352618,171,72,27,13,10,12,25,21,1014,78,2,20140829180000
503,"Yunqi, Hangzhou",,30.178555,120.093142,129,53,13,10,4,14,25,21,1014,78,2,20140829180000
504,"Xixi, Hangzhou",,30.272425,120.068144,142,50,16,22,5,13,25,21,1014,78,2,20140829180000
505,"Chengxiang town, Hangzhou",,30.179493,120.274184,144,62,33,15,8,12,25,21,1014,78,2,20140829180000
506,"Qiandao lake, Hangzhou",,29.638139,119.031092,53,15,23,5,4,2,25,21,1014,78,2,20140829180000
507,"Linping town, Hangzhou",,30.415948,120.305059,180,58,30,13,7,13,25,21,1014,78,2,20140829180000
509,"No.2 Middle School, Hangzhou",,30.044303,119.956356,132,78,9,12,3,13,25,21,1014,78,2,20140829180000
510,"City Hall, Hangzhou",,30.234185,119.723503,159,70,31,12,4,12,25,21,1014,78,2,20140829180000
511,"No. 4 middle school, Hangzhou",,30.229428,119.699591,152,68,19,11,5,13,25,21,1014,78,2,20140829180000
512,Hangzhou,,30.271756,120.159765,171,75,30,37,12,18,25,21,1014,78,2,20140829180000
513,"City Station, Wenzhou",,28.009715,120.679129,114,54,15,18,11,5,23,22,0,94,1,20140829180000
514,"Ouhai, Wenzhou",,28.001846,120.641982,117,58,8,31,5,8,23,22,0,94,1,20140829180000
515,"Longwan, Wenzhou",,27.968122,120.768393,82,48,19,20,7,6,23,22,0,94,1,20140829180000
516,"Nanpu, Wenzhou",,27.981763,120.683685,91,44,11,19,4,9,23,22,0,94,1,20140829180000
517,Wenzhou,,27.990985,120.703425,117,64,19,31,15,9,23,22,0,94,1,20140829180000
518,"Monitoring station, Jiaxing",,30.75437,120.767373,167,77,27,34,33,14,23,22,1014,94,2,20140829180000
519,"Jiaxing University, Jiaxing",,30.745099,120.735004,168,72,33,15,11,13,23,22,1014,94,2,20140829180000
520,"Qinghe Primary School, Jiaxing",,30.775685,120.747969,157,91,22,31,17,12,23,22,1014,94,2,20140829180000
521,Jiaxing,,30.751627,120.762862,168,77,33,34,33,14,23,22,1014,94,2,20140829180000
522,"Chengbei water plant, Huzhou",,30.891155,120.096593,147,59,16,33,7,11,23,22,1014,94,2,20140829180000
523,"Jishan new village, Huzhou",,30.859939,120.120168,144,68,21,34,8,13,23,22,1014,94,2,20140829180000
524,"Town west water plant, Huzhou",,30.862371,120.084577,117,67,15,28,5,11,23,22,1014,94,2,20140829180000
525,Huzhou,,30.892304,120.091694,147,67,21,34,7,13,23,22,1014,94,2,20140829180000
526,"Donghu middle school, Shaoxing",,29.990447,120.647547,154,61,24,19,21,14,25,21,1014,78,2,20140829180000
527,"City EPA station, Shaoxing",,30.001695,120.584318,167,88,29,28,19,15,25,21,1014,78,2,20140829180000
528,"Chengdong BDA committee, Shaoxing",,29.986643,120.613578,164,67,27,21,21,9,25,21,1014,78,2,20140829180000
529,"Paojiang station, Shaoxing",,30.07574,120.62154,163,79,30,22,37,15,25,21,1014,78,2,20140829180000
530,"Shaoxing technical school, Shaoxing",,29.930983,120.577131,155,71,9,22,9,12,25,21,1014,78,2,20140829180000
531,"Library, Shaoxing",,29.706266,120.253183,122,55,21,7,2,14,25,21,1014,78,2,20140829180000
532,"Transporation management station, Shaoxing",,29.726405,120.221602,117,64,25,4,4,17,25,21,1014,78,2,20140829180000
533,"Dongpu Town Governement, Shaoxing",,30.049601,120.539893,156,66,15,28,21,15,25,21,1014,78,2,20140829180000
534,Shaoxing,,29.993122,120.590182,170,88,30,28,37,16,25,21,1014,78,2,20140829180000
535,"City Monitoring Station, Jinhua",,29.100031,119.690373,144,51,18,26,26,7,22,22,0,95,1,20140829180000
536,"No.15 middle school, Jinhua",,29.074022,119.652121,104,50,18,15,22,6,22,22,0,95,1,20140829180000
537,"No.4 middle school, Jinhua",,29.110109,119.653654,107,45,15,15,14,4,22,22,0,95,1,20140829180000
538,"Beiyuan, Jinhua",,29.332898,120.083351,117,56,12,16,11,8,22,22,0,95,1,20140829180000
539,"Jiangdong, Jinhua",,29.302486,120.095291,142,60,16,16,11,9,22,22,0,95,1,20140829180000
540,Jinhua,,29.076083,119.65215,144,51,18,26,26,7,22,22,0,95,1,20140829180000
541,"EPA building, Quzhou",,28.937291,118.876081,161,30,11,26,11,5,24,24,1015,98,1,20140829180000
542,"Experimental school, Quzhou",,28.961502,118.880916,91,35,12,8,21,3,24,24,1015,98,1,20140829180000
543,"Quzhou University, Quzhou",,28.971452,118.860052,65,30,5,7,5,7,24,24,1015,98,1,20140829180000
544,Quzhou,,28.966994,118.864252,161,35,12,26,21,7,24,24,1015,98,1,20140829180000
545,"Putuo east port, Zhoushan",,29.951412,122.317679,158,68,24,9,4,7,25,24,1013,94,1,20140829180000
546,"Dinghai tanfeng, Zhoushan",,30.018014,122.126566,95,45,17,9,2,10,25,25,1013,100,0,20140829180000
547,Zhoushan,,29.983049,122.210763,159,73,24,10,4,10,25,25,1013,100,0,20140829180000
548,"Taizhou EPA building, Taizhou",,28.651216,121.42331,99,56,26,12,4,6,24,23,0,95,1,20140829180000
549,"Luqiao Tian Yang Wang, Taizhou",,28.574364,121.381194,151,65,21,17,6,6,24,23,0,95,1,20140829180000
550,"Huangyan EPA building, Taizhou",,28.656151,121.285064,107,50,16,17,5,9,24,23,0,95,1,20140829180000
551,"Yu Zhuang Qian, Lishui",,28.419638,119.883884,65,30,11,17,10,5,25,23,1014,84,1,20140829180000
552,"Monitoring station building, Lishui",,28.444379,119.923103,112,50,5,12,28,7,25,23,1014,84,1,20140829180000
553,"Liandu primary school, Lishui",,28.450912,119.939332,80,50,7,13,2,7,25,23,1014,84,1,20140829180000
554,Lishui,,28.464224,119.927201,112,50,11,17,28,7,25,23,1014,84,1,20140829180000
1248,Jingningxian,,27.977454,119.634837,53,29,2,8,2,4,25,23,1014,84,1,20140829180000
555,Taigu Primary School,,29.858177,121.593738,156,70,22,15,6,9,25,24,1013,94,1,20140829180000
556,Qianhu shuihan,,29.862459,121.5328,167,73,19,6,3,13,25,24,1013,94,1,20140829180000
557,Sanjiang secondary schools,,29.884687,121.562713,156,65,28,20,4,11,25,24,1013,94,1,20140829180000
558,Longsai Hospital,,29.949294,121.720671,172,84,24,22,11,11,25,24,1013,94,1,20140829180000
559,Beilun District EPB,,29.899544,121.827597,137,59,19,23,4,10,25,24,1013,94,1,20140829180000
560,Wanli University,,29.896155,121.541154,151,67,28,21,6,8,25,24,1013,94,1,20140829180000
561,Qianhu water plant,,29.788156,121.652415,154,70,30,7,4,5,25,24,1013,94,1,20140829180000
562,Municipal management station,,29.893743,121.620269,164,72,24,14,4,9,25,24,1013,94,1,20140829180000
1177,Daxie Literary Museum,,29.891281,121.952741,107,57,19,23,3,11,25,24,1013,94,1,20140829180000
1178,Cixi EPB,,30.159852,121.242331,156,88,30,13,9,17,25,24,1013,94,1,20140829180000
1179,Cixi Experimently Primary School,,30.174341,121.262169,154,80,35,17,8,15,25,24,1013,94,1,20140829180000
1181,"Qilupu Water Company, Yuyao",,30.039112,121.133416,-,-,-,-,-,-,-,-,0,-,-,20140829180000
1182,Fenghua EPB,,29.660537,121.414074,129,50,31,2,2,7,25,24,1013,94,1,20140829180000
1183,"Yuelong station, Ninghai",,29.290223,121.439263,82,53,20,14,4,7,25,24,1013,94,1,20140829180000
1184,"Wenfeng Primary School, Xiangshan",,29.470841,121.895054,93,43,27,3,2,6,25,24,1013,94,1,20140829180000
1185,"Chengnan Primary School, Ninghai",,29.282647,121.428839,78,54,23,14,8,6,25,24,1013,94,1,20140829180000
1186,"Xingang Primary School, Xiangshan",,29.199718,121.935879,70,42,31,9,3,6,25,24,1013,94,1,20140829180000
1294,Ningbo,,29.865766,121.548164,172,84,28,22,11,11,25,24,1013,94,1,20140829180000
1187,Fuyang,,30.046157,119.96468,132,78,9,12,3,13,25,21,1014,78,2,20140829180000
1188,Yiwu,,29.304353,120.079794,142,60,16,16,11,9,-,-,0,-,-,20140829180000
1189,Zhuji,,29.711185,120.240748,122,64,25,7,4,17,25,21,1014,78,2,20140829180000
563,"Shanxi Road , Nanjing",,32.06795,118.779216,78,36,8,28,6,11,21,21,1014,100,1,20140829180000
564,"Ruijin Road , Nanjing",,32.029321,118.80817,99,46,5,24,5,14,21,21,1015,100,1,20140829180000
565,"Xuanwu Lake, Nanjing",,32.075423,118.800188,85,35,7,26,5,7,21,21,1015,100,1,20140829180000
566,"Olympic Center, Nanjing",,32.007171,118.742217,82,29,7,13,1,6,21,21,1015,100,1,20140829180000
567,"Xianlin University Town , Nanjing",,32.106958,118.919882,87,36,5,11,1,9,21,21,1014,100,1,20140829180000
568,Nanjing,,32.058179,118.802061,80,40,5,33,4,12,21,21,1014,100,1,20140829180000
569,"Shangfang hill , Suzhou",,31.24502,120.565211,160,76,9,29,5,12,23,22,1014,94,2,20140829180000
570,"Wuzhong District , Suzhou",,31.268105,120.61717,171,75,5,44,6,12,23,22,1014,94,2,20140829180000
571,"Suzhou New District , Suzhou",,31.297277,120.547262,173,87,13,24,13,11,23,22,1014,94,2,20140829180000
572,"Suzhou Industrial Area, Suzhou",,31.307603,120.673257,169,78,14,20,14,10,23,22,1014,94,2,20140829180000
573,"Xiangcheng district, Suzhou",,31.368674,120.645209,165,86,19,34,12,12,23,22,1014,94,2,20140829180000
574,Suzhou,,31.296701,120.589493,171,100,9,42,16,11,23,22,1014,94,2,20140829180000
575,"South suburb , Nantong",,31.957836,120.917218,87,47,17,16,5,6,21,20,1003,97,2,20140829180000
576,"Xinghu park, Nantong",,31.927873,120.944254,91,49,18,15,26,7,21,20,1003,97,2,20140829180000
577,"Zilang school, Nantong",,32.039638,120.814358,132,52,17,16,8,0,21,20,1003,97,2,20140829180000
578,Nantong,,31.978005,120.898555,99,49,18,16,26,12,21,20,1003,97,2,20140829180000
579,Lianyungang,,34.595509,119.226814,152,84,21,27,10,7,8,8,1016,96,0,20140829180000
580,"Hongmen police substation, Lianyungang",,34.588692,119.146693,59,24,32,13,4,4,24,21,1016,84,1,20140829180000
581,"Xugou Nuclear Expert Village , Lianyungang",,34.749957,119.373707,53,43,17,24,10,5,24,21,1016,84,1,20140829180000
582,"Hengrui pharmaceutical company, BDA, Lianyungang",,34.697574,119.353668,21,30,28,6,2,6,24,21,1016,84,1,20140829180000
583,"City Monitoring Station, Lianyungang",,34.586791,119.186929,30,27,28,10,3,4,24,21,1016,84,1,20140829180000
584,"Yellow river new village , Xuzhou",,34.271542,117.177241,46,40,45,14,11,11,24,20,1016,74,1,20140829180000
585,"Tongshan Veterinary Hospital , Xuzhou",,34.307086,117.197766,63,35,36,25,17,9,24,20,1016,74,1,20140829180000
586,"New Town , Xuzhou",,34.213992,117.261718,70,57,38,12,3,14,24,20,1016,74,1,20140829180000
587,"Taoyuan road, Xuzhou",,34.289822,117.249721,59,32,27,11,4,10,24,20,1016,74,1,20140829180000
588,"Agricultural Science Academy , Xuzhou",,34.27655,117.299079,59,45,21,19,14,10,24,20,1016,74,1,20140829180000
589,"Tongshan EPA, Xuzhou",,34.179384,117.171798,102,59,16,8,10,10,24,20,1016,74,1,20140829180000
590,Xuzhou,,34.20346,117.289825,102,32,37,17,10,10,24,20,1016,74,1,20140829180000
591,Yangzhou,,32.39233,119.418446,159,69,10,19,10,5,11,9,0,90,6,20140829180000
592,"Hanjiang Monitoring Station, Yangzhou",,32.374218,119.394484,114,62,24,11,7,7,20,20,0,98,2,20140829180000
593,"No. 4 Hospital, Yangzhou",,32.401394,119.44444,114,70,30,15,9,5,20,20,0,98,2,20140829180000
594,"City Monitoring Station, Yangzhou",,32.406588,119.41591,13,9,13,15,31,7,20,20,0,98,2,20140829180000
595,"University Town , Wuxi",,31.484752,120.273571,147,67,28,6,9,9,23,22,1014,94,2,20140829180000
596,"Shibei High School , Wuxi",,31.619969,120.279584,188,110,11,24,7,9,23,22,1014,94,2,20140829180000
597,"Yuhong Elementary School , Wuxi",,31.561155,120.249588,162,81,20,12,12,13,23,22,1014,94,2,20140829180000
598,Wuxi,,31.488746,120.31575,169,115,7,42,21,15,23,22,1014,94,2,20140829180000
599,Changzhou,,31.808037,119.979205,172,86,6,22,36,13,11,9,0,88,5,20140829180000
600,"Chengjian School, Changzhou",,31.776476,119.937681,147,65,15,22,12,10,21,21,1003,97,2,20140829180000
601,"Changzhou Engineering Institute , Changzhou",,31.806828,119.966724,153,60,11,33,15,11,21,21,1003,97,2,20140829180000
602,"Wujin Monitoring Station, Changzhou",,31.701788,119.939676,149,54,19,22,11,9,21,21,1003,97,2,20140829180000
603,"City Monitoring Station, Changzhou",,31.777201,119.979426,151,58,12,27,12,10,21,21,1003,97,2,20140829180000
604,Zhenjiang,,32.18597,119.431281,170,79,4,39,15,13,9,8,0,93,5,20140829180000
605,"New District Administrative office , Zhenjiang",,32.186174,119.685021,154,67,20,17,8,12,21,21,1015,100,1,20140829180000
606,"Vocational Education Center , Zhenjiang",,32.212973,119.496253,144,76,15,35,3,11,21,21,1014,100,1,20140829180000
607,"Dantu Monitoring Station , Zhenjiang",,32.130026,119.435432,122,52,31,27,9,10,21,21,1014,100,1,20140829180000
608,"City Monitoring Station, Zhenjiang",,32.202178,119.439766,112,73,11,19,5,12,21,21,1014,100,1,20140829180000
609,"Gaogang Adminstrative office , Taizhoushi",,32.300768,119.886757,109,44,4,11,9,7,20,20,0,98,2,20140829180000
610,"Students Innovation Park , Taizhoushi",,32.461672,119.892761,117,59,27,2,10,5,20,20,0,98,2,20140829180000
611,Taizhoushi,,32.453555,119.927852,102,40,21,9,7,8,20,20,0,98,2,20140829180000
612,"Yancheng power station , Yancheng",,33.400859,120.123067,57,30,28,3,7,3,-,-,0,-,-,20140829180000
613,Yancheng,,33.345939,120.168504,144,52,30,5,3,7,11,10,1016,95,4,20140829180000
614,"Wenfeng Middle School , Yancheng",,33.370531,120.134041,30,15,20,12,6,4,-,-,0,-,-,20140829180000
615,"BDA Management Committe, Yancheng",,33.393191,120.22978,42,6,30,7,2,3,-,-,0,-,-,20140829180000
616,"City Monitoring Station, Yancheng",,33.390623,120.164423,59,28,28,5,3,4,20,20,0,98,2,20140829180000
617,Suqian,,33.960666,118.281004,160,87,24,7,5,7,11,10,0,91,6,20140829180000
618,"Suqian College , Suqian",,33.951472,118.298523,57,32,21,17,4,5,20,20,0,98,2,20140829180000
619,"Suqian Middle School , Suqian",,33.95784,118.249505,63,40,18,16,11,6,20,20,0,98,2,20140829180000
620,"Suyu District Environmental Protection Agency , Suqian",,33.94932,118.326569,65,36,26,5,9,5,20,20,0,98,2,20140829180000
621,"City Monitoring Station, Suqian",,33.956982,118.277022,89,33,10,5,8,5,20,20,0,98,2,20140829180000
622,Taizhou,,28.653436,121.425185,151,64,21,17,6,9,24,23,0,95,1,20140829180000
623,Donghu Liyuan,,30.572324,114.377844,70,50,15,18,3,7,24,23,1013,94,3,20140829180000
624,Yuehu Lake,,30.554662,114.256937,76,53,9,33,3,8,24,23,1013,94,3,20140829180000
625,Hankou Huaqiao ,,30.61724,114.287652,119,60,12,22,4,10,24,23,1013,94,3,20140829180000
626,Wuchang Ziyang ,,30.530801,114.309438,78,83,10,34,2,6,24,23,1013,94,3,20140829180000
627,Qingshan Ganghua,,30.622435,114.375599,93,39,14,19,9,8,24,23,1013,94,3,20140829180000
628,Dunkou Xinou,,30.480091,114.162176,95,65,10,35,5,8,24,23,1013,94,3,20140829180000
629,Donghu Gaoxin,,30.48095,114.40724,87,68,16,22,4,9,24,23,1013,94,3,20140829180000
630,Wujianshan,,30.63114,114.135907,93,65,10,17,0,9,24,23,1013,94,3,20140829180000
631,Yuanshun Road,,30.297142,113.858587,93,52,27,10,4,7,24,23,1013,94,3,20140829180000
632,Wuhan,,30.590689,114.310838,119,83,15,34,9,12,24,23,1013,94,3,20140829180000
1190,"Silingsan Factory, Yichang",,30.713288,111.306585,163,88,11,14,9,8,23,22,1013,95,1,20140829180000
633,Yichang,,30.689528,111.292131,173,95,16,21,18,11,23,22,1013,95,1,20140829180000
633,Yichang,,30.689528,111.292131,173,95,16,21,18,11,23,22,1013,95,1,20140829180000
1191,"City Library , Jingzhou",,30.31494,112.260844,97,50,20,8,7,13,26,23,1013,78,1,20140829180000
1192,"City committee communist party school, Jingzhou",,30.35054,112.20743,112,56,19,7,6,12,26,23,1013,78,1,20140829180000
1193,"kerong EPA, Jingzhou",,30.302965,112.29443,158,94,16,14,5,12,26,23,1013,78,1,20140829180000
634,Jingzhou,,30.332608,112.245451,158,94,20,14,7,13,26,23,1013,78,1,20140829180000
634,Jingzhou,,30.332608,112.245451,158,94,20,14,7,13,26,23,1013,78,1,20140829180000
635,Huangshi,,30.19723,115.043908,157,78,20,23,12,22,26,23,1016,91,3,20140829180000
635,Huangshi,,30.19723,115.043908,157,78,20,23,12,22,26,23,1016,91,3,20140829180000
1194,"Chenjiaying, Huangshi",,30.232823,115.067923,157,76,11,19,9,22,26,,1016,91,3,20140829180000
1195,"Chenjiawan , Huangshi",,30.200422,115.082138,157,77,17,9,6,22,26,,1016,91,3,20140829180000
1196,"Xinxialu, Huangshi",,30.17332,114.954357,127,64,15,13,12,17,26,,1016,91,3,20140829180000
1197,"Tie montian, Huangshi",,30.203885,114.906439,157,78,13,8,1,14,26,,1016,91,3,20140829180000
1198,"BDA, Huangshi",,30.207491,115.031739,153,69,20,23,6,20,26,,1016,91,3,20140829180000
636,Shiyan,,32.627208,110.803311,134,62,8,24,7,6,20,,948,99,1,20140829180000
636,Shiyan,,32.627208,110.803311,134,62,8,24,7,6,20,,948,99,1,20140829180000
1199,"Wudang Mountain , Shiyan",,32.392921,111.047655,59,18,22,1,3,7,20,,947,99,1,20140829180000
1200,"Riverside Village , Shiyan",,32.647286,110.785335,117,61,8,12,2,5,20,,948,97,1,20140829180000
1201,"Liujiagou , Shiyan",,32.636732,110.731129,132,62,6,24,1,6,20,,948,97,1,20140829180000
1202,"Yunyang County District automatic air station , Shiyan",,32.833065,110.816809,-,-,-,-,-,-,-,,0,-,-,20140829180000
637,Xiangyang,,32.007029,112.128496,117,64,16,5,4,9,22,,1015,98,3,20140829180000
637,Xiangyang,,32.007029,112.128496,117,64,16,5,4,9,22,,1015,98,3,20140829180000
638,Ezhou,,30.389244,114.899884,142,69,14,22,11,25,24,23,1022,96,1,20140829180000
638,Ezhou,,30.389244,114.899884,142,69,14,22,11,25,24,23,1022,96,1,20140829180000
1203,"City government, Ezhou",,30.391836,114.892822,107,55,12,20,11,13,24,,1022,96,1,20140829180000
1204,"Zhaojiaba, Ezhou",,30.368966,114.90365,142,69,8,18,6,18,24,,1022,96,1,20140829180000
1205,"Fankou BDA, Ezhou",,30.410759,114.818225,119,54,14,22,7,25,24,,1022,96,1,20140829180000
639,Jingmen,,31.033208,112.205093,1,-,27,-,-,8,-,22,0,-,-,20140829180000
639,Jingmen,,31.033208,112.205093,1,-,27,-,-,8,-,22,0,-,-,20140829180000
640,Xiaogan,,30.922089,113.922387,80,48,12,15,1,15,24,23,1013,94,2,20140829180000
640,Xiaogan,,30.922089,113.922387,80,48,12,15,1,15,24,23,1013,94,2,20140829180000
1206,"wenhua street, Shenyang , Xiaogan",,30.925856,113.92104,65,48,11,15,1,15,24,23,1013,94,2,20140829180000
1207,"Dongcheng District , Huludao , Xiaogan",,30.917963,113.943904,80,44,12,1,-,4,24,23,1013,94,2,20140829180000
641,Huanggang,,30.45124,114.877378,109,46,25,8,5,18,24,23,1022,96,1,20140829180000
641,Huanggang,,30.45124,114.877378,109,46,25,8,5,18,24,23,1022,96,1,20140829180000
1208,"Dazhou Island, Huanggang",,30.446205,114.900323,-,-,-,-,-,-,-,,0,-,-,20140829180000
1209,"Workers Center , Huanggang",,30.469244,114.912504,109,46,25,8,5,18,24,,1022,96,1,20140829180000
642,Xianning,,29.838978,114.327898,102,54,32,10,7,13,24,23,988,98,1,20140829180000
642,Xianning,,29.838978,114.327898,102,54,32,10,7,13,24,23,988,98,1,20140829180000
1210,"Municipal Development and Reform Commission , Xianning",,29.818645,114.328461,72,34,27,8,1,12,24,,988,98,1,20140829180000
1211,"Xianan District Governement, Xianning",,29.51107,114.181864,55,37,16,8,6,15,24,,997,96,1,20140829180000
1212,"Yangtze River Industrial Park , Xianning",,29.883098,114.32909,102,54,32,10,7,13,24,,988,98,1,20140829180000
1213,"Qianshan Park, Xianning",,29.815351,114.328689,65,36,23,9,1,13,24,,988,98,1,20140829180000
644,Enshi,,30.292138,109.484562,122,-,47,-,-,29,-,21,0,-,-,20140829180000
644,Enshi,,30.269587,109.493042,122,-,47,-,-,29,-,21,0,-,-,20140829180000
645,Xiantao,,30.360228,113.460616,99,-,19,-,-,11,-,24,0,-,-,20140829180000
645,Xiantao,,30.360228,113.460616,99,-,19,-,-,11,-,24,0,-,-,20140829180000
646,Qianjiang,,30.399387,112.905661,1,-,27,-,-,8,-,22,0,-,-,20140829180000
646,Qianjiang,,30.399387,112.905661,1,-,27,-,-,8,-,22,0,-,-,20140829180000
647,Tianmen,,30.661027,113.172549,99,-,19,-,-,11,-,22,0,-,-,20140829180000
647,Tianmen,,30.661027,113.172549,99,-,19,-,-,11,-,22,0,-,-,20140829180000
1088,Shennongjia,,31.741307,110.685554,109,-,13,-,-,6,-,21,0,-,-,20140829180000
1088,Shennongjia,,31.741307,110.685554,109,-,13,-,-,6,-,21,0,-,-,20140829180000
1214,"Xiangcheng Yundong Street, Xiangfan",,32.017716,112.16102,117,64,16,5,4,9,22,,1014,93,2,20140829180000
655,"City Environmental Monitoring Station, Baotou",,40.657201,109.886738,167,88,26,34,12,11,,,,,,20140829190000
656,"Donghe EPB, Baotou",,40.586213,110.002224,163,99,31,35,9,14,,,,,,20140829190000
657,"Baotou shopping mall, Baotou",,40.508334,109.819085,162,108,21,36,21,17,,,,,,20140829190000
658,"Huilong logistics, Baotou",,40.633436,109.879821,154,105,33,37,9,9,,,,,,20140829190000
659,Baotou,,40.658597,109.846051,167,108,32,38,21,17,20,14,1011,63,2,20140829190000
660,"Huatai Automobile Mall, Eerduosi",,39.837048,109.972209,112,53,43,15,2,6,20,14,1011,63,2,20140829190000
661,"Olympus Garden, Eerduosi",,39.789171,109.987742,127,69,111,12,9,7,20,14,1011,63,2,20140829190000
662,Eerduosi,,39.609284,109.78704,127,74,133,23,32,11,20,14,1011,63,2,20140829190000
663,"Tianyi Road, Chifeng",,42.275552,118.88507,151,69,86,12,26,5,16,12,1017,73,1,20140829190000
664,"Songshan No.1 Middle School, Chifeng",,42.329307,118.793045,155,87,48,12,27,8,16,12,1017,73,1,20140829190000
665,"Hada Street, Chifeng",,42.280714,118.988235,165,91,27,12,50,11,16,12,1017,73,1,20140829190000
666,"Songshan Road, Chifeng",,42.171487,118.89501,132,67,81,6,18,8,16,12,1017,73,1,20140829190000
667,Chifeng,,42.259752,118.893027,165,91,86,12,50,11,16,12,1017,73,1,20140829190000
674,Fuzhou,,26.071406,119.301294,74,58,76,13,3,5,27,25,1012,89,1,20140829190000
675,"Xidong, Xiamen",,24.815345,118.161848,132,54,84,12,2,5,29,26,1012,84,1,20140829190000
676,"Hongwen, Xiamen",,24.473969,118.156281,53,15,81,8,4,8,29,26,1012,84,1,20140829190000
677,"Gulangyu, Xiamen",,24.443168,118.068571,82,52,83,27,12,5,29,26,1012,84,1,20140829190000
678,"Huli, Xiamen",,24.51235,118.099146,42,18,111,29,5,5,29,26,1012,84,1,20140829190000
679,Xiamen,,24.477187,118.094402,82,52,111,29,12,5,29,26,1012,84,1,20140829190000
680,"Qingyuan Montain, Quanzhou",,24.939503,118.598337,82,32,38,8,6,6,29,26,1012,84,1,20140829190000
681,"Tushan Street, Quanzhou",,24.90867,118.586397,109,92,17,10,5,5,29,26,1012,84,1,20140829190000
682,"Wanan, Quanzhou",,24.304154,118.070903,61,30,81,2,4,5,29,26,1012,84,1,20140829190000
683,Quanzhou,,24.87179,118.68001,109,92,38,10,6,6,29,26,1012,84,1,20140829190000
687,"Jiancaoping, Taiyuan",,37.887889,112.528383,152,68,25,14,6,9,20,17,1017,83,4,20140829190000
688,"Jianhe, Taiyuan",,37.910779,112.579258,158,77,21,16,5,8,20,17,1017,83,4,20140829190000
689,"Shanglan, Taiyuan",,38.011589,112.440679,151,70,23,25,6,6,20,17,1017,83,4,20140829190000
690,"Jinyuan, Taiyuan",,37.713164,112.475552,122,60,25,4,8,9,20,17,1017,83,4,20140829190000
691,"Xiaodian, Taiyuan",,37.782137,112.483533,153,65,15,6,24,8,20,17,1017,83,4,20140829190000
692,"Taoyuan, Taiyuan",,37.869752,112.543332,166,84,19,19,7,12,20,17,1017,83,4,20140829190000
693,"Wucheng, Taiyuan",,37.819998,112.576252,153,77,23,12,4,10,20,17,1017,83,4,20140829190000
694,"Nanzhai, Taiyuan",,37.985902,112.555312,152,88,24,9,5,14,20,17,1017,83,4,20140829190000
695,"Jinsheng, Taiyuan",,37.781205,112.494494,160,64,31,13,9,10,20,17,1017,83,4,20140829190000
696,Taiyuan,,37.871115,112.555178,166,84,25,19,7,12,20,17,1017,83,4,20140829190000
697,"Monitoring station, Changzhi",,36.194062,113.10389,114,65,20,22,22,9,21,20,1015,94,2,20140829190000
698,"Auditing bureau, Changzhi",,36.212787,113.095221,129,51,25,32,7,11,21,20,1015,94,2,20140829190000
699,"Qinghua station, Changzhi",,36.154328,113.116385,91,56,17,22,10,12,21,20,1016,94,1,20140829190000
700,"No.8 middle school, Changzhi",,36.185451,113.099481,91,51,19,24,23,17,,,,,,20140829190000
701,Changzhi,,36.195553,113.12292,129,65,29,32,23,17,23,14,1014,48,2,20140829190000
702,"Yungang Hotel, Datong",,40.076997,113.278079,107,55,35,6,7,8,17,13,1014,80,3,20140829190000
703,"college of education, Datong",,40.085608,113.27808,161,45,29,10,11,14,17,13,1014,80,3,20140829190000
704,Datong,,40.078016,113.307143,161,55,35,10,11,14,17,13,1014,80,3,20140829190000
705,"Technical Schools, Linfen",,36.07131,111.509046,78,48,34,10,9,26,16,10,0,67,3,20140829190000
706,"Municipal party committee, Linfen",,36.087425,111.508771,61,46,21,1,9,17,16,10,0,67,3,20140829190000
1073,"City Monitoring Station, Linfen",,36.097676,111.518739,89,54,21,11,9,15,16,10,0,67,3,20140829190000
707,"South Airport, Linfen",,36.041614,111.497968,63,26,12,8,4,17,16,10,0,67,3,20140829190000
708,Linfen,,36.087944,111.525098,89,54,34,12,9,26,16,10,0,67,3,20140829190000
709,"City center, Yangquan",,37.848012,113.578636,190,136,46,-,-,11,21,16,1017,73,3,20140829190000
710,Yangquan,,37.857475,113.586921,173,153,31,15,25,18,20,17,1017,83,4,20140829190000
711,"Water Company, Jincheng",,35.504787,112.857245,93,63,32,6,1,7,23,14,1014,48,2,20140829190000
712,"Baiyun shopping mall, Jincheng",,35.492858,112.841566,68,63,15,1,8,7,23,14,1014,48,2,20140829190000
713,"City EPA, Jincheng",,35.488422,112.858528,68,47,0,15,4,0,23,14,1014,48,2,20140829190000
714,"Institute of Technology, Jincheng",,35.484844,112.878073,124,73,33,8,5,6,23,14,1014,48,2,20140829190000
715,"No.1 middle school, Jincheng",,35.478725,112.838636,78,50,14,9,2,3,23,14,1014,48,2,20140829190000
716,Jincheng,,35.490287,112.85794,124,73,33,15,8,7,23,14,1014,48,2,20140829190000
718,"District Government, Shuozhou",,39.320857,112.430641,157,66,39,12,11,15,23,17,1013,58,3,20140829190000
719,"City EPA, Shuozhou",,39.331495,112.407997,158,63,38,10,10,15,23,17,1013,58,3,20140829190000
720,"No.2 middle school, Shuozhou",,39.377963,112.432877,162,57,37,11,16,7,23,17,1013,58,3,20140829190000
721,Shuozhou,,39.332756,112.439672,165,74,38,11,30,15,23,17,1013,58,3,20140829190000
722,"Jinlun compound, Jinzhong",,37.697891,112.771017,165,80,18,6,3,5,20,17,1017,83,4,20140829190000
723,"Hydraulic Component Factory, Jinzhong",,37.688355,112.725844,167,86,27,15,7,10,20,17,1017,83,4,20140829190000
724,"Nandu compound, Jinzhong",,37.713148,112.732036,162,79,8,8,4,9,20,17,1017,83,4,20140829190000
725,"Yuci district government, Jinzhong",,37.698228,112.714167,158,92,7,8,9,9,20,17,1017,83,4,20140829190000
726,Jinzhong,,37.687705,112.759187,167,92,27,15,9,10,20,17,1017,83,4,20140829190000
727,"Yuncheng Middle School, Yuncheng",,35.012345,111.003215,109,63,82,7,50,15,24,16,1012,52,6,20140829190000
728,"Yudou BDA, Yuncheng",,35.05065,111.029571,-,-,-,-,-,-,-,-,0,-,-,20140829190000
730,"Regional Technical School, Yuncheng",,35.028727,110.974076,151,57,68,2,15,18,24,16,1012,52,6,20140829190000
731,"Airport new district, Yuncheng",,35.084515,111.05339,104,63,40,5,24,17,24,16,1012,52,6,20140829190000
732,Yuncheng,,35.025675,111.013344,151,63,82,7,50,18,24,16,1012,52,6,20140829190000
733,"Jiyin, Xinzhou",,38.413292,112.742432,176,113,18,2,11,16,20,17,1017,83,4,20140829190000
734,"BDA, Xinzhou",,38.450069,112.736723,170,84,0,2,36,0,20,17,1017,83,4,20140829190000
735,"Convention Center, Xinzhou",,38.492043,112.709772,179,89,13,7,23,17,20,17,1017,83,4,20140829190000
736,Xinzhou,,38.417244,112.740742,179,113,18,7,36,17,20,17,1017,83,4,20140829190000
737,"City EPA, Luliang",,37.522189,111.144365,157,91,8,27,18,15,15,14,0,95,0,20140829190000
738,"Soybean factory, Luliang",,37.51689,111.135101,157,88,9,26,3,17,15,14,0,95,0,20140829190000
739,"Water Company, Luliang",,37.53394,111.138834,142,97,11,21,11,15,15,14,0,95,0,20140829190000
740,Luliang,,25.027007,103.668566,157,97,11,27,18,17,15,14,0,95,0,20140829190000
741,"City government, Sanmenxia",,34.776251,111.198781,124,72,41,20,17,6,25,16,1012,47,5,20140829190000
743,"BDA, Sanmenxia",,34.800434,111.204332,159,72,39,14,16,7,25,16,1012,47,5,20140829190000
744,Sanmenxia,,34.771506,111.206129,159,73,42,20,17,13,30,14,1009,29,6,20140829190000
745,"Food Factory, Changchun",,43.919094,125.329521,99,37,40,6,3,9,21,15,1017,68,3,20140829190000
746,"Bus Factory, Changchun",,43.912337,125.293431,85,48,26,8,3,8,21,15,1017,68,3,20140829190000
747,"Institute of Posts and Telecommunications, Changchun",,43.842368,125.285005,99,47,8,26,3,10,21,15,1017,68,3,20140829190000
748,"Laodong Park, Changchun",,43.877293,125.371519,97,44,24,14,6,11,21,15,1017,68,3,20140829190000
749,"Forest area, Changchun",,43.871825,125.331519,104,86,28,10,3,8,21,15,1017,68,3,20140829190000
750,"Jinyuetan, Changchun",,43.79031,125.460561,93,34,24,7,1,7,21,15,1017,68,3,20140829190000
751,"Shuaiwanzi, Changchun",,43.552321,125.639086,149,68,23,8,1,8,21,15,1017,68,3,20140829190000
752,"Economic Development Zone Sanitation Department, Changchun",,43.869221,125.42365,104,34,23,7,4,8,21,15,1017,68,3,20140829190000
753,"High-tech Zone Administrative Committee, Changchun",,43.819064,125.256375,82,38,17,10,2,7,21,15,1017,68,3,20140829190000
754,"Daishan Park, Changchun",,43.852365,125.223399,91,30,28,8,2,6,21,15,1017,68,3,20140829190000
755,Changchun,,43.819415,125.329977,99,47,24,26,6,11,21,15,1017,68,3,20140829190000
756,"Hadawan, Jilin",,43.888081,126.545727,144,88,13,35,4,10,15,14,0,92,1,20140829190000
757,"Fengman, Jilin",,43.768169,126.678802,99,44,31,3,2,9,15,14,0,92,1,20140829190000
758,"Electric Power College, Jilin",,43.827403,126.502281,129,70,32,22,3,10,15,14,0,92,1,20140829190000
759,"Jiangnan Park, Jilin",,43.83531,126.556519,119,66,21,17,4,9,15,14,0,92,1,20140829190000
760,"Dongjuzi, Jilin",,43.838597,126.590068,95,66,22,25,2,9,15,14,0,92,1,20140829190000
763,Jilin,,43.840137,126.555262,144,88,42,35,4,10,15,14,0,92,1,20140829190000
764,"Lingbei, Haerbin",,45.756979,126.548008,80,28,49,9,6,6,20,18,1015,88,3,20140829190000
765,"Songbei Commercial University, Haerbin",,45.818624,126.566963,85,48,3,12,5,4,20,18,1015,88,3,20140829190000
766,"Acheng huining, Haerbin",,45.544286,126.985183,70,42,42,9,6,5,20,18,1015,88,3,20140829190000
767,"Nangang College Street, Haerbin",,45.724121,126.604906,144,63,79,14,5,7,20,18,1015,88,3,20140829190000
768,"Taiping Hongwei Park, Haerbin",,45.775332,126.695101,157,53,57,24,4,6,20,18,1015,88,3,20140829190000
769,"Daowai Chengde Square, Haerbin",,45.768637,126.640955,85,61,-,14,4,6,20,18,1015,88,3,20140829190000
770,"Xiangfang Hongqi Street, Haerbin",,45.733936,126.691083,78,33,65,15,2,8,20,18,1015,88,3,20140829190000
771,"Dongli Heping Road, Haerbin",,45.727765,126.651974,151,71,47,22,5,5,20,18,1015,88,3,20140829190000
772,"Daoli Jianguo Road, Haerbin",,45.749715,126.59891,82,28,72,21,6,8,20,18,1015,88,3,20140829190000
773,"Pingfang Light Factory, Haerbin",,45.611951,126.620898,74,46,56,10,3,4,20,18,1015,88,3,20140829190000
774,"Hulan Normal College, Haerbin",,45.983745,126.616553,74,25,45,6,-,6,20,18,1015,88,3,20140829190000
775,"Provincial Academy of Agricultural Sciences, Haerbin",,45.686141,126.626517,74,36,46,-,3,5,20,18,1015,88,3,20140829190000
776,Haerbin,,45.805757,126.541007,85,48,49,12,6,6,20,18,1015,88,3,20140829190000
777,"Anju Compound, Qiqihaer",,47.365672,123.937016,104,75,49,20,1,7,18,18,1016,99,0,20140829190000
778,"Farming Vehicule Factory, Qiqihaer",,47.326793,123.961427,158,58,50,22,2,9,18,18,1016,99,0,20140829190000
779,"Fuqu EPA, Qiqihaer",,47.1853,123.62322,99,49,49,8,3,8,18,18,1016,99,0,20140829190000
780,"City Center Square, Qiqihaer",,47.343096,123.96192,102,46,35,21,1,7,18,18,1016,99,0,20140829190000
1217,"City Environmental Monitoring Station, Qiqihaer",,47.303639,123.957551,124,67,45,12,4,8,18,18,1016,99,0,20140829190000
781,Qiqihaer,,47.356387,123.924736,158,75,50,22,4,9,18,18,1016,99,0,20140829190000
782,"Saertu District, Daqing",,46.582368,125.152904,55,22,34,7,3,2,22,18,1015,77,1,20140829190000
783,"Datong District, Daqing",,46.036786,124.842115,89,44,73,3,5,6,22,18,1015,77,1,20140829190000
784,"Honggang District, Daqing",,46.418381,124.88973,99,32,59,8,5,4,22,18,1015,77,1,20140829190000
785,"Longfeng District, Daqing",,46.535426,125.107043,74,29,41,8,5,5,22,18,1015,77,1,20140829190000
786,"Ranghulu District, Daqing",,46.635123,124.85648,78,39,84,12,7,4,22,18,1015,77,1,20140829190000
787,Daqing,,46.591414,125.110838,99,39,84,12,7,6,22,18,1015,77,1,20140829190000
788,"Locomotive Factory, Mudanjiang",,44.610589,129.652672,149,52,64,12,5,5,17,15,1016,87,2,20140829190000
789,"No. 1 hospital, Mudanjiang",,44.567775,129.617043,76,35,42,9,1,4,17,15,1016,87,2,20140829190000
1220,"EPA building, Mudanjiang",,44.567777,129.620658,89,55,7,12,6,4,17,15,1016,87,2,20140829190000
1221,"Cultural Square, Mudanjiang",,44.586388,129.623164,93,47,3,20,14,9,17,15,1016,87,2,20140829190000
790,Mudanjiang,,44.553619,129.640246,149,55,64,20,14,9,17,15,1016,87,2,20140829190000
791,"Mingzhu Plaza, Hefei",,31.782847,117.201512,134,61,44,10,2,19,22,21,1015,94,2,20140829190000
792,"Sanli Street, Hefei",,31.874637,117.312573,80,50,34,28,4,9,22,21,1015,94,2,20140829190000
793,"Hupo Compound, Hefei",,31.868583,117.264491,114,45,27,10,7,8,22,21,1015,94,2,20140829190000
794,"Dongpu Reservoir, Hefei",,31.90319,117.165584,132,68,35,15,2,5,22,21,1015,94,2,20140829190000
795,"Changjiang middle road, Hefei",,31.855185,117.255484,104,49,7,14,3,20,22,21,1015,94,2,20140829190000
796,"Luyang District, Hefei",,31.941771,117.271504,155,65,7,1,15,8,22,21,1015,94,2,20140829190000
797,"Yaohai District, Hefei",,31.856595,117.341644,156,86,20,5,6,8,22,21,1015,94,2,20140829190000
798,"Baohe District, Hefei",,31.793644,117.307554,154,87,4,1,1,17,22,21,1015,94,2,20140829190000
799,"Lake district, Hefei",,31.736619,117.283501,89,42,32,14,5,7,22,21,1015,94,2,20140829190000
800,"High-tech zone, Hefei",,31.849755,117.129624,109,63,19,13,5,6,22,21,1015,94,2,20140829190000
801,Hefei,,31.819449,117.232753,134,61,44,14,3,20,22,21,1015,94,2,20140829190000
802,"Hudong Road No.4 Elementary School, Maanshan",,31.684121,118.511017,109,56,39,12,2,14,21,21,1014,100,1,20140829190000
803,"Tianping Garment Factory, Maanshan",,31.64197,118.488043,124,54,40,22,4,9,21,21,1014,100,1,20140829190000
804,"City education base, Maanshan",,31.711216,118.648913,74,33,11,3,2,4,21,21,1014,100,1,20140829190000
805,"Cihu No.2 elementary school, Maanshan",,31.748546,118.515729,93,70,22,5,3,12,21,21,1014,100,1,20140829190000
806,"Maanshan steel factory power plant, Maanshan",,31.690864,118.48528,151,71,11,1,4,14,21,21,1014,100,1,20140829190000
807,Maanshan,,31.668461,118.511939,151,71,40,22,4,14,21,21,1014,100,1,20140829190000
808,"Science Innovation Center, Wuhu",,31.417056,118.375406,142,61,5,14,2,13,21,21,1014,100,1,20140829190000
809,"No.4 Water Plant, Wuhu",,31.315914,118.376231,149,61,15,20,6,8,21,21,1014,100,1,20140829190000
810,"Monitoring station, Wuhu",,31.348955,118.358154,137,74,26,14,14,10,21,21,1014,100,1,20140829190000
811,"Wuqierling Factory, Wuhu",,31.382068,118.407639,129,60,17,14,2,9,21,21,1014,100,1,20140829190000
812,Wuhu,,31.351007,118.438322,149,74,26,20,14,13,21,21,1014,100,1,20140829190000
1331,Chuzhou,,32.299549,118.322508,-,-,-,-,-,-,-,20,0,-,-,20140829190000
813,"Jiangxi Foreign Affairs Office, Nanchang",,28.678027,115.903436,38,35,9,11,6,5,25,24,1013,86,1,20140829190000
814,"Provincial forestry company, Nanchang",,28.69065,115.898546,70,33,8,7,1,4,25,24,1013,86,1,20140829190000
815,"Institute of Forestry, Nanchang",,28.731518,115.82478,42,32,14,1,1,10,25,24,1013,86,1,20140829190000
816,"Jingdong town government, Nanchang",,28.680659,115.972736,50,66,12,1,1,5,25,24,1013,86,1,20140829190000
817,"Contruction Industry College, Nanchang",,28.684018,115.865891,57,20,10,17,10,7,25,24,1013,86,1,20140829190000
818,"Xianghu, Nanchang",,28.637831,115.9033,76,40,6,18,8,9,25,24,1013,86,1,20140829190000
819,"Martial Arts School, Nanchang",,28.794538,115.752876,25,7,8,3,4,3,25,24,1013,86,1,20140829190000
820,"Petrifaction Company, Nanchang",,28.608634,115.912999,38,54,7,5,1,18,25,24,1013,86,1,20140829190000
821,"Provincial Station, Nanchang",,28.677155,115.941896,30,22,9,3,1,5,25,24,1013,86,1,20140829190000
822,Nanchang,,28.679883,115.863022,76,54,14,18,10,18,25,24,1013,86,1,20140829190000
823,"Lushan Mountain Observatory, Jiujiang",,29.5751,115.998926,53,12,26,1,1,2,24,23,1016,95,2,20140829190000
824,"Shili, Jiujiang",,29.668119,115.992381,124,45,15,8,8,8,24,23,1016,95,2,20140829190000
825,"Maoshantou, Jiujiang",,29.700819,115.967192,119,50,15,6,3,11,24,23,1016,95,2,20140829190000
826,"Xiyuan, Jiujiang",,29.723929,115.998206,99,55,15,6,2,7,24,23,1016,95,2,20140829190000
827,"Wuqierling Factory, Jiujiang",,29.640802,116.022713,95,45,16,6,19,5,24,23,1016,95,2,20140829190000
828,"Water Scientific Research Institute, Jiujiang",,29.679179,116.068081,102,40,14,4,4,6,24,23,1016,95,2,20140829190000
829,"Zonghe Industrial Park, Jiujiang",,29.592047,115.916335,119,36,12,13,7,4,24,23,1016,95,2,20140829190000
830,"Petrochemical General Plant, Jiujiang",,29.738832,116.09463,102,38,17,11,2,8,24,23,1016,95,2,20140829190000
831,Jiujiang,,29.70254,116.007025,124,50,15,8,8,11,24,23,1016,95,2,20140829190000
1332,"Feiyu, Xinyu",,27.844697,115.000136,46,23,17,9,7,,30,,1013,66,1,20140829190000
1333,"Beigang, Xinyu",,27.932491,115.103767,42,14,16,1,1,,30,,1013,66,1,20140829190000
1334,"No.2 water factory, Xinyu",,27.839577,114.933915,70,51,7,7,8,,30,,1013,66,1,20140829190000
1335,"Bureau of Meteorology, Xinyu",,27.81048,114.936507,193,45,0,3,23,,30,,1013,66,1,20140829190000
1336,Xinyu,,27.814351,114.922194,193,54,17,11,23,18,30,24,1013,66,1,20140829190000
832,"Tobacco Factory, Zhengzhou",,34.753419,113.687131,82,33,25,9,4,10,21,20,1015,94,2,20140829190000
833,"Textile Machinery Factory, Zhengzhou",,34.773366,113.647067,89,56,9,11,8,11,21,20,1015,94,2,20140829190000
834,"Banking College, Zhengzhou",,34.800856,113.681126,72,51,24,16,10,7,21,20,1015,94,2,20140829190000
835,"Water Supply Company, Zhengzhou",,34.807188,113.571089,104,61,17,16,12,13,21,20,1015,94,2,20140829190000
836,"Economic Development Zone Management Committee, Zhengzhou",,34.717652,113.733182,97,52,16,17,7,6,21,20,1015,94,2,20140829190000
837,"No. 47 middle school, Zhengzhou",,34.772211,113.74009,55,49,18,17,7,6,21,20,1015,94,2,20140829190000
838,"City Monitoring Station, Zhengzhou",,34.748404,113.60514,87,48,22,21,4,9,21,20,1015,94,2,20140829190000
839,"Henan Medical University, Zhengzhou",,34.752637,113.641658,107,57,16,17,9,10,21,20,1015,94,2,20140829190000
840,"Gangli Reservoir, Zhengzhou",,34.952652,113.64248,95,40,15,11,13,9,21,20,1015,94,2,20140829190000
841,Zhengzhou,,34.745417,113.631415,107,57,22,21,9,10,21,20,1015,94,2,20140829190000
842,"Henan University No.1 Hospital, Kaifeng",,34.799302,114.352706,104,58,36,8,6,6,21,20,1015,94,2,20140829190000
843,"Maternity And Child Hospital, Kaifeng",,34.795803,114.386103,91,52,24,8,5,8,21,20,1015,94,2,20140829190000
844,"Cancer Hospital, Kaifeng",,34.775428,114.350292,114,69,12,20,14,8,21,20,1015,94,2,20140829190000
845,"Yellow River Conservancy Institute, Kaifeng",,34.826066,114.324772,107,49,17,9,22,24,21,20,1015,94,2,20140829190000
846,"Shijixing Kindergarden, Kaifeng",,34.793606,114.302744,93,51,23,4,7,6,21,20,1015,94,2,20140829190000
847,Kaifeng,,34.796346,114.313426,114,69,36,20,14,8,21,20,1015,94,2,20140829190000
852,Jiaozuo,,35.215381,113.248188,99,58,42,17,10,7,21,20,1015,94,2,20140829190000
853,"Cotton Research Institute, Anyang",,36.081435,114.486451,87,61,25,10,6,6,21,14,1014,66,2,20140829190000
854,"Hongmiao Street, Anyang",,36.086733,114.326,163,88,26,31,13,12,21,14,1014,66,2,20140829190000
855,"Yinxing Compound, Anyang",,36.056519,114.36495,160,86,23,29,9,9,21,14,1014,66,2,20140829190000
856,"Tiefo Temple, Anyang",,36.110041,114.309309,151,90,18,37,9,12,21,14,1014,66,2,20140829190000
857,Anyang,,36.097767,114.398846,163,90,35,41,13,12,21,14,1014,66,2,20140829190000
858,"City Monitoring Station, Luoyang",,34.669055,112.439633,112,47,31,12,23,9,26,,1015,57,3,20140829190000
859,"BDA Management Committee, Luoyang",,34.622084,112.390759,53,39,34,9,7,14,22,,1014,85,5,20140829190000
860,"New municipal office, Luoyang",,34.623745,112.432973,87,50,33,10,7,19,26,,1015,57,3,20140829190000
861,"City committee communist party school, Luoyang",,34.650169,112.400212,65,49,40,21,11,7,22,,1014,85,5,20140829190000
862,"Henan Forestry College, Luoyang",,34.685566,112.509429,102,57,28,19,33,16,22,,1014,85,5,20140829190000
