locationid,stationname,chinesename,latitude,longitude,pm25,pm10,o3,no2,so2,co,temperature,dewpoint,pressure,humidity,wind,est_time
1,Dongcheng Dongsi,,39.9304,116.423239,167,108,32,11,2,17,-,-,0,-,-,20140830170000
2,"Temple of Heaven, Dongcheng",,39.887403,116.41324,174,103,26,12,2,15,-,-,0,-,-,20140830170000
3,West Park officials,,39.930333,116.345162,179,104,25,18,2,17,-,-,0,-,-,20140830170000
4,West Wanshou Nishinomiya,,39.879354,116.358183,171,140,23,15,2,16,-,-,0,-,-,20140830170000
5,Chaoyang Olympic Sports Center,,39.983406,116.403253,168,93,26,13,2,15,-,-,0,-,-,20140830170000
6,Chaoyang Agricultural Exhibition Hall,,39.938331,116.46715,162,119,33,10,2,15,-,-,0,-,-,20140830170000
7,Haidian Wanliu,,39.988245,116.293062,176,112,10,20,4,14,-,-,0,-,-,20140830170000
8,The Haidian northern New Area,,40.091313,116.180194,95,-,16,10,4,15,-,-,0,-,-,20140830170000
9,Haidian Beijing Botanical Garden,,40.003252,116.213097,158,-,25,5,2,15,-,-,0,-,-,20140830170000
10,Fengtai garden,,39.86423,116.285037,159,115,32,11,2,14,-,-,0,-,-,20140830170000
11,Fengtai Yungang,,39.82535,116.152237,174,-,31,10,2,14,-,-,0,-,-,20140830170000
12,Shijingshan city,,39.915286,116.190144,187,102,14,25,2,17,-,-,0,-,-,20140830170000
13,"Fangshan, Liangxiang",,39.743357,116.14225,174,103,31,24,2,14,-,-,0,-,-,20140830170000
14,"Huangcunzhen, Daxing",,39.719389,116.410219,186,-,42,30,4,11,-,-,0,-,-,20140830170000
15,BDA,,39.796197,116.51197,185,-,36,23,2,11,-,-,0,-,-,20140830170000
16,Tongzhou New Town,,39.887113,116.6689,188,-,31,1,2,8,-,-,0,-,-,20140830170000
17,Shunyi New Town ,,40.128111,116.660908,184,80,35,13,2,11,-,-,0,-,-,20140830170000
18,Changping Town,,40.218245,116.236084,64,97,32,5,2,15,-,-,0,-,-,20140830170000
19,"Mentougou, Longquan Town",,39.938397,116.112323,41,80,22,6,2,13,-,-,0,-,-,20140830170000
20,Pinggu town,,40.144433,117.106563,166,-,47,5,2,8,-,-,0,-,-,20140830170000
21,Huairou town,,40.329104,116.63387,170,73,32,3,2,10,-,-,0,-,-,20140830170000
22,The town of Miyun,,40.371186,116.838053,167,-,34,6,2,12,-,-,0,-,-,20140830170000
23,Yanqing town,,40.454217,115.978106,56,-,34,2,2,10,-,-,0,-,-,20140830170000
24,Changping Dingling,,40.293269,116.226108,66,90,29,4,2,14,-,-,0,-,-,20140830170000
25,Badaling Northwest,,40.36623,115.994146,58,-,31,4,2,13,-,-,0,-,-,20140830170000
26,Miyun Reservoir,,40.500157,116.91701,170,-,51,1,3,12,-,-,0,-,-,20140830170000
27,"Donggaocun Zhen, Pinggu",,40.10142,117.126556,159,-,45,10,4,7,-,-,0,-,-,20140830170000
28,"Yongledianzhen, Tongzhou",,39.713192,116.78905,185,-,22,14,5,9,-,-,0,-,-,20140830170000
29,"Yufazhen, Daxing",,39.521203,116.306026,165,-,20,1,2,8,-,-,0,-,-,20140830170000
30,"Liulihezhen, Fangshan",,39.581169,116.006089,188,123,21,17,2,11,-,-,0,-,-,20140830170000
31,"Qianmen E St, Dongcheng",,39.900402,116.401242,176,-,18,21,2,16,-,-,0,-,-,20140830170000
32,Yongdingmen Inner St,,39.877401,116.400238,175,-,7,24,3,16,-,-,0,-,-,20140830170000
33,Xizhimen N St,,39.955352,116.355187,179,100,20,31,6,17,-,-,0,-,-,20140830170000
34,South Ring Road,,39.857377,116.37421,169,155,12,44,3,17,-,-,0,-,-,20140830170000
35,East Fourth Ring Road,,39.940273,116.489075,169,91,15,38,5,15,-,-,0,-,-,20140830170000
36,Beijing,,39.955906,116.474246,174,119,32,11,2,17,-,-,0,-,-,20140830170000
37,Putuo,,31.232979,121.415378,68,22,21,21,7,3,-,-,0,-,-,20140830170000
38,Yangpu Sipiao,,31.263795,121.540311,78,30,28,6,4,1,-,-,0,-,-,20140830170000
39,Shanghai Normal College Primary Division,,31.199031,121.487719,60,17,27,11,3,6,-,-,0,-,-,20140830170000
40,Dianshan Lake,,31.091338,120.982293,86,46,30,17,4,6,-,-,0,-,-,20140830170000
41,Hongkou Liangcheng,,31.298906,121.47155,60,17,26,16,8,5,-,-,0,-,-,20140830170000
42,Jingan,,31.224251,121.429637,73,27,23,15,5,6,-,-,0,-,-,20140830170000
43,Shanghai Normal University,,31.163531,121.416643,64,23,26,15,4,6,-,-,0,-,-,20140830170000
44,Chuansha,,31.188626,121.707342,18,27,30,7,5,4,-,-,0,-,-,20140830170000
45,Zhangjiang,,31.204896,121.581215,38,20,31,11,2,4,-,-,0,-,-,20140830170000
46,Lingshan Road,,31.226286,121.537317,63,22,31,10,2,4,-,-,0,-,-,20140830170000
1080,City average,,31.228451,121.478227,60,23,27,12,4,4,-,-,0,-,-,20140830170000
47,Shanghai,,31.202842,121.453493,73,27,27,15,5,6,-,-,0,-,-,20140830170000
48,Guangzhou,,23.138517,113.263701,91,43,37,28,17,8,30,25,1012,74,3,20140830170000
49,"Huadu town, Guangzhou",,23.389121,113.220062,104,56,38,25,14,6,-,-,0,-,-,20140830170000
50,"Luogang Zhenlong, Guangzhou",,23.308027,113.567032,119,60,32,32,5,6,-,-,0,-,-,20140830170000
51,"LuHu, Guangzhou",,23.151743,113.281842,91,33,37,26,9,3,-,-,0,-,-,20140830170000
52,"Tianhu, Guangzhou",,23.647433,113.629715,74,30,65,3,4,5,-,-,0,-,-,20140830170000
53,"Zhudong, Guangzhou",,23.418406,113.078552,157,68,43,19,7,6,-,-,0,-,-,20140830170000
54,"Modiesha station, Guangzhou",,23.103814,113.338238,61,51,37,23,10,5,30,25,1012,74,3,20140830170000
55,Zhuhai,,22.2677,113.581765,68,37,27,14,5,7,30,25,1012,74,2,20140830170000
1075,"Huicai technical school, Foshan",,23.039667,113.105492,70,31,33,15,3,7,31,25,1012,70,3,20140830170000
56,"Sanshuiyun donghai, Foshan",,23.185788,112.865368,89,31,56,12,18,9,-,-,0,-,-,20140830170000
57,"Nanhai Bureau of Meteorology, Foshan",,23.046836,113.145764,74,35,38,18,5,9,31,25,1012,70,3,20140830170000
58,"Sanshui Monitoring Station, Foshan",,23.163551,112.890843,87,44,46,15,20,10,-,-,0,-,-,20140830170000
1087,Foshan,,23.018995,113.126899,74,35,38,15,5,9,31,25,1012,70,3,20140830170000
59,"Ronggui street committee, Shunde",,22.762729,113.258356,74,30,27,27,18,6,-,-,0,-,-,20140830170000
60,Shunde,,22.80246,113.298701,74,30,31,22,18,6,-,-,0,-,-,20140830170000
61,"Donghu, Jiangmen",,22.590411,113.087351,63,28,31,9,6,3,-,-,0,-,-,20140830170000
62,"Taoyuan Atmosphere Premier Station, Jiangmen",,22.72489,112.93404,80,41,46,11,11,5,-,-,0,-,-,20140830170000
63,Jiangmen,,22.576047,113.087351,65,30,31,10,11,10,30,25,1012,74,2,20140830170000
64,"Kengkouzi station, Zhaoqing",,23.158865,112.570287,127,62,0,12,9,7,-,-,0,-,-,20140830170000
65,"Mugangzi station, Zhaoqing",,23.067961,112.431934,137,73,155,23,18,10,-,-,0,-,-,20140830170000
66,"Qixingyanzi station, Zhaoqing",,23.075974,112.477437,-,-,-,-,-,-,-,-,0,-,-,20140830170000
67,Zhaoqing,,23.044571,112.470346,137,73,155,23,18,10,-,-,0,-,-,20140830170000
68,"Jinguo Bay, Huizhou",,22.937223,114.385567,55,27,26,4,3,6,-,-,0,-,-,20140830170000
1091,"Xiabu, Huizhou",,23.077493,114.410275,76,36,18,7,3,4,-,-,0,-,-,20140830170000
69,"Xijiao, Huizhou",,23.338178,114.112867,76,30,37,7,5,5,-,-,0,-,-,20140830170000
70,"Jiangbei, Huizhou",,23.111706,114.415274,65,52,15,19,7,4,-,-,0,-,-,20140830170000
71,"Huiyang chuanhu, Huizhou",,22.814485,114.329292,59,22,25,4,4,6,-,-,0,-,-,20140830170000
72,"Daya bay management committee, Huizhou",,22.739283,114.53631,59,18,30,2,4,3,-,-,0,-,-,20140830170000
73,Huizhou,,23.109349,114.421164,76,52,23,18,7,4,31,23,1012,62,3,20140830170000
74,"Guancheng No.2 water plant, Dongguan",,23.057294,113.753254,85,47,39,12,8,8,-,-,0,-,-,20140830170000
75,"Dongcheng Shijing, Dongguan",,23.010039,113.799529,74,27,34,12,5,6,-,-,0,-,-,20140830170000
76,"Nancheng Xiping, Dongguan",,22.963051,113.743494,85,31,38,9,5,7,-,-,0,-,-,20140830170000
77,"Nancheng Yuanling, Dongguan",,23.025058,113.751308,80,28,37,13,7,5,-,-,0,-,-,20140830170000
78,Dongguan,,23.017813,113.756958,85,47,39,7,9,9,31,23,1012,62,3,20140830170000
79,"Zimaling, Zhongshan",,22.505112,113.407183,38,17,22,9,7,5,-,-,0,-,-,20140830170000
80,"Yangtze River tourist area, Zhongshan",,22.48589,113.439054,34,15,23,5,3,6,-,-,0,-,-,20140830170000
81,"Huabai Park, Zhongshan",,22.51839,113.374362,53,20,17,11,5,11,-,-,0,-,-,20140830170000
82,Zhongshan,,22.513997,113.398277,55,22,23,13,7,11,30,25,1012,74,2,20140830170000
83,"No.8 middle school, Shaoguan",,24.767777,113.583537,82,43,21,19,15,8,-,-,0,-,-,20140830170000
83,"No.8 middle school, Shaoguan",,24.767777,113.583537,82,43,21,19,15,8,-,-,0,-,-,20140830170000
84,"Forest area, Shaoguan",,24.796107,113.612131,65,20,23,13,11,11,-,-,0,-,-,20140830170000
84,"Forest area, Shaoguan",,24.796106,113.612131,65,20,23,13,11,11,-,-,0,-,-,20140830170000
86,"Shaoguan University, Shaoguan",,24.790864,113.646599,59,22,19,5,9,9,-,-,0,-,-,20140830170000
86,"Shaoguan University, Shaoguan",,24.790864,113.646598,59,22,19,5,9,9,-,-,0,-,-,20140830170000
88,"Qujiang Monitoring Station, Shaoguan",,24.683042,113.60157,68,31,14,19,5,9,-,-,0,-,-,20140830170000
88,"Qujiang Monitoring Station, Shaoguan",,24.683042,113.60157,68,31,14,19,5,9,-,-,0,-,-,20140830170000
89,Shaoguan,,24.807342,113.602712,82,43,23,17,15,11,-,-,0,-,-,20140830170000
90,"Chaonanzi Station, Shantou",,23.251213,116.406762,97,56,27,9,18,7,-,-,0,-,-,20140830170000
91,Shantou,,23.350642,116.686306,107,46,29,10,6,10,31,24,1013,66,1,20140830170000
92,"City Environmental Monitoring Station, Zhanjiang",,21.220431,110.397317,53,18,79,6,8,4,-,-,0,-,-,20140830170000
93,"EPB Dormitory, Zhanjiang",,21.197376,110.406487,55,19,14,6,2,6,-,-,0,-,-,20140830170000
94,"Xiashan Swimming Park, Zhanjiang",,21.200431,110.415655,42,16,23,6,3,6,-,-,0,-,-,20140830170000
95,"Zhanjiang Theatre, Zhanjiang",,21.268177,110.366445,65,24,12,3,3,6,-,-,0,-,-,20140830170000
96,"Mazhang EPA, Zhanjiang",,21.265486,110.335993,57,20,32,3,2,3,-,-,0,-,-,20140830170000
97,"Potou District EPB, Zhanjiang",,21.247604,110.454508,46,19,26,4,2,6,-,-,0,-,-,20140830170000
98,Zhanjiang,,21.26832,110.363883,65,24,79,5,8,6,-,-,0,-,-,20140830170000
99,"Maogang sub-office EPB, Maoming",,21.466435,111.033462,78,39,30,3,5,3,-,-,0,-,-,20140830170000
100,"Petrochemical No. 7 elementaty school, Maoming",,21.648905,110.937861,93,41,32,7,20,11,-,-,0,-,-,20140830170000
101,"Jiankang road, Maoming",,21.662211,110.909482,109,52,20,8,9,11,-,-,0,-,-,20140830170000
102,"Gaoling, Maoming",,21.690558,110.871146,109,53,16,6,12,10,-,-,0,-,-,20140830170000
1094,Maoming,,21.660223,110.929968,109,53,32,6,20,11,30,24,0,67,4,20140830170000
103,"Jiaying University, Meizhou",,24.325415,116.12816,53,19,24,4,3,6,-,-,0,-,-,20140830170000
104,"Mexian new town, Meizhou",,24.269283,116.084546,68,25,28,9,5,8,-,-,0,-,-,20140830170000
105,"Environmental Monitoring Center, Meizhou",,24.262778,116.129621,70,37,21,16,4,9,-,-,0,-,-,20140830170000
1095,Meizhou,,24.285988,116.127065,70,37,28,9,5,9,31,24,1013,66,1,20140830170000
106,"City EPA, Shanwei",,22.772349,115.370227,82,28,37,2,5,9,-,-,0,-,-,20140830170000
107,"City government, Shanwei",,22.787161,115.375536,82,40,37,5,5,8,-,-,0,-,-,20140830170000
108,"Xincheng Middle School, Shanwei",,22.789851,115.367124,85,29,33,5,4,6,-,-,0,-,-,20140830170000
1099,Shanwei,,22.783576,115.38022,85,40,37,5,5,9,-,-,0,-,-,20140830170000
109,"No.3 elementary school, Heyuan",,23.75435,114.703514,68,28,28,16,5,7,-,-,0,-,-,20140830170000
109,"No.3 elementary school, Heyuan",,23.755946,114.699091,68,28,28,16,5,7,-,-,0,-,-,20140830170000
111,"City water company, Heyuan",,23.754246,114.682459,80,27,28,12,5,7,-,-,0,-,-,20140830170000
111,"City water company, Heyuan",,23.688709,114.954652,80,27,28,12,5,7,-,-,0,-,-,20140830170000
113,"Heyuan high school, Heyuan",,23.720037,114.699563,70,29,26,13,13,6,-,-,0,-,-,20140830170000
113,"Heyuan high school, Heyuan",,23.720666,114.693879,70,29,26,13,13,6,-,-,0,-,-,20140830170000
115,Heyuan,,23.740888,114.705147,80,29,28,13,13,7,-,-,0,-,-,20140830170000
116,"Yuanyang Lake, Yangjiang",,21.855869,111.983676,78,34,31,6,3,9,-,-,0,-,-,20140830170000
1100,Yangjiang,,21.855227,111.987308,104,50,31,17,3,14,-,-,0,-,-,20140830170000
118,"Town governement, Qingyuan",,23.708005,113.026215,89,40,22,13,4,13,-,-,0,-,-,20140830170000
119,"Fupin district, Qingyuan",,23.624781,113.067713,97,38,15,10,12,11,-,-,0,-,-,20140830170000
119,"Fupin district, Qingyuan",,24.185415,113.419369,97,38,15,10,12,11,-,-,0,-,-,20140830170000
121,"Environment protection office, Qingyuan",,23.691109,113.047948,61,20,24,4,5,10,-,-,0,-,-,20140830170000
121,"Environment protection office, Qingyuan",,23.685931,113.053239,61,20,24,4,5,10,-,-,0,-,-,20140830170000
123,"Fengcheng Subdistrict, Qingyuan",,23.695447,113.068189,89,40,22,13,4,13,-,-,0,-,-,20140830170000
124,Qingyuan,,23.679304,113.061513,97,40,24,13,12,13,31,25,1012,70,3,20140830170000
125,"Xiyuan Road, Chaozhou",,23.668654,116.638272,82,41,24,5,4,8,-,-,0,-,-,20140830170000
126,"Archives Bureau, Chaozhou",,23.667881,116.649104,87,35,20,9,5,8,-,-,0,-,-,20140830170000
127,"Municipal Corporation, Chaozhou",,23.65035,116.621859,91,35,28,12,7,12,-,-,0,-,-,20140830170000
1101,Chaozhou,,23.654204,116.626969,91,41,28,12,7,12,31,24,1013,66,1,20140830170000
128,"Donghu Park, Jieyang",,23.532877,116.374427,85,52,28,9,13,12,-,-,0,-,-,20140830170000
129,"Yuhu Middle School, Jieyang",,23.52682,116.414123,144,65,34,8,13,8,31,24,1013,66,1,20140830170000
130,"Experimental Primary School, Jieyang",,23.571473,116.364137,149,55,34,24,19,7,31,24,1013,66,1,20140830170000
1102,Jieyang,,23.547596,116.37754,93,52,28,18,19,12,31,24,1013,66,1,20140830170000
131,"City Environmental Monitoring Station, Yunfu",,22.936779,112.042248,76,40,94,11,5,12,-,-,0,-,-,20140830170000
132,"The new city government headquarters, Yunfu",,22.914275,112.044475,95,35,86,5,4,14,-,-,0,-,-,20140830170000
133,"Muyang police sub-station, Yunfu",,22.951267,112.05923,163,89,87,36,23,11,-,-,0,-,-,20140830170000
1103,Yunfu,,22.912436,112.049811,163,89,94,7,23,14,31,25,1012,70,3,20140830170000
134,Yantian,,22.587949,114.266899,46,20,25,13,5,6,-,-,0,-,-,20140830170000
135,Kwai Chung,,22.572837,113.867166,57,27,20,12,1,13,31,23,1012,62,3,20140830170000
135,Kwai Chung,,22.627947,114.428875,57,27,20,12,1,13,31,23,1012,62,3,20140830170000
135,Kwai Chung,,22.354168,114.134558,57,27,20,12,1,13,31,23,1012,62,3,20140830170000
137,Nanyou,,22.513802,113.928051,55,23,34,4,7,6,31,23,1012,62,3,20140830170000
138,Meisha,,22.59611,114.318345,61,24,22,5,2,9,-,-,0,-,-,20140830170000
139,Xi xiang,,22.717524,114.252304,53,13,22,9,2,10,-,-,0,-,-,20140830170000
140,Liyuan,,22.54732,114.101205,42,12,17,6,2,8,-,-,0,-,-,20140830170000
1072,Kwai Chung,,22.572837,113.867166,57,19,20,7,3,7,-,-,0,-,-,20140830170000
1072,Kwai Chung,,22.627947,114.428875,57,19,20,7,3,7,-,-,0,-,-,20140830170000
1072,Kwai Chung,,22.354168,114.134558,57,19,20,7,3,7,-,-,0,-,-,20140830170000
141,OCT,,22.539549,113.992458,57,20,19,9,2,9,31,23,1012,62,3,20140830170000
142,Honghu,,22.559647,114.121976,46,23,24,10,2,8,-,-,0,-,-,20140830170000
143,Mission Hills,,22.694131,114.050496,57,18,26,7,3,11,-,-,0,-,-,20140830170000
144,Shenzhen,,22.540382,114.062982,61,27,34,13,7,13,-,-,0,-,-,20140830170000
145,Chengdu,,30.622581,104.069564,173,64,22,46,8,11,-,-,0,-,-,20140830170000
146,"Jinquan lianghe, Chengdu",,30.710359,103.974209,127,66,18,34,3,11,23,21,1011,88,1,20140830170000
147,"Shilidian, Chengdu",,30.684718,104.17845,99,59,15,45,5,10,23,21,1011,88,1,20140830170000
148,"Sanwayao, Chengdu",,30.568159,104.081524,158,81,13,32,3,10,-,-,0,-,-,20140830170000
149,"Shahepu, Chengdu",,30.633685,104.120536,78,41,13,32,3,11,-,-,0,-,-,20140830170000
150,"Liang Lane, Chengdu",,30.682601,104.076522,127,63,22,46,8,9,-,-,0,-,-,20140830170000
151,"Caotang Temple, Chengdu",,30.651891,104.0284,122,64,19,38,6,11,23,21,1011,88,1,20140830170000
152,"Lingyansi, Chengdu",,31.025729,103.615022,80,26,43,5,6,2,23,21,1011,88,1,20140830170000
153,"Fuleshan, Mianyang",,31.472493,104.7806,59,20,18,8,5,7,-,-,0,-,-,20140830170000
154,"High-tech Zone Water Company, Mianyang",,31.463309,104.674293,63,31,14,20,9,6,-,-,0,-,-,20140830170000
155,"No.3 water company, Mianyang",,31.505002,104.731054,89,49,13,24,15,4,-,-,0,-,-,20140830170000
156,Mianyang,,31.465174,104.681731,89,49,18,24,15,8,-,-,0,-,-,20140830170000
157,"Dongshan Park, Deyang",,31.118648,104.424587,87,51,19,20,5,7,23,21,1011,88,1,20140830170000
158,"Xixiaoqu, Deyang",,31.131159,104.390972,82,33,24,10,11,10,23,21,1011,88,1,20140830170000
159,"City Procuratorate, Deyang",,31.114554,104.407986,104,35,22,21,13,8,23,21,1011,88,1,20140830170000
160,"Refractory Factory, Deyang",,31.108606,104.356506,89,64,20,13,12,5,23,21,1011,88,1,20140830170000
161,Deyang,,31.124715,104.400703,104,64,24,21,13,10,23,21,1011,88,1,20140830170000
162,"Nongnongping, Panzhihua",,26.566698,101.695438,59,24,12,11,2,7,-,-,0,-,-,20140830170000
163,"Hemenkou, Panzhihua",,26.589072,101.578312,50,19,8,8,1,11,-,-,0,-,-,20140830170000
164,"Bingcaogang, Panzhihua",,26.58143,101.718473,57,35,7,12,4,7,-,-,0,-,-,20140830170000
165,"Renhe, Panzhihua",,26.498166,101.746887,50,32,6,7,4,9,-,-,0,-,-,20140830170000
166,"Jinjina, Panzhihua",,26.553226,101.84862,85,71,10,7,11,6,-,-,0,-,-,20140830170000
167,Panzhihua,,26.578779,101.720211,85,71,12,12,11,11,-,-,0,-,-,20140830170000
168,"Shima Middle School, Yibin",,28.815979,104.599199,127,59,31,3,6,7,-,-,0,-,-,20140830170000
169,"Municipal party committee, Yibin",,28.762654,104.624834,124,50,21,7,5,7,-,-,0,-,-,20140830170000
170,"No. 4 middle school, Yibin",,28.783257,104.608407,153,64,28,8,5,5,-,-,0,-,-,20140830170000
171,"City government, Yibin",,28.760477,104.644079,127,89,27,11,6,9,-,-,0,-,-,20140830170000
172,"Huangjinzui, Yibin",,28.712319,104.578389,169,52,35,15,8,7,-,-,0,-,-,20140830170000
173,"Shaping Middle School, Yibin",,28.795569,104.681393,134,51,32,8,8,6,-,-,0,-,-,20140830170000
174,Yibin,,28.748384,104.645766,169,89,35,15,8,9,-,-,0,-,-,20140830170000
175,"Datang Hill, Zigong",,29.359969,104.757388,114,31,19,12,5,4,24,23,1001,87,1,20140830170000
176,"Yanma Road, Zigong",,29.355752,104.724036,104,62,23,2,4,6,24,23,1001,87,1,20140830170000
177,"Tanmulin Street, Zigong",,29.353555,104.777397,107,43,28,19,17,3,-,-,0,-,-,20140830170000
178,"Chunhua Road, Zigong",,29.33825,104.771895,87,48,18,5,8,7,24,23,1001,87,1,20140830170000
179,Zigong,,29.33617,104.781138,114,62,23,12,8,7,24,23,1001,87,1,20140830170000
180,"Jiushi Hill, Luzhou",,28.955347,105.434207,151,56,53,1,1,2,-,-,0,-,-,20140830170000
181,"Xiaoshishang Port, Luzhou",,28.899583,105.447192,149,58,46,8,3,8,-,-,0,-,-,20140830170000
182,"Lantianxian Bridge, Luzhou",,28.852766,105.4358,137,52,48,6,2,4,-,-,0,-,-,20140830170000
183,"City Environment Monitoring Station, Luzhou",,28.895898,105.435802,177,73,37,16,2,0,-,-,0,-,-,20140830170000
184,Luzhou,,28.868782,105.445938,177,73,53,16,3,8,28,22,1001,69,1,20140830170000
185,"City Committee, Nanchong",,30.799993,106.082906,117,17,35,10,8,5,-,-,0,-,-,20140830170000
186,"Refinery Factory, Nanchong",,30.819412,106.10712,97,33,23,16,10,3,-,-,0,-,-,20140830170000
187,"Gaoping District Monitoring Station, Nanchong",,30.783291,106.110417,70,30,17,7,11,6,-,-,0,-,-,20140830170000
188,"Jialing District EPB, Nanchong",,30.761255,106.06818,102,44,4,13,2,3,-,-,0,-,-,20140830170000
189,"City Environmental Monitoring Station, Nanchong",,30.836519,106.11272,104,33,12,3,7,3,-,-,0,-,-,20140830170000
190,Nanchong,,30.835511,106.114717,117,33,35,16,11,6,-,-,0,-,-,20140830170000
1249,"City Monitoring Station, Neijiang",,29.592673,105.036234,114,40,27,6,5,4,-,-,0,-,-,20140830170000
1250,"Dongxing District Government , Neijiang",,29.592148,105.074966,99,42,20,7,7,2,-,-,0,-,-,20140830170000
1251,"No 2 middle school, Neijiang",,29.579135,105.068548,144,56,25,7,6,8,-,-,0,-,-,20140830170000
1252,Neijiang,,29.577653,105.06166,144,56,27,7,7,8,24,23,1001,87,1,20140830170000
1253,"City Monitoring Station, Suining",,30.610641,105.683583,63,45,30,7,3,1,-,-,0,-,-,20140830170000
1254,"Administrative center , Suining",,30.63206,105.819747,61,56,31,4,1,2,-,-,0,-,-,20140830170000
1255,Suining,,30.530053,105.596307,65,56,34,7,3,10,24,22,0,87,1,20140830170000
1256,"City Monitoring Station, Leshan",,29.560651,103.759211,166,99,18,23,11,16,-,-,0,-,-,20140830170000
1257,"Leshan Giant Buddha Scenic Area , Leshan",,29.543938,103.772706,168,95,18,33,11,15,-,-,0,-,-,20140830170000
1258,Leshan,,29.54935,103.767777,184,121,18,33,16,16,23,20,0,77,2,20140830170000
1259,"Heilongtan , Meishan",,30.047726,103.900649,188,120,22,15,3,10,-,-,0,-,-,20140830170000
1260,"Bureau of Meteorology, Meishan",,30.084591,103.843715,197,101,31,16,6,7,-,-,0,-,-,20140830170000
1261,"Xuguang Community , Meishan",,30.066277,103.8516,197,116,24,17,5,8,-,-,0,-,-,20140830170000
1262,"City Monitoring Station, Meishan",,30.059205,103.836229,192,120,23,18,8,10,-,-,0,-,-,20140830170000
1263,Meishan,,30.072618,103.85064,197,120,31,18,8,10,23,21,1011,88,1,20140830170000
1264,"Ziyang middle school, Ziyang",,30.147763,104.638024,55,52,26,4,5,6,-,-,0,-,-,20140830170000
1265,Ziyang,,30.126054,104.63004,55,52,30,13,22,12,24,23,1001,87,1,20140830170000
191,Shenyang US Consulate,,41.785668,123.432865,161,92,31,61,14,6,-,-,0,-,-,20140830170000
192,"Huishan, Shenyang",,41.835421,123.647773,114,48,31,8,5,6,-,-,0,-,-,20140830170000
193,"Hunnan, Shenyang",,41.758263,123.540809,166,77,49,35,11,8,-,-,0,-,-,20140830170000
194,"Zhangshi, Shenyang",,41.771679,123.289859,174,123,26,74,11,9,-,-,0,-,-,20140830170000
195,"Artillery College, Shenyang",,41.835749,123.547799,68,58,91,15,3,6,-,-,0,-,-,20140830170000
196,"Beiling, Shenyang",,41.849633,123.434146,171,115,36,47,7,10,-,-,0,-,-,20140830170000
197,"Wenyi Road, Shenyang",,41.767444,123.416144,157,92,58,61,14,9,-,-,0,-,-,20140830170000
198,"Xiaoheyan, Shenyang",,41.779828,123.484015,151,83,75,47,4,9,-,-,0,-,-,20140830170000
199,"Taiyuan Street, Shenyang",,41.799646,123.406146,167,95,18,62,7,11,-,-,0,-,-,20140830170000
200,"Ermao, Shenyang",,41.783011,123.366679,163,100,98,79,17,12,-,-,0,-,-,20140830170000
201,"Liaoning University, Shenyang",,41.830704,123.361071,91,53,74,7,3,6,-,-,0,-,-,20140830170000
202,Shenyang,,41.808126,123.437611,161,95,36,62,14,11,-,-,0,-,-,20140830170000
1104,"wenhua street, Shenyang , Shenyang",,41.774139,123.441839,157,92,58,61,14,9,-,-,0,-,-,20140830170000
1105,"Tanglin Road , Shenyang , Shenyang",,41.823665,123.562317,68,58,91,15,3,6,-,-,0,-,-,20140830170000
203,"Ganjingzi, Dalian",,38.9747,121.616893,127,55,29,19,1,6,27,19,1016,61,2,20140830170000
204,"Zhoushuizi, Dalian",,38.951928,121.569981,93,45,35,35,7,9,-,-,0,-,-,20140830170000
205,"Xinghai No 3 station, Dalian",,38.885779,121.568864,104,41,40,8,4,4,-,-,0,-,-,20140830170000
206,"Qingniwa Bridge, Dalian",,38.91274,121.638018,74,35,45,46,3,5,-,-,0,-,-,20140830170000
207,"Fujiazhuang, Dalian",,38.864647,121.629947,74,30,43,4,10,3,-,-,0,-,-,20140830170000
208,"Qixianling, Dalian",,38.856978,121.523169,-,-,-,-,-,-,-,-,0,-,-,20140830170000
209,"Lushun, Dalian",,38.808946,121.264063,78,32,31,2,2,4,-,-,0,-,-,20140830170000
210,"Jinzhou, Dalian",,39.132192,121.753259,89,51,15,32,1,2,-,-,0,-,-,20140830170000
211,"BDA, Dalian",,39.05213,121.782022,89,36,18,25,2,4,-,-,0,-,-,20140830170000
212,"D&D Port, Dalian",,39.064087,121.981874,65,17,13,6,1,6,-,-,0,-,-,20140830170000
213,Dalian,,38.91478,121.619625,74,35,45,46,10,5,-,-,0,-,-,20140830170000
214,"Bearing Factory, Dandong",,40.068929,124.345703,68,43,33,5,11,10,-,-,0,-,-,20140830170000
215,"Financial school, Dandong",,40.158723,124.432593,80,43,34,7,7,6,-,-,0,-,-,20140830170000
216,"Yuanbaoshan water, Dandong",,40.149431,124.391698,82,50,33,16,12,5,-,-,0,-,-,20140830170000
217,"Experimental Primary School, Dandong",,39.887343,124.158056,87,55,29,25,10,24,-,-,0,-,-,20140830170000
218,Dandong,,40.002046,124.360479,87,55,34,25,11,24,-,-,0,-,-,20140830170000
1106,"minzhu bridge, Dandong , Dandong",,40.112974,124.373604,87,55,29,25,10,24,-,-,0,-,-,20140830170000
1107,"yuanbaoshan, Dandong , Dandong",,40.146298,124.399081,82,50,33,16,12,5,-,-,0,-,-,20140830170000
1108,"linjiang houjie, Dandong , Dandong",,40.152757,124.431745,80,43,34,7,7,6,-,-,0,-,-,20140830170000
219,"BDA, Panjin",,41.157144,122.06645,124,55,35,30,5,17,-,-,0,-,-,20140830170000
220,"Xinglongtai, Panjin",,41.140948,122.111343,95,44,35,12,21,9,-,-,0,-,-,20140830170000
221,"Dingxiang, Panjin",,41.16139,121.928781,95,40,37,6,20,8,-,-,0,-,-,20140830170000
222,Panjin,,41.122089,122.076206,124,55,37,30,21,17,27,19,0,57,1,20140830170000
223,"No.3 water company, Yingkou",,40.682052,122.385352,55,39,95,6,4,7,-,-,0,-,-,20140830170000
224,"Yingkou University, Yingkou",,40.683689,122.388285,53,41,95,6,3,7,-,-,0,-,-,20140830170000
225,"Botanical garden, Yingkou",,40.711674,122.281568,65,30,50,22,5,7,-,-,0,-,-,20140830170000
226,Yingkou,,40.668578,122.24059,65,41,95,22,5,7,-,-,0,-,-,20140830170000
1109,"jinghu west street, Yingkou , Yingkou",,40.653831,122.221943,55,39,95,6,4,7,-,-,0,-,-,20140830170000
1110,"Daqing Road , Yingkou , Yingkou",,40.709181,122.28243,65,30,50,22,5,7,-,-,0,-,-,20140830170000
227,"Xishanpo, Huludao",,40.724078,120.921974,109,49,43,8,8,5,-,-,0,-,-,20140830170000
228,"Huagong hospital, Huludao",,40.755662,120.848435,134,68,30,38,2,16,-,-,0,-,-,20140830170000
229,"New district park, Huludao",,40.723415,120.853801,76,58,27,24,2,7,-,-,0,-,-,20140830170000
230,"Lianshan district governement, Huludao",,40.775488,120.872292,95,79,29,40,7,8,-,-,0,-,-,20140830170000
231,Huludao,,40.712501,120.842107,107,75,39,35,8,8,-,-,0,-,-,20140830170000
1111,"Dongcheng District , Huludao , Huludao",,40.775362,120.871706,82,75,22,35,7,8,,,0,,,20140830170000
1112,"huagong street, Huludao , Huludao",,40.758901,120.842935,134,68,30,38,2,16,,,0,,,20140830170000
232,Anshan,,41.110466,123.000147,193,157,45,32,29,21,-,-,0,-,-,20140830170000
233,"Qianshan Park, Anshan",,41.033486,123.143897,124,53,41,8,7,6,-,-,0,-,-,20140830170000
234,"Tiexi, Anshan",,41.121636,122.97506,188,153,35,18,8,21,-,-,0,-,-,20140830170000
235,"Taiping Station, Anshan",,41.153322,123.052433,182,125,28,26,7,16,-,-,0,-,-,20140830170000
236,"Central Station, Anshan",,41.106731,123.002736,176,146,45,27,7,16,-,-,0,-,-,20140830170000
237,"Shengou Temple, Anshan",,41.137157,123.031901,174,109,36,17,8,20,-,-,0,-,-,20140830170000
1113,"Qianshan , Anshan , Anshan",,41.014521,123.122538,154,63,35,8,7,6,-,-,0,-,-,20140830170000
1114,"Tiexi Sandao jie, Anshan",,41.103264,122.978613,188,153,35,18,8,21,-,-,0,-,-,20140830170000
1115,"Taiyang, Anshan",,41.094946,123.019037,176,146,45,27,7,16,-,-,0,-,-,20140830170000
238,Fushun,,41.883028,123.962984,164,91,37,38,9,15,-,-,0,-,-,20140830170000
239,"Shenfu new town, Fushun",,41.804638,123.631684,112,55,36,29,4,9,-,-,0,-,-,20140830170000
240,"Reservoir, Fushun",,41.8464,123.802857,93,34,33,9,6,7,-,-,0,-,-,20140830170000
241,"Train Station, Fushun",,41.89726,124.017604,114,52,31,22,9,8,-,-,0,-,-,20140830170000
242,"Dongzhou, Fushun",,41.855578,124.044738,68,30,32,3,1,6,-,-,0,-,-,20140830170000
243,"Xinhua, Fushun",,41.888598,123.932932,89,60,19,28,8,9,-,-,0,-,-,20140830170000
244,"Wanghua, Fushun",,41.888825,123.093723,164,91,33,38,9,15,-,-,0,-,-,20140830170000
245,Benxi,,41.296267,123.772371,241,107,19,23,9,11,-,-,0,-,-,20140830170000
246,"Weining, Benxi",,41.349663,123.826071,80,55,12,10,3,31,-,-,0,-,-,20140830170000
247,"Occupational disease hospital, Benxi",,41.305432,123.74645,53,23,34,18,5,7,-,-,0,-,-,20140830170000
248,"Dongming, Benxi",,41.292369,123.765058,117,20,15,20,9,13,-,-,0,-,-,20140830170000
249,"Caitun, Benxi",,41.301591,123.746039,157,111,17,17,1,19,-,-,0,-,-,20140830170000
250,"Xihu, Benxi",,41.331332,123.773537,241,123,19,23,9,11,-,-,0,-,-,20140830170000
251,"Dayu, Benxi",,41.308091,123.818442,104,48,26,13,12,9,-,-,0,-,-,20140830170000
1116,"Xinlitun , Benxi , Benxi",,41.264104,123.811523,53,18,28,14,5,6,-,-,0,-,-,20140830170000
252,Jinzhou,,41.097169,121.132647,153,72,28,37,29,8,-,-,0,-,-,20140830170000
253,"Beihu Park, Jinzhou",,41.141447,121.137339,124,65,28,27,13,8,-,-,0,-,-,20140830170000
254,"Monitoring station, Jinzhou",,41.113441,121.140911,139,74,33,35,19,7,-,-,0,-,-,20140830170000
255,"Nanshan, Jinzhou",,41.570689,122.046753,152,62,34,29,8,8,-,-,0,-,-,20140830170000
1118,"BDA, Jinzhou",,40.853915,121.061756,157,89,14,32,10,7,-,-,0,-,-,20140830170000
1119,"tianan street, Jinzhou , Jinzhou",,41.124468,121.126119,153,72,26,37,29,8,-,-,0,-,-,20140830170000
1120,"baigu street, Jinzhou, Jinzhou",,41.12214,121.21027,99,40,19,22,7,6,-,-,0,-,-,20140830170000
1121,Chaoyang,,41.576022,120.456053,156,60,40,26,8,37,-,-,0,-,-,20140830170000
472,"Fukang road, Tianjin",,39.098136,117.157621,162,65,13,10,6,8,-,-,0,-,-,20140830170000
1122,"Agricultural Area, Chaoyang",,43.93968,125.247371,156,55,7,5,8,6,-,-,0,-,-,20140830170000
1123,Tieling,,42.225197,123.732174,154,66,57,23,9,7,-,-,0,-,-,20140830170000
260,"Waterpark, Tieling",,42.297031,123.880748,87,66,21,18,9,6,-,-,0,-,-,20140830170000
1124,"Huigong Street West , Tieling , Tieling",,42.311115,123.845614,154,81,22,17,7,3,-,-,0,-,-,20140830170000
1125,Liaoyang,,41.269312,123.24268,181,101,37,26,17,27,-,-,0,-,-,20140830170000
1126,"Riverside Road , Liaoyang , Liaoyang",,41.176884,123.419859,124,59,30,20,2,7,-,-,0,-,-,20140830170000
1127,Fuxin,,42.02373,121.675733,137,90,28,41,10,9,-,-,0,-,-,20140830170000
266,"Agricultural Area, Fuxin",,42.071291,121.696445,82,73,36,29,10,7,-,-,0,-,-,20140830170000
267,"Industrial Area, Fuxin",,42.041052,121.715554,137,90,32,39,7,9,-,-,0,-,-,20140830170000
1128,"Yulong Metro , Fuxin , Fuxin",,42.035091,121.666531,122,69,82,30,5,9,-,-,0,-,-,20140830170000
268,"City Monitoring Station, Jinan",,36.662614,117.054645,182,99,35,15,16,9,-,-,0,-,-,20140830170000
269,"Shandong Institute of Economics, Jinan",,36.63819,117.074975,169,77,48,11,15,8,-,-,0,-,-,20140830170000
270,"Quancheng Plaza, Jinan",,36.661711,117.027043,171,90,30,10,10,9,-,-,0,-,-,20140830170000
271,"Kegansuo, Jinan",,36.611582,116.99384,167,83,48,31,9,7,-,-,0,-,-,20140830170000
272,"Agriculture Science Institute, Jinan",,36.663115,116.95063,164,83,35,22,8,12,-,-,0,-,-,20140830170000
273,"Lanxiang technical school, Jinan",,36.700421,116.95342,165,83,48,4,19,9,-,-,0,-,-,20140830170000
274,"Chemical factory, Jinan",,36.687463,116.994406,157,77,28,10,9,9,-,-,0,-,-,20140830170000
275,"Provincial Seed Warehouse, Jinan",,36.685706,117.066348,174,80,38,11,19,10,-,-,0,-,-,20140830170000
276,"Shandong Architecture University, Jinan",,36.681732,117.191868,175,94,39,23,15,12,-,-,0,-,-,20140830170000
277,"Baosheng cable company, Jinan",,36.724638,117.130855,173,122,25,9,5,10,-,-,0,-,-,20140830170000
278,"Paomaling, Jinan",,36.47869,117.219027,129,50,126,7,19,14,-,-,0,-,-,20140830170000
279,"Changqing District Communist Party School, Jinan",,36.548797,116.770859,166,71,53,9,19,11,-,-,0,-,-,20140830170000
280,"BDA, Jinan",,36.685835,117.130851,174,84,35,36,8,10,-,-,0,-,-,20140830170000
281,Jinan,,36.651426,117.126625,182,99,52,31,19,12,-,-,0,-,-,20140830170000
282,"Shinan district No. 1, Qingdao",,36.065534,120.40839,59,18,72,1,9,2,-,-,0,-,-,20140830170000
283,"Shibei district No. 1, Qingdao",,36.069919,120.341264,25,15,44,3,5,4,-,-,0,-,-,20140830170000
284,"Shibei district No. 2, Qingdao",,36.104146,120.36637,9,9,127,6,3,7,-,-,0,-,-,20140830170000
285,"Huangdao District No. 1, Qingdao",,35.958935,120.191041,34,37,47,5,11,4,-,-,0,-,-,20140830170000
286,"Huangdao District No. 2, Qingdao",,35.970487,120.160339,34,30,41,7,9,5,-,-,0,-,-,20140830170000
287,"Laoshan District No. 1, Qingdao",,36.085881,120.451839,80,45,48,12,10,9,-,-,0,-,-,20140830170000
288,"Laoshan District No. 2, Qingdao",,36.091075,120.490388,61,27,82,9,7,3,-,-,0,-,-,20140830170000
289,"Licang District No. 1, Qingdao",,36.184872,120.38533,55,53,31,10,13,5,-,-,0,-,-,20140830170000
290,"Licang District No. 2, Qingdao",,36.154369,120.432287,80,58,36,23,7,4,-,-,0,-,-,20140830170000
291,"Chengyang District No. 1, Qingdao",,36.308502,120.40008,76,40,36,18,8,5,-,-,0,-,-,20140830170000
292,"Chengyang District No. 2, Qingdao",,36.308429,120.465806,61,34,45,10,7,3,-,-,0,-,-,20140830170000
293,Qingdao,,36.067358,120.387773,80,45,72,12,10,9,-,-,0,-,-,20140830170000
294,"Zichuan Meteo. Stations, Zibo",,36.637916,117.960222,158,199,31,26,51,18,-,-,0,-,-,20140830170000
295,"Dongfeng Chemical factory, Zibo",,36.838576,118.050785,163,99,25,35,65,22,-,-,0,-,-,20140830170000
296,"Boshan shuangshan, Zibo",,36.497278,117.853581,170,64,36,19,28,13,-,-,0,-,-,20140830170000
297,"Linzi Putian Park, Zibo",,36.820171,118.315022,180,132,34,45,62,30,-,-,0,-,-,20140830170000
643,Suizhou,,31.688342,113.388675,117,51,20,4,3,16,24,,1008,89,2,20140830170000
643,Suizhou,,31.688342,113.388675,117,51,20,4,3,16,24,,1008,89,2,20140830170000
298,"Qilu Petrochemical, Zibo",,36.765907,118.254967,179,109,40,19,15,25,-,-,0,-,-,20140830170000
299,"Zhoucun sanjin Group, Zibo",,36.8044,117.85694,174,77,39,32,47,20,-,-,0,-,-,20140830170000
300,"Vocational College, Zibo",,36.825208,117.926305,157,77,37,21,36,18,-,-,0,-,-,20140830170000
301,"BDA, Zibo",,36.905214,118.021824,168,109,26,49,66,13,-,-,0,-,-,20140830170000
302,Zibo,,36.813618,118.060948,170,199,41,37,71,22,-,-,0,-,-,20140830170000
303,"Shizhong District Government, Zaozhuang",,34.850397,117.569545,171,106,33,17,54,5,-,-,0,-,-,20140830170000
304,"Sewage treatment plant, Zaozhuang",,34.818951,117.595345,174,77,21,23,9,6,-,-,0,-,-,20140830170000
305,"Xuecheng EPA, Zaozhuang",,34.790214,117.272455,139,60,33,20,15,4,-,-,0,-,-,20140830170000
306,"Yicheng District government, Zaozhuang",,34.772806,117.57647,93,56,41,11,11,4,-,-,0,-,-,20140830170000
307,"Taierzhuang EPA, Zaozhuang",,34.579462,117.741067,91,55,29,13,6,10,-,-,0,-,-,20140830170000
308,"Shanting EPA, Zaozhuang",,35.070373,117.457691,89,66,45,5,7,8,-,-,0,-,-,20140830170000
309,"City EPA, Zaozhuang",,34.809466,117.320608,119,58,46,13,27,5,-,-,0,-,-,20140830170000
310,"High-tech zone, Zaozhuang",,34.821779,117.363495,127,56,31,13,30,7,-,-,0,-,-,20140830170000
311,Zaozhuang,,34.809693,117.329634,171,106,45,20,54,10,-,-,0,-,-,20140830170000
312,"City EPA, Dongying",,37.432052,118.672871,74,57,44,15,42,9,-,-,0,-,-,20140830170000
313,"Vocational College, Dongying",,37.438653,118.630567,107,67,47,17,45,7,-,-,0,-,-,20140830170000
314,"Xianhe Oil Production Plant, Dongying",,37.442419,118.510222,112,69,66,19,31,6,-,-,0,-,-,20140830170000
315,"Gengjin village, Dongying",,37.445072,118.55839,142,70,41,24,31,8,-,-,0,-,-,20140830170000
316,"City environmental company, Dongying",,37.466599,118.508012,104,65,46,20,28,6,-,-,0,-,-,20140830170000
317,"Hekou  district, Dongying",,37.883786,118.522171,137,57,47,6,10,5,-,-,0,-,-,20140830170000
318,"BDA, Dongying",,37.435162,118.701827,70,52,49,15,31,11,-,-,0,-,-,20140830170000
319,Dongying,,37.435429,118.680434,142,70,66,24,48,9,-,-,0,-,-,20140830170000
320,"Bearing Factory, Yantai",,37.544126,121.376956,95,49,29,30,5,5,,,0,,,20140830170000
321,"Xijiao Chemical Station, Yantai",,37.547148,121.323695,99,57,45,13,4,6,,,0,,,20140830170000
322,"Fushan Monitoring Stations, Yantai",,37.472245,121.260116,104,49,32,17,5,6,,,0,,,20140830170000
323,"Mouping EPA, Yantai",,37.376681,121.586509,72,36,34,6,3,3,,,0,,,20140830170000
324,"Laishan EPA, Yantai",,37.478422,121.44829,107,50,40,12,7,5,,,0,,,20140830170000
325,"Laishan Shengquan Industrial Park, Yantai",,37.4271,121.408386,78,48,39,23,5,5,,,0,,,20140830170000
326,"China Agricultural University, Yantai",,37.423568,121.511838,72,48,39,10,9,4,,,0,,,20140830170000
327,"BDA EPA, Yantai",,37.560827,121.257954,72,40,21,23,1,6,,,0,,,20140830170000
329,"Dajijia, Yantai",,37.673849,121.071465,89,44,28,26,8,5,,,0,,,20140830170000
330,Yantai,,37.464793,121.453142,107,57,45,30,7,6,-,-,0,-,-,20140830170000
331,"BDA, Weifang",,36.720022,119.054064,72,48,37,10,8,4,,,0,,,20140830170000
332,"Business School, Weifang",,36.682442,119.105909,80,50,36,23,4,3,,,0,,,20140830170000
333,"Hanting District, Weifang",,36.773484,119.199705,102,56,37,13,9,5,,,0,,,20140830170000
334,"Gongda Company, Weifang",,36.657635,119.167266,89,61,38,13,10,2,,,0,,,20140830170000
335,"City EPA, Weifang",,36.701272,119.16838,89,56,33,15,28,4,,,0,,,20140830170000
336,"City Arbitration Committee, Weifang",,36.702422,119.145927,78,57,37,15,7,5,,,0,,,20140830170000
337,"Xinhui Group, Weifang",,36.641581,119.11679,63,51,39,11,7,4,,,0,,,20140830170000
338,"Jincheng Middle School, Weifang",,36.773611,119.115539,72,50,46,22,9,4,,,0,,,20140830170000
339,Weifang,,36.707217,119.167638,102,61,46,23,10,5,-,-,0,-,-,20140830170000
340,"City Monitoring Station, Jining",,35.408443,116.623917,155,57,27,20,16,11,-,-,0,-,-,20140830170000
1090,"Shengdi Hollidays Resort, Jining",,35.424746,116.699093,151,56,17,100,18,22,-,-,0,-,-,20140830170000
341,"Sewage treatment plant, Jining",,35.364286,116.609177,152,63,22,24,16,7,-,-,0,-,-,20140830170000
342,"Electrochemical Factory, Jining",,35.390473,116.552956,112,57,35,20,19,9,-,-,0,-,-,20140830170000
343,"Rencheng BDA, Jining",,35.390484,116.662995,152,60,23,22,18,16,-,-,0,-,-,20140830170000
344,"Agricultural School, Jining",,35.44235,116.601682,129,70,23,32,10,7,-,-,0,-,-,20140830170000
345,"BDA Huojucheng, Jining",,35.436377,116.642953,149,64,27,27,12,13,-,-,0,-,-,20140830170000
346,Jining,,35.414473,116.59239,155,64,35,100,19,22,-,-,0,-,-,20140830170000
347,"Taishan monitoring station, Taian",,36.194362,117.159648,168,87,44,7,13,16,-,-,0,-,-,20140830170000
348,"Shandong Electric Power School, Taian",,36.176071,117.12413,169,76,50,14,27,15,-,-,0,-,-,20140830170000
349,"Population Education school, Taian",,36.194417,117.104131,157,57,54,5,8,14,-,-,0,-,-,20140830170000
350,"Houfeng company, Taian",,36.204863,117.19015,169,81,41,7,9,18,-,-,0,-,-,20140830170000
351,"Nongda new campus, Taian",,36.170179,117.165191,167,101,25,11,12,19,-,-,0,-,-,20140830170000
352,"Transportation technical school, Taian",,36.202126,117.047068,155,53,21,14,5,14,-,-,0,-,-,20140830170000
353,"ICT Technology, Taian",,36.116621,117.107458,151,74,23,19,4,15,-,-,0,-,-,20140830170000
354,Taian,,36.200502,117.093682,169,101,54,19,27,19,-,-,0,-,-,20140830170000
355,"City Environmental Monitoring Station, Weihai",,37.513939,122.067058,82,51,43,19,6,6,-,-,0,-,-,20140830170000
356,"Woodworking Factory, Weihai",,37.325455,122.160777,68,34,66,12,5,2,-,-,0,-,-,20140830170000
357,"Lantian Hotel, Weihai",,37.514641,122.146276,78,52,52,6,6,2,-,-,0,-,-,20140830170000
358,"Zhang village government, Weihai",,37.485561,122.049436,59,24,37,5,5,4,-,-,0,-,-,20140830170000
359,"Gao District Bank, Weihai",,37.534919,122.056294,76,32,45,13,11,4,-,-,0,-,-,20140830170000
360,"Huxia technical school, Weihai",,37.427951,122.130811,78,46,40,9,9,5,-,-,0,-,-,20140830170000
361,Weihai,,37.5141,122.125477,82,52,66,19,11,6,-,-,0,-,-,20140830170000
362,"City governement square, Rizhao",,35.4075,119.526008,34,30,43,2,7,3,-,-,0,-,-,20140830170000
363,"Port Authority, Rizhao",,35.381297,119.55396,55,40,38,7,4,3,-,-,0,-,-,20140830170000
364,"City Monitoring Station, Rizhao",,35.388683,119.496405,34,41,36,16,7,2,-,-,0,-,-,20140830170000
365,"Professor Garden, Rizhao",,35.462161,119.574193,59,39,49,2,8,7,-,-,0,-,-,20140830170000
366,"Vocational and Technical College, Rizhao",,35.441939,119.538187,59,27,45,4,4,1,-,-,0,-,-,20140830170000
367,"Lanshan EPA branch, Rizhao",,35.293405,119.345716,46,26,31,1,7,3,-,-,0,-,-,20140830170000
368,"Jinma Industrial Park, Rizhao",,35.373339,119.514108,57,44,44,6,7,2,-,-,0,-,-,20140830170000
369,Rizhao,,35.416089,119.532316,59,44,49,7,8,7,-,-,0,-,-,20140830170000
370,"Vegetable oil factory, Laiwu",,36.205028,117.700917,172,60,32,11,29,12,-,-,0,-,-,20140830170000
371,"Nursing home, Laiwu",,36.266067,117.652769,161,93,39,12,19,18,-,-,0,-,-,20140830170000
372,"Xinyi middle school, Laiwu",,36.245086,117.739025,142,53,25,17,7,12,-,-,0,-,-,20140830170000
373,"Risheng International School, Laiwu",,36.208125,117.730959,-,-,-,-,-,-,-,-,0,-,-,20140830170000
374,"Gangcheng EPA, Laiwu",,36.066836,117.871823,160,101,21,-,60,25,-,-,0,-,-,20140830170000
375,"City EPA, Laiwu",,36.228913,117.694797,157,58,28,26,15,20,-,-,0,-,-,20140830170000
376,Laiwu,,36.213688,117.682612,172,101,39,17,60,25,-,-,0,-,-,20140830170000
377,"Lunan Pharmaceutical Factory, Linyi",,35.061671,118.299527,65,68,23,11,12,15,-,-,0,-,-,20140830170000
378,"Yihe compound, Linyi",,35.056752,118.34739,61,107,23,17,6,11,-,-,0,-,-,20140830170000
379,"Linyi University, Linyi",,35.114777,118.293414,76,48,18,6,9,12,-,-,0,-,-,20140830170000
380,City EPA,Nanfang,35.104871,118.353518,65,56,30,9,6,5,-,-,0,-,-,20140830170000
1144,"Qianxi EPA, Tangshan",,40.153339,118.317265,-,-,-,-,-,-,-,-,0,-,-,20140830180000
381,"Xinguang woolen factory, Linyi",,34.981004,118.282,93,90,18,30,15,9,-,-,0,-,-,20140830170000
382,"Hongfu Baijiu Factory, Linyi",,34.998788,118.257275,80,61,19,37,10,14,-,-,0,-,-,20140830170000
384,"Hedong insurance company, Linyi",,35.089354,118.40812,65,62,27,16,6,5,-,-,0,-,-,20140830170000
385,"Jianghua vehicule center, Linyi",,35.010082,118.435749,68,51,24,16,8,5,-,-,0,-,-,20140830170000
386,Linyi,,35.10428,118.362202,93,107,30,37,15,15,-,-,0,-,-,20140830170000
387,"Heima group, Dezhou",,37.466063,116.314134,179,85,59,15,19,13,-,-,0,-,-,20140830170000
388,"Monitoring station, Dezhou",,37.433107,116.377312,172,100,35,21,24,14,-,-,0,-,-,20140830170000
389,"Supervision Station, Dezhou",,37.449689,116.324709,174,120,44,19,39,19,-,-,0,-,-,20140830170000
390,"Huayu technical school, Dezhou",,37.462809,116.357559,165,87,59,21,7,12,-,-,0,-,-,20140830170000
391,"Shuangyi group, Dezhou",,37.478848,116.316362,174,126,60,13,8,18,-,-,0,-,-,20140830170000
392,Dezhou,,37.434959,116.363366,179,126,60,21,39,20,-,-,0,-,-,20140830170000
393,"Dongchang District Government, Liaocheng",,36.444473,115.971733,169,63,26,7,12,23,-,-,0,-,-,20140830170000
394,"Light Machinery Factory No. 2, Liaocheng",,36.456788,116.002383,172,67,36,7,17,18,-,-,0,-,-,20140830170000
395,"City committee communist party school, Liaocheng",,36.479537,115.989288,179,107,29,14,21,19,-,-,0,-,-,20140830170000
396,"Customs, Liaocheng",,36.431933,115.956974,179,84,30,7,9,16,-,-,0,-,-,20140830170000
397,"Hongshun Garden, Liaocheng",,36.471124,115.960319,169,77,30,6,9,12,-,-,0,-,-,20140830170000
398,"BDA, Liaocheng",,36.459407,116.043621,180,64,28,5,5,17,-,-,0,-,-,20140830170000
399,Liaocheng,,36.456792,115.991051,179,84,36,7,12,23,-,-,0,-,-,20140830170000
400,"City EPA, Binzhou",,37.38024,118.026895,152,58,32,12,31,16,-,-,0,-,-,20140830170000
401,"Beizhong new school, Binzhou",,37.38374,117.988996,160,72,23,13,21,16,-,-,0,-,-,20140830170000
402,"No.2 water factory, Binzhou",,37.36155,118.002648,144,71,22,11,18,11,-,-,0,-,-,20140830170000
403,"Keling Chemical factory, Binzhou",,37.396138,117.943609,119,62,31,11,14,14,-,-,0,-,-,20140830170000
404,"Yinhe logistics company, Binzhou",,37.356122,117.943326,160,96,38,18,19,15,-,-,0,-,-,20140830170000
405,"Bilin compond, Binzhou",,37.36815,117.978964,137,84,21,13,22,11,-,-,0,-,-,20140830170000
406,Binzhou,,37.382639,117.976606,160,96,38,18,31,16,-,-,0,-,-,20140830170000
407,"Bureau of Meteorology, Heze",,35.248625,115.428775,156,64,26,10,7,14,-,-,0,-,-,20140830170000
408,"Sewage treatment plant, Heze",,35.222517,115.531511,152,69,0,8,7,0,-,-,0,-,-,20140830170000
409,"Municipal CPPCC, Heze",,35.237125,115.480591,160,64,25,12,14,15,-,-,0,-,-,20140830170000
410,"Huarun Pharmaceutical Company, Heze",,35.261463,115.524873,132,52,12,18,6,21,-,-,0,-,-,20140830170000
411,"Heze University, Heze",,35.269706,115.460934,159,55,22,10,8,11,-,-,0,-,-,20140830170000
412,Heze,,35.233354,115.486503,164,70,26,18,14,21,-,-,0,-,-,20140830170000
413,"Shiji Park, Shijiazhuang",,38.03155,114.547873,159,64,27,13,12,8,-,-,0,-,-,20140830180000
414,"Xinan College, Shijiazhuang",,38.012764,114.473163,157,79,21,8,10,7,-,-,0,-,-,20140830180000
415,"Chemical College, Shijiazhuang",,38.055503,114.569816,200,133,13,19,11,9,-,-,0,-,-,20140830180000
416,"Worker hospital, Shijiazhuang",,38.051784,114.461209,191,109,32,14,12,10,-,-,0,-,-,20140830180000
417,"Northwest Water Company, Shijiazhuang",,38.140638,114.508038,244,148,25,18,19,11,-,-,0,-,-,20140830180000
418,"High-tech zone, Shijiazhuang",,38.040482,114.610775,241,83,17,17,17,8,-,-,0,-,-,20140830180000
419,"Fenglong Montain, Shijiazhuang",,37.910829,114.360264,194,103,69,5,44,14,-,-,0,-,-,20140830180000
1130,"Zhengding Unicom, Shijiazhuang",,38.159458,114.59879,268,152,25,28,17,13,-,-,0,-,-,20140830180000
1131,"Luancheng Communications, Shijiazhuang",,37.906534,114.638785,169,89,35,37,24,7,-,-,0,-,-,20140830180000
1132,"Gaocheng Experimental School, Shijiazhuang",,38.039518,114.867812,154,87,28,8,12,11,-,-,0,-,-,20140830180000
1133,"Wuji EPA, Shijiazhuang",,38.17862,114.997012,173,76,34,13,7,11,-,-,0,-,-,20140830180000
1134,"Shenze Power Supply Bureau, Shijiazhuang",,38.197674,115.219126,192,122,25,8,7,10,-,-,0,-,-,20140830180000
1135,"Zhaoxian EPA, Shijiazhuang",,37.77171,114.775957,172,93,50,8,18,8,-,-,0,-,-,20140830180000
1136,"Gaoyi County City Hall, Shijiazhuang",,37.623535,114.612729,167,95,36,15,3,7,-,-,0,-,-,20140830180000
1137,"Zanhuang County City Hall, Shijiazhuang",,37.672898,114.398269,184,114,40,30,8,12,-,-,0,-,-,20140830180000
1138,"Jingxing Bureau of Meteorology, Shijiazhuang",,38.038788,114.158406,258,176,42,31,19,17,-,-,0,-,-,20140830180000
1139,"Pingshan Ye River, Shijiazhuang",,38.266657,114.210275,242,259,39,20,11,11,-,-,0,-,-,20140830180000
420,Shijiazhuang,,38.042926,114.520834,241,133,35,19,17,10,-,-,0,-,-,20140830180000
421,"No. 12 middle school, Tangshan",,39.659306,118.190271,68,24,21,11,9,8,-,-,0,-,-,20140830180000
422,"Ceramics Company, Tangshan",,39.669255,118.225185,129,66,8,21,22,15,-,-,0,-,-,20140830180000
423,"Commodities Bureau, Tangshan",,39.642301,118.191265,153,92,10,24,9,13,-,-,0,-,-,20140830180000
424,"Leidazhanzi Station, Tangshan",,39.644375,118.150383,132,54,11,15,4,9,-,-,0,-,-,20140830180000
425,"Supply and marketing cooperatives, Tangshan",,39.632334,118.17232,158,78,10,15,6,14,-,-,0,-,-,20140830180000
1140,"Guye District City Hall, Tangshan",,39.741379,118.460246,187,122,13,19,17,30,-,-,0,-,-,20140830180000
1141,"Kaiping Stations, Tangshan",,39.675246,118.275149,210,154,12,37,18,28,-,-,0,-,-,20140830180000
1142,"Fengnan District City Hall, Tangshan",,39.5834,118.097454,195,120,20,39,10,44,-,-,0,-,-,20140830180000
1143,"Fengrun City Hall, Tangshan",,39.840355,118.175338,185,128,13,27,12,22,-,-,0,-,-,20140830180000
1145,"Caofeidian Xinli  Primary School, Tangshan",,39.291232,118.462182,173,98,24,30,4,2,-,-,0,-,-,20140830180000
1146,"Zunhua EPA, Tangshan",,40.206249,117.997315,171,90,33,31,11,22,-,-,0,-,-,20140830180000
1147,"Qianan No.1 middle school, Tangshan",,40.004248,118.717055,167,79,24,12,7,25,-,-,0,-,-,20140830180000
1266,"Luannan County , Tangshan",,39.511132,118.686928,158,63,24,19,3,7,-,-,0,-,-,20140830180000
1267,"Yutian County , Tangshan",,39.908249,117.751417,179,80,31,33,11,25,-,-,0,-,-,20140830180000
426,Tangshan,,39.632175,118.186472,210,154,20,39,22,44,-,-,0,-,-,20140830180000
427,"City Monitoring Station, Qinhuangdao",,39.958109,119.607773,85,7,5,21,5,9,,,0,,,20140830180000
428,"Beidaihe, Qinhuangdao",,39.829209,119.53194,137,65,12,38,21,10,,,0,,,20140830180000
429,"Shanhai Pass, Qinhuangdao",,40.019298,119.767898,78,42,4,38,2,5,,,0,,,20140830180000
430,"Contruction Plazz, Qinhuangdao",,39.943187,119.542912,99,56,20,25,2,9,,,0,,,20140830180000
431,"City government, Qinhuangdao",,39.93711,119.612769,134,49,4,24,4,9,,,0,,,20140830180000
1148,"Qinglong EPA, Qinhuangdao",,40.419223,118.958002,142,50,43,9,2,8,-,-,0,-,-,20140830180000
1149,"Changli EPA, Qinhuangdao",,39.714369,119.173237,164,73,19,28,7,6,,,0,,,20140830180000
1268,"Lulong County Bureau of Meteorology , Qinhuangdao",,39.901091,118.904857,183,89,25,15,9,15,-,-,0,-,-,20140830180000
432,Qinhuangdao,,39.936485,119.606263,134,56,5,25,5,9,-,-,0,-,-,20140830180000
433,"CongTai Park, Handan",,36.620197,114.501891,160,62,14,6,13,13,-,-,0,-,-,20140830180000
434,"City EPA, Handan",,36.618145,114.518822,184,70,22,33,4,16,-,-,0,-,-,20140830180000
435,"East Sewage Factory, Handan",,36.616064,114.548714,151,94,16,27,9,8,-,-,0,-,-,20140830180000
436,"Mine Hospital, Handan",,36.578149,114.509854,162,78,12,14,6,7,-,-,0,-,-,20140830180000
1150,"Fengfeng mine Inland Revenue Department, Handan",,36.423085,114.245994,183,105,11,15,5,16,-,-,0,-,-,20140830180000
1151,"Shexian EPA, Handan",,36.589084,113.692341,151,55,22,13,2,8,,,0,,,20140830180000
1152,"Ci County Vocational Education Center, Handan",,36.380247,114.390119,158,61,20,18,5,12,,,0,,,20140830180000
1153,"Yongnian government guesthouse, Handan",,36.783297,114.502905,181,120,21,22,61,8,-,-,0,-,-,20140830180000
1154,"Wuan BDA, Handan",,36.686223,114.269009,172,112,10,1,5,25,,,0,,,20140830180000
1085,Handan,,36.625683,114.544812,184,94,22,33,13,16,-,-,0,-,-,20140830180000
437,"Road and Bridge Corporation, Xingtai",,37.096415,114.538799,142,64,20,10,9,7,-,-,0,-,-,20140830180000
438,"Dahuo fontain, Xingtai",,37.097563,114.488001,134,73,10,12,18,14,-,-,0,-,-,20140830180000
439,"Xingtai Normal College, Xingtai",,37.053404,114.531819,132,68,5,6,15,11,-,-,0,-,-,20140830180000
440,"Environment protection office, Xingtai",,37.06253,114.490985,165,89,22,23,18,12,-,-,0,-,-,20140830180000
1155,"Cultural centers within the mound, Xingtai",,37.293569,114.524873,161,73,32,34,21,11,-,-,0,-,-,20140830180000
383,Xingtai,,37.071066,114.510749,165,89,22,23,18,14,-,-,0,-,-,20140830180000
441,"City Monitoring Station, Baoding",,38.871737,115.527103,178,108,35,5,11,17,-,-,0,-,-,20140830180000
442,"Surface water Company, Baoding",,38.842891,115.467326,192,127,18,38,28,13,-,-,0,-,-,20140830180000
443,"Huadian II, Baoding",,38.896748,115.528102,226,146,33,1,8,15,-,-,0,-,-,20140830180000
444,"Reception Center, Baoding",,38.911905,115.477301,196,116,13,40,2,12,-,-,0,-,-,20140830180000
445,"Film Factory, Baoding",,38.876949,115.448383,235,154,21,19,8,15,-,-,0,-,-,20140830180000
446,"Natatorium, Baoding",,38.863815,115.499212,227,152,20,18,2,19,-,-,0,-,-,20140830180000
1156,"Qingyuan City Hall, Baoding",,38.771758,115.502189,351,190,16,15,7,10,-,-,0,-,-,20140830180000
1157,"Xushui EPA, Baoding",,39.025781,115.668023,216,146,16,13,12,13,-,-,0,-,-,20140830180000
1158,"Zhouzhou Monitoring Stations, Baoding",,39.493241,116.040187,232,118,42,8,7,7,-,-,0,-,-,20140830180000
1159,"Gaobeidian EPA, Baoding",,39.3329,115.885891,193,113,41,13,26,9,-,-,0,-,-,20140830180000
447,Baoding,,38.874791,115.471124,235,154,35,40,28,19,-,-,0,-,-,20140830180000
448,"Century Compound, Zhangjiakou",,40.770279,114.909106,68,13,16,10,11,4,-,-,0,-,-,20140830180000
449,"North Pumping Station, Zhangjiakou",,40.874362,114.910119,-,-,-,-,-,-,-,-,0,-,-,20140830180000
450,"Hardware Warehouse, Zhangjiakou",,40.81232,114.887119,65,27,28,15,12,17,-,-,0,-,-,20140830180000
451,"Tanji Chang, Zhangjiakou",,40.796301,114.89811,74,18,29,8,9,5,-,-,0,-,-,20140830180000
1160,"Xiahuayuan EPA, Zhangjiakou",,40.509345,115.302442,112,33,44,9,3,6,-,-,0,-,-,20140830180000
1161,"Huaian EPA, Zhangjiakou",,40.68157,114.398646,137,40,34,9,21,0,-,-,0,-,-,20140830180000
1162,"Huailai Fuqian Primary School, Zhangjiakou",,40.422204,115.530285,93,46,36,5,12,6,-,-,0,-,-,20140830180000
1269,"Zhangbei EPA , Zhangjiakou",,41.166775,114.732369,95,37,37,1,2,3,-,-,0,-,-,20140830180000
1270,"Kangbao County Environmental Protection Agency , Zhangjiakou",,41.837866,114.591246,104,28,10,2,3,4,-,-,0,-,-,20140830180000
1271,"Guyuan County welfare , Zhangjiakou",,41.669984,115.687401,102,27,33,6,4,7,-,-,0,-,-,20140830180000
1272,"Shangyi County Environmental Protection Bureau , Zhangjiakou",,41.086638,113.984688,104,31,35,6,7,10,-,-,0,-,-,20140830180000
1273,"Yuxian Secondary School , Zhangjiakou",,39.84699,114.601986,107,41,50,6,3,4,-,-,0,-,-,20140830180000
1274,"Yang County Vocational Education Center , Zhangjiakou",,40.106343,114.134732,151,55,42,4,2,15,-,-,0,-,-,20140830180000
1275,"Wan county Environmental Protection Agency , Zhangjiakou",,40.770459,114.75033,161,59,39,17,2,5,-,-,0,-,-,20140830180000
473,"Nankou road, Tianjin",,39.174022,117.199688,165,74,14,27,4,8,-,-,0,-,-,20140830180000
1276,"Zhuolu County Environmental Protection Agency , Zhangjiakou",,40.374273,115.221393,107,46,37,3,5,7,-,-,0,-,-,20140830180000
452,Zhangjiakou,,40.825744,114.893659,102,27,36,15,21,17,-,-,0,-,-,20140830180000
453,"Railway, Chengde",,40.917557,117.972331,166,92,43,17,8,12,-,-,0,-,-,20140830180000
454,"Cultural Center, Chengde",,40.974625,117.824437,129,52,41,8,3,12,-,-,0,-,-,20140830180000
455,"Bank of China, Chengde",,40.985582,117.958304,164,71,38,11,19,12,-,-,0,-,-,20140830180000
456,"BDA, Chengde",,40.937567,117.969325,172,91,45,12,10,13,-,-,0,-,-,20140830180000
457,"Ligong, Chengde",,41.012579,117.94428,189,33,33,7,1,11,-,-,0,-,-,20140830180000
1163,"Chengde County EPA, Chengde",,40.776643,118.17646,175,109,75,7,4,15,-,-,0,-,-,20140830180000
1164,"Xinglong County City Hall, Chengde",,40.424301,117.513488,168,76,28,13,4,13,-,-,0,-,-,20140830180000
1165,"Luanping EPA, Chengde",,40.950792,117.350715,166,63,69,1,7,12,-,-,0,-,-,20140830180000
1166,"Fengning County City Hall, Chengde",,41.216739,116.658037,155,41,34,2,5,15,-,-,0,-,-,20140830180000
1277,"Longhua EPA , Chengde",,41.311956,117.739605,157,60,42,7,7,13,-,-,0,-,-,20140830180000
458,Chengde,,40.955652,117.968737,189,92,45,17,19,13,-,-,0,-,-,20140830180000
459,"Municipal EPB, Cangzhou",,38.323507,116.876746,154,85,45,12,14,7,-,-,0,-,-,20140830180000
460,"Cangxian Urban Construction Bureau, Cangzhou",,38.299495,116.890734,137,83,39,16,6,6,-,-,0,-,-,20140830180000
461,"TV Broadcast Station, Cangzhou",,38.325525,116.863761,157,82,35,6,11,8,-,-,0,-,-,20140830180000
1167,"Qing County City Hall, Cangzhou",,38.589643,116.815876,13,89,26,13,14,2,-,-,0,-,-,20140830180000
1168,"Poyoushi City Hall, Cangzhou",,38.089516,116.590575,181,119,1,17,25,5,-,-,0,-,-,20140830180000
1169,"Huanghua Finance Bureau Training Center, Cangzhou",,38.377793,117.343356,180,34,43,22,51,1,-,-,0,-,-,20140830180000
462,Cangzhou,,38.305035,116.844625,157,85,45,16,14,8,-,-,0,-,-,20140830180000
463,"Environmental Monitoring Supervision Center, Langfang",,39.558157,116.720995,165,82,28,8,11,10,-,-,0,-,-,20140830180000
464,"TCM Medical Material Company, Langfang",,39.519096,116.689914,166,76,36,10,5,10,-,-,0,-,-,20140830180000
465,"BDA, Langfang",,39.576175,116.779041,170,94,29,14,7,9,-,-,0,-,-,20140830180000
466,"North China Institute of Aerospace, Langfang",,39.53517,116.743027,-,-,-,-,-,-,-,-,0,-,-,20140830180000
1170,"Guan Party School, Langfang",,39.446185,116.311026,172,90,42,25,6,9,-,-,0,-,-,20140830180000
1171,"Xianghe EPA, Langfang",,39.76725,117.015252,185,100,0,15,9,0,-,-,0,-,-,20140830180000
1172,"Wenan County EPA, Langfang",,38.880927,116.47001,195,109,36,20,15,10,-,-,0,-,-,20140830180000
1173,"Three Rivers Department of Transportation, Langfang",,39.989419,117.091528,184,79,34,17,14,11,-,-,0,-,-,20140830180000
1278,"Yongqing EPA , Langfang",,39.329071,116.510917,161,71,43,7,3,8,-,-,0,-,-,20140830180000
1279,"Dacheng EPA, Langfang",,38.712628,116.665751,209,112,43,17,16,9,-,-,0,-,-,20140830180000
467,Langfang,,39.539148,116.689668,170,94,36,14,11,10,21,18,1013,83,4,20140830180000
468,"Hengshui City EPB, Hengshui",,37.739679,115.695929,163,58,108,3,7,9,-,-,0,-,-,20140830180000
469,"Environmental Monitoring Station, Hengshui",,37.738593,115.648837,153,62,78,13,3,8,-,-,0,-,-,20140830180000
470,"Electrical Machine North Factory, Hengshui",,37.758686,115.70094,127,68,90,7,3,10,-,-,0,-,-,20140830180000
1174,"Anping EPA, Hengshui",,38.238559,115.537988,186,88,44,10,13,219,-,-,0,-,-,20140830180000
1175,"Jizhou EPA, Hengshui",,37.548552,115.58679,187,72,86,11,8,13,-,-,0,-,-,20140830180000
1280,"Zaoqiang EPA, Hengshui",,37.520698,115.714936,182,91,131,10,11,9,-,-,0,-,-,20140830180000
1281,"Wuyi EPA, Hengshui",,37.801554,115.898697,181,100,65,15,17,9,-,-,0,-,-,20140830180000
1282,"Wuqiang EPA , Hengshui",,38.03557,115.959767,170,80,65,8,15,14,-,-,0,-,-,20140830180000
1283,"Raoyang EPA , Hengshui",,38.230652,115.741041,206,98,71,5,21,10,-,-,0,-,-,20140830180000
1284,"Gucheng County , Hengshui",,37.347569,115.966707,182,80,102,7,13,11,-,-,0,-,-,20140830180000
471,Hengshui,,37.739562,115.676066,163,68,108,13,7,10,-,-,0,-,-,20140830180000
1176,"Xinji City Hall, Xinji",,37.949711,115.230084,177,74,81,10,15,8,-,-,0,-,-,20140830180000
474,"Qinjian street, Tianjin",,39.166588,117.15104,164,76,15,22,6,8,-,-,0,-,-,20140830180000
475,"Nanjing Road, Tianjin",,39.120958,117.195112,170,70,17,27,8,9,-,-,0,-,-,20140830180000
476,"Dazhigu No.8 road, Tianjin",,39.111811,117.25147,160,70,13,31,4,7,-,-,0,-,-,20140830180000
477,"Qianjin street, Tianjin",,39.09371,117.207981,161,71,17,21,8,8,-,-,0,-,-,20140830180000
478,"Huaihe street, Tianjin",,39.227167,117.191293,161,84,11,21,4,7,-,-,0,-,-,20140830180000
479,"Xiangshan street, Tianjin",,39.134752,117.275125,168,55,20,13,6,9,-,-,0,-,-,20140830180000
480,"Yuejin Road, Tianjin",,39.088177,117.320884,163,75,10,28,3,9,-,-,0,-,-,20140830180000
482,"No.4 street, Tianjin",,39.035228,117.713424,154,66,7,31,3,6,-,-,0,-,-,20140830180000
483,"Yongming road, Tianjin",,38.840392,117.463805,153,64,24,11,3,7,-,-,0,-,-,20140830180000
484,"Xinhua street, Tianjin",,39.138671,117.010083,172,102,22,35,13,13,-,-,0,-,-,20140830180000
485,"Jingu Road, Tianjin",,38.985659,117.381254,156,92,20,20,3,19,-,-,0,-,-,20140830180000
486,"Tanggu Yingkou street, Tianjin",,39.021768,117.656454,149,57,13,36,5,10,-,-,0,-,-,20140830180000
487,"Hexi Yijing road, Tianjin",,39.248392,117.798043,152,53,25,10,4,9,-,-,0,-,-,20140830180000
488,"Jianshe Road, Tianjin",,39.720075,117.310588,154,66,8,9,2,16,-,-,0,-,-,20140830180000
489,"Quanzhou South road, Tianjin",,39.373857,117.050329,159,70,40,14,9,15,-,-,0,-,-,20140830180000
490,"Donghuan road, Tianjin",,40.043144,117.451062,151,53,40,7,4,19,-,-,0,-,-,20140830180000
491,"Tuanpowa, Tianjin",,38.920418,117.16299,168,77,24,18,4,10,-,-,0,-,-,20140830180000
493,"Beiwei No.2 road, Tianjin",,38.943857,116.920624,169,79,34,15,8,12,-,-,0,-,-,20140830180000
494,"Haitai fazhan No.2 road, Tianjin",,39.079608,117.096583,170,88,5,22,5,14,-,-,0,-,-,20140830180000
495,"Hangtian road, Tianjin",,39.152244,117.381309,170,57,13,18,2,7,-,-,0,-,-,20140830180000
496,"Hanbei road, Tianjin",,39.159768,117.770477,117,48,40,9,7,14,-,-,0,-,-,20140830180000
497,"Baobai highway, Tianjin",,39.51757,117.349635,129,95,31,10,2,12,-,-,0,-,-,20140830180000
498,Tianjin,,39.085164,117.207281,170,71,17,27,8,9,-,-,0,-,-,20140830180000
499,"Wolong bridge, Hangzhou",,30.24371,120.132762,158,79,35,22,5,10,-,-,0,-,-,20140830180000
500,"Hemu primary school, Hangzhou",,30.309669,120.124507,167,98,38,49,13,11,-,-,0,-,-,20140830180000
501,"Zhejiang Agricultural University, Hangzhou",,30.265601,120.197583,181,129,30,42,11,11,-,-,0,-,-,20140830180000
502,"Xiasha, Hangzhou",,30.303516,120.352618,160,90,37,7,8,8,-,-,0,-,-,20140830180000
503,"Yunqi, Hangzhou",,30.178555,120.093142,151,76,24,15,4,11,-,-,0,-,-,20140830180000
504,"Xixi, Hangzhou",,30.272425,120.068144,164,78,23,30,5,12,-,-,0,-,-,20140830180000
505,"Chengxiang town, Hangzhou",,30.179493,120.274184,179,129,41,48,26,12,-,-,0,-,-,20140830180000
506,"Qiandao lake, Hangzhou",,29.638139,119.031092,99,46,22,5,4,6,-,-,0,-,-,20140830180000
507,"Linping town, Hangzhou",,30.415948,120.305059,151,14,38,8,3,9,-,-,0,-,-,20140830180000
509,"No.2 Middle School, Hangzhou",,30.044303,119.956356,164,96,16,10,6,13,-,-,0,-,-,20140830180000
510,"City Hall, Hangzhou",,30.234185,119.723503,163,81,47,12,10,9,-,-,0,-,-,20140830180000
511,"No. 4 middle school, Hangzhou",,30.229428,119.699591,154,70,30,7,4,11,-,-,0,-,-,20140830180000
512,Hangzhou,,30.271756,120.159765,177,112,33,45,23,12,-,-,0,-,-,20140830180000
513,"City Station, Wenzhou",,28.009715,120.679129,99,43,14,15,7,5,-,-,0,-,-,20140830180000
514,"Ouhai, Wenzhou",,28.001846,120.641982,119,54,8,36,2,7,-,-,0,-,-,20140830180000
515,"Longwan, Wenzhou",,27.968122,120.768393,104,54,30,22,6,7,-,-,0,-,-,20140830180000
516,"Nanpu, Wenzhou",,27.981763,120.683685,114,51,13,21,6,10,-,-,0,-,-,20140830180000
517,Wenzhou,,27.990985,120.703425,97,53,27,18,6,7,-,-,0,-,-,20140830180000
518,"Monitoring station, Jiaxing",,30.75437,120.767373,171,117,36,14,11,9,-,-,0,-,-,20140830180000
519,"Jiaxing University, Jiaxing",,30.745099,120.735004,114,0,40,8,9,8,-,-,0,-,-,20140830180000
520,"Qinghe Primary School, Jiaxing",,30.775685,120.747969,74,46,38,10,10,5,-,-,0,-,-,20140830180000
521,Jiaxing,,30.751627,120.762862,171,117,41,14,11,9,-,-,0,-,-,20140830180000
522,"Chengbei water plant, Huzhou",,30.891155,120.096593,76,51,37,23,10,8,-,-,0,-,-,20140830180000
523,"Jishan new village, Huzhou",,30.859939,120.120168,104,48,42,24,10,10,-,-,0,-,-,20140830180000
524,"Town west water plant, Huzhou",,30.862371,120.084577,99,60,30,20,8,9,-,-,0,-,-,20140830180000
525,Huzhou,,30.892304,120.091694,104,60,42,24,10,10,-,-,0,-,-,20140830180000
526,"Donghu middle school, Shaoxing",,29.990447,120.647547,144,58,41,11,7,10,-,-,0,-,-,20140830180000
527,"City EPA station, Shaoxing",,30.001695,120.584318,172,85,49,29,13,4,-,-,0,-,-,20140830180000
528,"Chengdong BDA committee, Shaoxing",,29.986643,120.613578,154,55,44,12,11,4,-,-,0,-,-,20140830180000
529,"Paojiang station, Shaoxing",,30.07574,120.62154,122,54,48,24,21,7,-,-,0,-,-,20140830180000
530,"Shaoxing technical school, Shaoxing",,29.930983,120.577131,153,65,11,17,8,10,-,-,0,-,-,20140830180000
531,"Library, Shaoxing",,29.706266,120.253183,164,91,26,14,2,15,-,-,0,-,-,20140830180000
532,"Transporation management station, Shaoxing",,29.726405,120.221602,159,98,24,10,6,20,-,-,0,-,-,20140830180000
533,"Dongpu Town Governement, Shaoxing",,30.049601,120.539893,149,67,25,23,10,12,-,-,0,-,-,20140830180000
534,Shaoxing,,29.993122,120.590182,172,85,49,29,21,16,-,-,0,-,-,20140830180000
535,"City Monitoring Station, Jinhua",,29.100031,119.690373,180,90,38,30,11,11,-,-,0,-,-,20140830180000
536,"No.15 middle school, Jinhua",,29.074022,119.652121,193,106,47,16,20,10,-,-,0,-,-,20140830180000
537,"No.4 middle school, Jinhua",,29.110109,119.653654,175,91,41,14,20,8,-,-,0,-,-,20140830180000
538,"Beiyuan, Jinhua",,29.332898,120.083351,168,87,35,17,15,12,-,-,0,-,-,20140830180000
539,"Jiangdong, Jinhua",,29.302486,120.095291,172,83,45,22,19,13,-,-,0,-,-,20140830180000
540,Jinhua,,29.076083,119.65215,193,106,47,30,20,11,-,-,0,-,-,20140830180000
541,"EPA building, Quzhou",,28.937291,118.876081,144,62,24,28,17,6,-,-,0,-,-,20140830180000
542,"Experimental school, Quzhou",,28.961502,118.880916,139,51,19,14,7,4,-,-,0,-,-,20140830180000
543,"Quzhou University, Quzhou",,28.971452,118.860052,95,41,4,12,5,9,-,-,0,-,-,20140830180000
544,Quzhou,,28.966994,118.864252,144,62,24,28,17,9,-,-,0,-,-,20140830180000
545,"Putuo east port, Zhoushan",,29.951412,122.317679,53,20,29,11,3,4,-,-,0,-,-,20140830180000
546,"Dinghai tanfeng, Zhoushan",,30.018014,122.126566,42,21,30,5,3,7,-,-,0,-,-,20140830180000
547,Zhoushan,,29.983049,122.210763,61,33,30,11,3,7,-,-,0,-,-,20140830180000
548,"Taizhou EPA building, Taizhou",,28.651216,121.42331,134,59,28,13,4,9,-,-,0,-,-,20140830180000
549,"Luqiao Tian Yang Wang, Taizhou",,28.574364,121.381194,97,45,26,13,2,7,-,-,0,-,-,20140830180000
550,"Huangyan EPA building, Taizhou",,28.656151,121.285064,97,39,29,17,5,9,-,-,0,-,-,20140830180000
551,"Yu Zhuang Qian, Lishui",,28.419638,119.883884,76,31,20,15,2,5,-,-,0,-,-,20140830180000
552,"Monitoring station building, Lishui",,28.444379,119.923103,78,35,18,9,2,7,-,-,0,-,-,20140830180000
553,"Liandu primary school, Lishui",,28.450912,119.939332,91,52,13,14,1,7,-,-,0,-,-,20140830180000
554,Lishui,,28.464224,119.927201,91,52,20,15,2,7,-,-,0,-,-,20140830180000
1248,Jingningxian,,27.977454,119.634837,74,47,2,8,2,6,-,-,0,-,-,20140830180000
555,Taigu Primary School,,29.858177,121.593738,95,55,25,14,8,7,-,-,0,-,-,20140830180000
556,Qianhu shuihan,,29.862459,121.5328,149,65,24,30,6,11,-,-,0,-,-,20140830180000
557,Sanjiang secondary schools,,29.884687,121.562713,93,51,27,29,12,8,-,-,0,-,-,20140830180000
558,Longsai Hospital,,29.949294,121.720671,122,50,29,16,15,6,-,-,0,-,-,20140830180000
559,Beilun District EPB,,29.899544,121.827597,70,31,27,14,4,6,-,-,0,-,-,20140830180000
560,Wanli University,,29.896155,121.541154,124,64,30,18,8,8,-,-,0,-,-,20140830180000
561,Qianhu water plant,,29.788156,121.652415,70,30,34,6,138,5,-,-,0,-,-,20140830180000
562,Municipal management station,,29.893743,121.620269,112,56,22,13,39,6,-,-,0,-,-,20140830180000
1177,Daxie Literary Museum,,29.891281,121.952741,57,40,21,17,3,5,-,-,0,-,-,20140830180000
1178,Cixi EPB,,30.159852,121.242331,68,35,42,8,5,12,-,-,0,-,-,20140830180000
1179,Cixi Experimently Primary School,,30.174341,121.262169,72,37,45,8,6,8,-,-,0,-,-,20140830180000
1181,"Qilupu Water Company, Yuyao",,30.039112,121.133416,-,-,-,-,-,-,-,-,0,-,-,20140830180000
1182,Fenghua EPB,,29.660537,121.414074,93,45,32,9,4,8,-,-,0,-,-,20140830180000
1183,"Yuelong station, Ninghai",,29.290223,121.439263,99,99,41,9,6,7,-,-,0,-,-,20140830180000
1184,"Wenfeng Primary School, Xiangshan",,29.470841,121.895054,53,20,31,4,2,5,-,-,0,-,-,20140830180000
1185,"Chengnan Primary School, Ninghai",,29.282647,121.428839,97,56,39,7,6,7,-,-,0,-,-,20140830180000
1186,"Xingang Primary School, Xiangshan",,29.199718,121.935879,57,44,42,7,3,5,-,-,0,-,-,20140830180000
1294,Ningbo,,29.865766,121.548164,124,64,34,29,138,8,-,-,0,-,-,20140830180000
1187,Fuyang,,30.046157,119.96468,163,100,13,13,9,13,-,-,0,-,-,20140830180000
1188,Yiwu,,29.304353,120.079794,172,87,45,22,19,13,-,-,0,-,-,20140830180000
1189,Zhuji,,29.711185,120.240748,164,98,26,14,6,20,-,-,0,-,-,20140830180000
563,"Shanxi Road , Nanjing",,32.06795,118.779216,46,18,19,13,6,6,-,-,0,-,-,20140830180000
564,"Ruijin Road , Nanjing",,32.029321,118.80817,82,40,18,12,7,7,-,-,0,-,-,20140830180000
565,"Xuanwu Lake, Nanjing",,32.075423,118.800188,59,16,16,18,8,4,-,-,0,-,-,20140830180000
566,"Olympic Center, Nanjing",,32.007171,118.742217,76,45,21,7,2,4,-,-,0,-,-,20140830180000
567,"Xianlin University Town , Nanjing",,32.106958,118.919882,53,24,18,5,3,5,-,-,0,-,-,20140830180000
568,Nanjing,,32.058179,118.802061,68,23,18,14,9,7,-,-,0,-,-,20140830180000
569,"Shangfang hill , Suzhou",,31.24502,120.565211,80,41,23,20,5,4,-,-,0,-,-,20140830180000
570,"Wuzhong District , Suzhou",,31.268105,120.61717,61,62,5,17,4,6,-,-,0,-,-,20140830180000
571,"Suzhou New District , Suzhou",,31.297277,120.547262,70,30,17,17,11,6,-,-,0,-,-,20140830180000
572,"Suzhou Industrial Area, Suzhou",,31.307603,120.673257,80,35,28,7,8,5,-,-,0,-,-,20140830180000
573,"Xiangcheng district, Suzhou",,31.368674,120.645209,57,17,26,16,11,7,-,-,0,-,-,20140830180000
574,Suzhou,,31.296701,120.589493,70,38,19,15,8,6,-,-,0,-,-,20140830180000
575,"South suburb , Nantong",,31.957836,120.917218,80,36,26,14,13,3,-,-,0,-,-,20140830180000
576,"Xinghu park, Nantong",,31.927873,120.944254,87,51,28,12,24,4,-,-,0,-,-,20140830180000
577,"Zilang school, Nantong",,32.039638,120.814358,99,44,28,14,6,0,-,-,0,-,-,20140830180000
578,Nantong,,31.978005,120.898555,87,51,28,12,24,6,-,-,0,-,-,20140830180000
579,Lianyungang,,34.595509,119.226814,152,84,21,27,10,7,8,8,1016,96,0,20140830180000
580,"Hongmen police substation, Lianyungang",,34.588692,119.146693,55,22,35,6,4,4,-,-,0,-,-,20140830180000
581,"Xugou Nuclear Expert Village , Lianyungang",,34.749957,119.373707,59,31,24,11,12,5,-,-,0,-,-,20140830180000
582,"Hengrui pharmaceutical company, BDA, Lianyungang",,34.697574,119.353668,61,52,34,6,4,6,-,-,0,-,-,20140830180000
583,"City Monitoring Station, Lianyungang",,34.586791,119.186929,46,24,33,6,3,4,-,-,0,-,-,20140830180000
584,"Yellow river new village , Xuzhou",,34.271542,117.177241,50,35,27,9,32,6,-,-,0,-,-,20140830180000
585,"Tongshan Veterinary Hospital , Xuzhou",,34.307086,117.197766,55,23,24,13,14,4,-,-,0,-,-,20140830180000
586,"New Town , Xuzhou",,34.213992,117.261718,50,21,23,6,3,9,-,-,0,-,-,20140830180000
587,"Taoyuan road, Xuzhou",,34.289822,117.249721,55,24,25,6,4,6,-,-,0,-,-,20140830180000
588,"Agricultural Science Academy , Xuzhou",,34.27655,117.299079,57,35,14,14,13,5,-,-,0,-,-,20140830180000
589,"Tongshan EPA, Xuzhou",,34.179384,117.171798,61,29,24,4,10,4,-,-,0,-,-,20140830180000
590,Xuzhou,,34.20346,117.289825,55,27,26,14,19,9,-,-,0,-,-,20140830180000
591,Yangzhou,,32.39233,119.418446,159,69,10,19,10,5,11,9,0,90,6,20140830180000
592,"Hanjiang Monitoring Station, Yangzhou",,32.374218,119.394484,65,18,28,6,4,3,-,-,0,-,-,20140830180000
593,"No. 4 Hospital, Yangzhou",,32.401394,119.44444,57,30,28,4,7,0,-,-,0,-,-,20140830180000
594,"City Monitoring Station, Yangzhou",,32.406588,119.41591,65,29,21,6,15,3,-,-,0,-,-,20140830180000
595,"University Town , Wuxi",,31.484752,120.273571,55,31,27,7,10,4,-,-,0,-,-,20140830180000
596,"Shibei High School , Wuxi",,31.619969,120.279584,85,46,22,16,17,4,-,-,0,-,-,20140830180000
597,"Yuhong Elementary School , Wuxi",,31.561155,120.249588,68,31,19,12,10,8,-,-,0,-,-,20140830180000
598,Wuxi,,31.488746,120.31575,82,27,24,12,9,8,-,-,0,-,-,20140830180000
599,Changzhou,,31.808037,119.979205,172,86,6,22,36,13,11,9,0,88,5,20140830180000
600,"Chengjian School, Changzhou",,31.776476,119.937681,72,38,19,14,15,6,-,-,0,-,-,20140830180000
601,"Changzhou Engineering Institute , Changzhou",,31.806828,119.966724,55,32,29,13,15,16,-,-,0,-,-,20140830180000
602,"Wujin Monitoring Station, Changzhou",,31.701788,119.939676,80,40,17,21,16,9,-,-,0,-,-,20140830180000
603,"City Monitoring Station, Changzhou",,31.777201,119.979426,74,33,19,13,14,7,-,-,0,-,-,20140830180000
604,Zhenjiang,,32.18597,119.431281,170,79,4,39,15,13,9,8,0,93,5,20140830180000
605,"New District Administrative office , Zhenjiang",,32.186174,119.685021,53,29,29,8,6,10,-,-,0,-,-,20140830180000
606,"Vocational Education Center , Zhenjiang",,32.212973,119.496253,59,35,18,14,4,7,-,-,0,-,-,20140830180000
607,"Dantu Monitoring Station , Zhenjiang",,32.130026,119.435432,53,64,34,10,10,7,-,-,0,-,-,20140830180000
608,"City Monitoring Station, Zhenjiang",,32.202178,119.439766,38,45,25,15,14,7,-,-,0,-,-,20140830180000
609,"Gaogang Adminstrative office , Taizhoushi",,32.300768,119.886757,87,35,14,8,9,5,-,-,0,-,-,20140830180000
610,"Students Innovation Park , Taizhoushi",,32.461672,119.892761,151,87,29,2,10,3,-,-,0,-,-,20140830180000
611,Taizhoushi,,32.453555,119.927852,93,54,30,14,24,9,-,-,0,-,-,20140830180000
612,"Yancheng power station , Yancheng",,33.400859,120.123067,72,35,40,1,3,3,-,-,0,-,-,20140830180000
613,Yancheng,,33.345939,120.168504,144,52,30,5,3,7,11,10,1016,95,4,20140830180000
614,"Wenfeng Middle School , Yancheng",,33.370531,120.134041,61,33,19,8,4,13,-,-,0,-,-,20140830180000
615,"BDA Management Committe, Yancheng",,33.393191,120.22978,63,37,28,11,2,4,-,-,0,-,-,20140830180000
616,"City Monitoring Station, Yancheng",,33.390623,120.164423,65,30,34,2,2,4,-,-,0,-,-,20140830180000
617,Suqian,,33.960666,118.281004,160,87,24,7,5,7,11,10,0,91,6,20140830180000
618,"Suqian College , Suqian",,33.951472,118.298523,46,20,24,8,5,5,-,-,0,-,-,20140830180000
619,"Suqian Middle School , Suqian",,33.95784,118.249505,50,38,19,4,6,4,-,-,0,-,-,20140830180000
620,"Suyu District Environmental Protection Agency , Suqian",,33.94932,118.326569,53,18,25,4,8,5,-,-,0,-,-,20140830180000
621,"City Monitoring Station, Suqian",,33.956982,118.277022,57,27,13,1,4,5,-,-,0,-,-,20140830180000
622,Taizhou,,28.653436,121.425185,132,59,24,17,5,9,-,-,0,-,-,20140830180000
623,Donghu Liyuan,,30.572324,114.377844,154,69,46,2,12,9,-,-,0,-,-,20140830180000
624,Yuehu Lake,,30.554662,114.256937,156,73,40,19,7,9,-,-,0,-,-,20140830180000
625,Hankou Huaqiao ,,30.61724,114.287652,164,80,34,21,5,11,-,-,0,-,-,20140830180000
626,Wuchang Ziyang ,,30.530801,114.309438,155,93,38,18,2,7,-,-,0,-,-,20140830180000
627,Qingshan Ganghua,,30.622435,114.375599,162,83,43,14,18,9,-,-,0,-,-,20140830180000
628,Dunkou Xinou,,30.480091,114.162176,151,74,35,11,3,7,-,-,0,-,-,20140830180000
629,Donghu Gaoxin,,30.48095,114.40724,1,74,46,11,4,8,-,-,0,-,-,20140830180000
630,Wujianshan,,30.63114,114.135907,159,80,29,25,2,9,-,-,0,-,-,20140830180000
631,Yuanshun Road,,30.297142,113.858587,154,59,33,12,3,6,-,-,0,-,-,20140830180000
632,Wuhan,,30.590689,114.310838,164,93,46,21,18,20,-,-,0,-,-,20140830180000
1190,"Silingsan Factory, Yichang",,30.713288,111.306585,1,1,5,0,0,9,-,-,0,-,-,20140830180000
633,Yichang,,30.689528,111.292131,1,1,8,0,0,11,-,-,0,-,-,20140830180000
633,Yichang,,30.689528,111.292131,1,1,8,0,0,11,-,-,0,-,-,20140830180000
1191,"City Library , Jingzhou",,30.31494,112.260844,162,70,24,7,5,13,-,-,0,-,-,20140830180000
1192,"City committee communist party school, Jingzhou",,30.35054,112.20743,158,96,13,9,4,12,-,-,0,-,-,20140830180000
1193,"kerong EPA, Jingzhou",,30.302965,112.29443,162,95,20,7,6,11,-,-,0,-,-,20140830180000
634,Jingzhou,,30.332608,112.245451,162,96,24,9,6,13,-,-,0,-,-,20140830180000
634,Jingzhou,,30.332608,112.245451,162,96,24,9,6,13,-,-,0,-,-,20140830180000
635,Huangshi,,30.19723,115.043908,161,74,39,17,11,23,26,-,1017,96,4,20140830180000
635,Huangshi,,30.19723,115.043908,161,74,39,17,11,23,26,-,1017,96,4,20140830180000
1194,"Chenjiaying, Huangshi",,30.232823,115.067923,153,72,28,17,10,23,25,,1016,96,2,20140830180000
1195,"Chenjiawan , Huangshi",,30.200422,115.082138,155,67,36,16,7,20,25,,1016,96,2,20140830180000
1196,"Xinxialu, Huangshi",,30.17332,114.954357,151,69,39,14,11,16,25,,1016,96,2,20140830180000
1197,"Tie montian, Huangshi",,30.203885,114.906439,161,74,28,12,3,13,25,,1016,96,2,20140830180000
1198,"BDA, Huangshi",,30.207491,115.031739,154,70,35,1,7,21,25,,1016,96,2,20140830180000
636,Shiyan,,32.627208,110.803311,38,19,18,9,18,4,22,,948,99,1,20140830180000
636,Shiyan,,32.627208,110.803311,38,19,18,9,18,4,22,,948,99,1,20140830180000
1199,"Wudang Mountain , Shiyan",,32.392921,111.047655,13,6,21,1,2,7,20,,946,99,1,20140830180000
1200,"Riverside Village , Shiyan",,32.647286,110.785335,13,18,18,4,3,4,22,,948,92,1,20140830180000
1201,"Liujiagou , Shiyan",,32.636732,110.731129,13,9,15,9,18,0,22,,948,92,1,20140830180000
1202,"Yunyang County District automatic air station , Shiyan",,32.833065,110.816809,-,-,-,-,-,-,-,,0,-,-,20140830180000
637,Xiangyang,,32.007029,112.128496,63,11,17,6,4,7,23,,1015,100,3,20140830180000
637,Xiangyang,,32.007029,112.128496,63,11,17,6,4,7,23,,1015,100,3,20140830180000
638,Ezhou,,30.389244,114.899884,161,77,36,17,24,36,26,-,1024,95,3,20140830180000
638,Ezhou,,30.389244,114.899884,161,77,36,17,24,36,26,-,1024,95,3,20140830180000
1203,"City government, Ezhou",,30.391836,114.892822,157,66,27,17,17,16,25,,1024,95,3,20140830180000
1204,"Zhaojiaba, Ezhou",,30.368966,114.90365,159,73,30,10,10,22,25,,1024,95,3,20140830180000
1205,"Fankou BDA, Ezhou",,30.410759,114.818225,161,77,36,12,24,36,25,,1024,95,3,20140830180000
639,Jingmen,,31.033208,112.205093,1,-,27,-,-,8,-,22,0,-,-,20140830180000
639,Jingmen,,31.033208,112.205093,1,-,27,-,-,8,-,22,0,-,-,20140830180000
640,Xiaogan,,30.922089,113.922387,168,91,23,22,5,16,25,-,1013,88,4,20140830180000
640,Xiaogan,,30.922089,113.922387,168,91,23,22,5,16,25,-,1013,88,4,20140830180000
1206,"wenhua street, Shenyang , Xiaogan",,30.925856,113.92104,-,91,23,22,5,16,25,-,1013,88,4,20140830180000
1207,"Dongcheng District , Huludao , Xiaogan",,30.917963,113.943904,168,89,23,1,2,4,25,-,1013,88,4,20140830180000
641,Huanggang,,30.45124,114.877378,157,76,44,19,23,19,26,-,1024,95,3,20140830180000
641,Huanggang,,30.45124,114.877378,157,76,44,19,23,19,26,-,1024,95,3,20140830180000
1208,"Dazhou Island, Huanggang",,30.446205,114.900323,157,76,36,19,23,19,25,,1024,95,3,20140830180000
1209,"Workers Center , Huanggang",,30.469244,114.912504,152,62,44,7,10,19,25,,1024,95,3,20140830180000
642,Xianning,,29.838978,114.327898,144,63,29,6,5,12,27,-,989,92,1,20140830180000
642,Xianning,,29.838978,114.327898,144,63,29,6,5,12,27,-,989,92,1,20140830180000
1210,"Municipal Development and Reform Commission , Xianning",,29.818645,114.328461,122,58,21,5,5,12,27,,989,92,1,20140830180000
1211,"Xianan District Governement, Xianning",,29.51107,114.181864,107,59,12,10,4,15,26,,997,89,2,20140830180000
1212,"Yangtze River Industrial Park , Xianning",,29.883098,114.32909,144,63,29,5,5,11,27,,989,92,1,20140830180000
1213,"Qianshan Park, Xianning",,29.815351,114.328689,109,53,16,3,4,11,27,,989,92,1,20140830180000
644,Enshi,,30.292138,109.484562,122,-,47,-,-,29,-,21,0,-,-,20140830180000
644,Enshi,,30.269587,109.493042,122,-,47,-,-,29,-,21,0,-,-,20140830180000
645,Xiantao,,30.360228,113.460616,99,-,19,-,-,11,-,24,0,-,-,20140830190000
645,Xiantao,,30.360228,113.460616,99,-,19,-,-,11,-,24,0,-,-,20140830190000
646,Qianjiang,,30.399387,112.905661,1,-,27,-,-,8,-,22,0,-,-,20140830190000
646,Qianjiang,,30.399387,112.905661,1,-,27,-,-,8,-,22,0,-,-,20140830190000
647,Tianmen,,30.661027,113.172549,99,-,19,-,-,11,-,22,0,-,-,20140830190000
647,Tianmen,,30.661027,113.172549,99,-,19,-,-,11,-,22,0,-,-,20140830190000
1088,Shennongjia,,31.741307,110.685554,109,-,13,-,-,6,-,21,0,-,-,20140830190000
1088,Shennongjia,,31.741307,110.685554,109,-,13,-,-,6,-,21,0,-,-,20140830190000
1214,"Xiangcheng Yundong Street, Xiangfan",,32.017716,112.16102,59,17,18,4,3,7,23,,1013,100,3,20140830190000
655,"City Environmental Monitoring Station, Baotou",,40.657201,109.886738,93,49,26,17,9,8,,,0,,,20140830190000
656,"Donghe EPB, Baotou",,40.586213,110.002224,95,47,26,14,9,12,,,0,,,20140830190000
657,"Baotou shopping mall, Baotou",,40.508334,109.819085,149,53,23,18,9,8,,,0,,,20140830190000
658,"Huilong logistics, Baotou",,40.633436,109.879821,78,51,27,15,7,7,,,0,,,20140830190000
659,Baotou,,40.658597,109.846051,149,53,33,20,20,12,-,-,0,-,-,20140830190000
660,"Huatai Automobile Mall, Eerduosi",,39.837048,109.972209,78,25,44,7,2,3,-,-,0,-,-,20140830190000
661,"Olympus Garden, Eerduosi",,39.789171,109.987742,102,40,39,7,17,7,-,-,0,-,-,20140830190000
662,Eerduosi,,39.609284,109.78704,102,40,218,7,17,7,-,-,0,-,-,20140830190000
663,"Tianyi Road, Chifeng",,42.275552,118.88507,160,73,61,10,19,5,-,-,0,-,-,20140830190000
664,"Songshan No.1 Middle School, Chifeng",,42.329307,118.793045,162,83,46,12,11,9,-,-,0,-,-,20140830190000
665,"Hada Street, Chifeng",,42.280714,118.988235,157,75,26,7,10,12,-,-,0,-,-,20140830190000
666,"Songshan Road, Chifeng",,42.171487,118.89501,156,73,73,7,35,6,-,-,0,-,-,20140830190000
667,Chifeng,,42.259752,118.893027,162,83,73,12,35,12,-,-,0,-,-,20140830190000
674,Fuzhou,,26.071406,119.301294,55,37,64,9,3,5,-,-,0,-,-,20140830190000
675,"Xidong, Xiamen",,24.815345,118.161848,72,35,86,8,2,5,-,-,0,-,-,20140830190000
676,"Hongwen, Xiamen",,24.473969,118.156281,50,12,101,6,7,9,-,-,0,-,-,20140830190000
677,"Gulangyu, Xiamen",,24.443168,118.068571,55,20,108,7,4,5,-,-,0,-,-,20140830190000
678,"Huli, Xiamen",,24.51235,118.099146,65,12,157,17,5,4,-,-,0,-,-,20140830190000
679,Xiamen,,24.477187,118.094402,55,20,157,17,5,5,-,-,0,-,-,20140830190000
680,"Qingyuan Montain, Quanzhou",,24.939503,118.598337,55,21,31,4,5,5,-,-,0,-,-,20140830190000
681,"Tushan Street, Quanzhou",,24.90867,118.586397,68,32,16,4,5,5,-,-,0,-,-,20140830190000
682,"Wanan, Quanzhou",,24.304154,118.070903,80,39,59,2,5,5,-,-,0,-,-,20140830190000
683,Quanzhou,,24.87179,118.68001,80,39,59,10,5,5,-,-,0,-,-,20140830190000
687,"Jiancaoping, Taiyuan",,37.887889,112.528383,144,69,23,20,15,9,-,-,0,-,-,20140830190000
688,"Jianhe, Taiyuan",,37.910779,112.579258,142,62,27,12,10,8,-,-,0,-,-,20140830190000
689,"Shanglan, Taiyuan",,38.011589,112.440679,119,65,31,7,13,6,-,-,0,-,-,20140830190000
690,"Jinyuan, Taiyuan",,37.713164,112.475552,144,66,15,16,15,9,-,-,0,-,-,20140830190000
691,"Xiaodian, Taiyuan",,37.782137,112.483533,151,63,12,8,17,10,-,-,0,-,-,20140830190000
692,"Taoyuan, Taiyuan",,37.869752,112.543332,159,76,22,19,19,12,-,-,0,-,-,20140830190000
693,"Wucheng, Taiyuan",,37.819998,112.576252,151,71,21,12,8,11,-,-,0,-,-,20140830190000
694,"Nanzhai, Taiyuan",,37.985902,112.555312,155,79,28,13,11,15,-,-,0,-,-,20140830190000
695,"Jinsheng, Taiyuan",,37.781205,112.494494,164,72,23,16,16,10,-,-,0,-,-,20140830190000
696,Taiyuan,,37.871115,112.555178,159,76,23,20,19,12,-,-,0,-,-,20140830190000
697,"Monitoring station, Changzhi",,36.194062,113.10389,142,57,9,11,19,10,-,-,0,-,-,20140830190000
698,"Auditing bureau, Changzhi",,36.212787,113.095221,151,54,13,21,7,12,-,-,0,-,-,20140830190000
699,"Qinghua station, Changzhi",,36.154328,113.116385,149,62,13,19,3,14,-,-,0,-,-,20140830190000
700,"No.8 middle school, Changzhi",,36.185451,113.099481,122,58,10,22,15,19,,,0,,,20140830190000
701,Changzhi,,36.195553,113.12292,151,57,25,21,19,12,-,-,0,-,-,20140830190000
702,"Yungang Hotel, Datong",,40.076997,113.278079,72,40,33,9,9,10,-,-,0,-,-,20140830190000
703,"college of education, Datong",,40.085608,113.27808,97,34,29,12,10,16,-,-,0,-,-,20140830190000
704,Datong,,40.078016,113.307143,85,27,36,8,9,6,-,-,0,-,-,20140830190000
705,"Technical Schools, Linfen",,36.07131,111.509046,78,19,22,10,3,28,-,-,0,-,-,20140830190000
706,"Municipal party committee, Linfen",,36.087425,111.508771,57,40,18,1,6,15,-,-,0,-,-,20140830190000
1073,"City Monitoring Station, Linfen",,36.097676,111.518739,76,41,17,15,5,13,-,-,0,-,-,20140830190000
707,"South Airport, Linfen",,36.041614,111.497968,68,23,7,6,1,16,-,-,0,-,-,20140830190000
708,Linfen,,36.087944,111.525098,78,41,22,15,6,28,-,-,0,-,-,20140830190000
709,"City center, Yangquan",,37.848012,113.578636,200,118,45,-,-,14,-,-,0,-,-,20140830190000
710,Yangquan,,37.857475,113.586921,158,118,32,43,21,21,-,-,0,-,-,20140830190000
711,"Water Company, Jincheng",,35.504787,112.857245,55,26,20,17,13,7,-,-,0,-,-,20140830190000
712,"Baiyun shopping mall, Jincheng",,35.492858,112.841566,46,49,11,13,9,7,-,-,0,-,-,20140830190000
713,"City EPA, Jincheng",,35.488422,112.858528,34,26,8,12,3,9,-,-,0,-,-,20140830190000
714,"Institute of Technology, Jincheng",,35.484844,112.878073,63,26,25,1,6,7,-,-,0,-,-,20140830190000
715,"No.1 middle school, Jincheng",,35.478725,112.838636,61,33,10,9,2,3,-,-,0,-,-,20140830190000
716,Jincheng,,35.490287,112.85794,63,49,25,17,13,9,-,-,0,-,-,20140830190000
718,"District Government, Shuozhou",,39.320857,112.430641,112,32,32,6,6,15,-,-,0,-,-,20140830190000
719,"City EPA, Shuozhou",,39.331495,112.407997,112,30,32,4,8,15,-,-,0,-,-,20140830190000
720,"No.2 middle school, Shuozhou",,39.377963,112.432877,95,40,37,6,11,-,-,-,0,-,-,20140830190000
721,Shuozhou,,39.332756,112.439672,117,52,37,6,14,15,-,-,0,-,-,20140830190000
722,"Jinlun compound, Jinzhong",,37.697891,112.771017,154,74,9,4,6,6,-,-,0,-,-,20140830190000
723,"Hydraulic Component Factory, Jinzhong",,37.688355,112.725844,164,82,16,26,10,12,-,-,0,-,-,20140830190000
724,"Nandu compound, Jinzhong",,37.713148,112.732036,156,32,2,7,2,11,-,-,0,-,-,20140830190000
725,"Yuci district government, Jinzhong",,37.698228,112.714167,158,66,12,17,11,12,-,-,0,-,-,20140830190000
726,Jinzhong,,37.687705,112.759187,164,82,16,26,11,12,-,-,0,-,-,20140830190000
727,"Yuncheng Middle School, Yuncheng",,35.012345,111.003215,38,30,26,4,3,16,-,-,0,-,-,20140830190000
728,"Yudou BDA, Yuncheng",,35.05065,111.029571,-,-,-,-,-,-,-,-,0,-,-,20140830190000
730,"Regional Technical School, Yuncheng",,35.028727,110.974076,78,36,17,6,11,20,-,-,0,-,-,20140830190000
731,"Airport new district, Yuncheng",,35.084515,111.05339,30,40,19,14,14,18,-,-,0,-,-,20140830190000
732,Yuncheng,,35.025675,111.013344,78,40,26,14,14,20,-,-,0,-,-,20140830190000
733,"Jiyin, Xinzhou",,38.413292,112.742432,85,63,18,1,11,17,-,-,0,-,-,20140830190000
734,"BDA, Xinzhou",,38.450069,112.736723,151,51,19,4,27,14,-,-,0,-,-,20140830190000
735,"Convention Center, Xinzhou",,38.492043,112.709772,114,46,13,7,28,14,-,-,0,-,-,20140830190000
736,Xinzhou,,38.417244,112.740742,114,63,18,7,28,17,-,-,0,-,-,20140830190000
737,"City EPA, Luliang",,37.522189,111.144365,157,87,12,26,19,16,-,-,0,-,-,20140830190000
738,"Soybean factory, Luliang",,37.51689,111.135101,129,57,16,24,4,17,-,-,0,-,-,20140830190000
739,"Water Company, Luliang",,37.53394,111.138834,152,81,18,25,14,17,-,-,0,-,-,20140830190000
740,Luliang,,25.027007,103.668566,157,81,18,26,19,17,-,-,0,-,-,20140830190000
741,"City government, Sanmenxia",,34.776251,111.198781,38,24,22,3,3,1,-,-,0,-,-,20140830190000
743,"BDA, Sanmenxia",,34.800434,111.204332,63,28,18,5,2,5,-,-,0,-,-,20140830190000
744,Sanmenxia,,34.771506,111.206129,159,28,22,5,3,10,-,-,0,-,-,20140830190000
745,"Food Factory, Changchun",,43.919094,125.329521,159,179,15,39,5,12,-,-,0,-,-,20140830190000
746,"Bus Factory, Changchun",,43.912337,125.293431,154,76,9,44,6,11,-,-,0,-,-,20140830190000
747,"Institute of Posts and Telecommunications, Changchun",,43.842368,125.285005,147,101,3,40,4,11,-,-,0,-,-,20140830190000
748,"Laodong Park, Changchun",,43.877293,125.371519,124,69,15,30,4,11,-,-,0,-,-,20140830190000
749,"Forest area, Changchun",,43.871825,125.331519,-,-,-,-,-,-,-,-,0,-,-,20140830190000
750,"Jinyuetan, Changchun",,43.79031,125.460561,85,39,26,4,1,6,-,-,0,-,-,20140830190000
751,"Shuaiwanzi, Changchun",,43.552321,125.639086,59,30,30,4,2,5,-,-,0,-,-,20140830190000
752,"Economic Development Zone Sanitation Department, Changchun",,43.869221,125.42365,153,88,16,38,3,7,-,-,0,-,-,20140830190000
753,"High-tech Zone Administrative Committee, Changchun",,43.819064,125.256375,155,137,10,30,3,7,-,-,0,-,-,20140830190000
754,"Daishan Park, Changchun",,43.852365,125.223399,119,133,10,41,3,7,-,-,0,-,-,20140830190000
755,Changchun,,43.819415,125.329977,147,101,15,40,4,11,-,-,0,-,-,20140830190000
756,"Hadawan, Jilin",,43.888081,126.545727,153,88,4,28,4,11,-,-,0,-,-,20140830190000
757,"Fengman, Jilin",,43.768169,126.678802,76,39,35,4,3,7,-,-,0,-,-,20140830190000
758,"Electric Power College, Jilin",,43.827403,126.502281,91,50,14,11,2,7,-,-,0,-,-,20140830190000
759,"Jiangnan Park, Jilin",,43.83531,126.556519,104,57,12,16,4,6,-,-,0,-,-,20140830190000
760,"Dongjuzi, Jilin",,43.838597,126.590068,97,69,6,48,3,8,-,-,0,-,-,20140830190000
763,Jilin,,43.840137,126.555262,153,88,35,48,4,11,-,-,0,-,-,20140830190000
764,"Lingbei, Haerbin",,45.756979,126.548008,78,59,46,33,5,6,-,-,0,-,-,20140830190000
765,"Songbei Commercial University, Haerbin",,45.818624,126.566963,89,51,3,21,5,6,-,-,0,-,-,20140830190000
766,"Acheng huining, Haerbin",,45.544286,126.985183,78,39,38,8,6,5,-,-,0,-,-,20140830190000
767,"Nangang College Street, Haerbin",,45.724121,126.604906,76,71,45,31,3,8,-,-,0,-,-,20140830190000
768,"Taiping Hongwei Park, Haerbin",,45.775332,126.695101,175,57,39,28,4,9,-,-,0,-,-,20140830190000
769,"Daowai Chengde Square, Haerbin",,45.768637,126.640955,82,47,-,35,6,6,-,-,0,-,-,20140830190000
770,"Xiangfang Hongqi Street, Haerbin",,45.733936,126.691083,78,50,47,13,8,10,-,-,0,-,-,20140830190000
771,"Dongli Heping Road, Haerbin",,45.727765,126.651974,114,49,45,35,8,6,-,-,0,-,-,20140830190000
772,"Daoli Jianguo Road, Haerbin",,45.749715,126.59891,72,38,49,28,7,7,-,-,0,-,-,20140830190000
773,"Pingfang Light Factory, Haerbin",,45.611951,126.620898,76,29,47,5,4,4,-,-,0,-,-,20140830190000
774,"Hulan Normal College, Haerbin",,45.983745,126.616553,93,37,37,28,5,6,-,-,0,-,-,20140830190000
775,"Provincial Academy of Agricultural Sciences, Haerbin",,45.686141,126.626517,72,37,40,-,5,6,-,-,0,-,-,20140830190000
776,Haerbin,,45.805757,126.541007,89,59,42,33,5,6,-,-,0,-,-,20140830190000
777,"Anju Compound, Qiqihaer",,47.365672,123.937016,55,23,62,1,1,5,-,-,0,-,-,20140830190000
778,"Farming Vehicule Factory, Qiqihaer",,47.326793,123.961427,25,23,47,3,2,6,-,-,0,-,-,20140830190000
779,"Fuqu EPA, Qiqihaer",,47.1853,123.62322,68,45,92,6,7,15,-,-,0,-,-,20140830190000
780,"City Center Square, Qiqihaer",,47.343096,123.96192,55,14,31,24,1,4,-,-,0,-,-,20140830190000
1217,"City Environmental Monitoring Station, Qiqihaer",,47.303639,123.957551,55,39,43,3,4,4,-,-,0,-,-,20140830190000
781,Qiqihaer,,47.356387,123.924736,68,45,73,24,7,15,-,-,0,-,-,20140830190000
782,"Saertu District, Daqing",,46.582368,125.152904,82,30,30,6,7,3,-,-,0,-,-,20140830190000
783,"Datong District, Daqing",,46.036786,124.842115,72,27,49,2,5,5,-,-,0,-,-,20140830190000
784,"Honggang District, Daqing",,46.418381,124.88973,59,28,41,4,4,3,-,-,0,-,-,20140830190000
785,"Longfeng District, Daqing",,46.535426,125.107043,34,30,47,3,4,5,-,-,0,-,-,20140830190000
786,"Ranghulu District, Daqing",,46.635123,124.85648,65,31,75,11,7,4,-,-,0,-,-,20140830190000
787,Daqing,,46.591414,125.110838,82,31,62,11,7,5,-,-,0,-,-,20140830190000
788,"Locomotive Factory, Mudanjiang",,44.610589,129.652672,97,52,63,10,4,4,-,-,0,-,-,20140830190000
789,"No. 1 hospital, Mudanjiang",,44.567775,129.617043,104,37,41,12,2,3,-,-,0,-,-,20140830190000
1220,"EPA building, Mudanjiang",,44.567777,129.620658,82,42,10,8,6,3,-,-,0,-,-,20140830190000
1221,"Cultural Square, Mudanjiang",,44.586388,129.623164,95,42,6,21,5,7,-,-,0,-,-,20140830190000
790,Mudanjiang,,44.553619,129.640246,104,66,63,21,10,7,-,-,0,-,-,20140830190000
791,"Mingzhu Plaza, Hefei",,31.782847,117.201512,124,55,135,2,7,11,-,-,0,-,-,20140830190000
792,"Sanli Street, Hefei",,31.874637,117.312573,112,58,67,15,6,8,-,-,0,-,-,20140830190000
793,"Hupo Compound, Hefei",,31.868583,117.264491,95,58,43,7,11,7,-,-,0,-,-,20140830190000
794,"Dongpu Reservoir, Hefei",,31.90319,117.165584,114,52,75,7,2,6,-,-,0,-,-,20140830190000
795,"Changjiang middle road, Hefei",,31.855185,117.255484,117,68,10,9,12,20,-,-,0,-,-,20140830190000
796,"Luyang District, Hefei",,31.941771,117.271504,149,60,6,1,14,6,-,-,0,-,-,20140830190000
797,"Yaohai District, Hefei",,31.856595,117.341644,127,48,19,4,8,9,-,-,0,-,-,20140830190000
798,"Baohe District, Hefei",,31.793644,117.307554,153,79,4,1,1,12,-,-,0,-,-,20140830190000
799,"Lake district, Hefei",,31.736619,117.283501,127,49,21,2,3,7,-,-,0,-,-,20140830190000
800,"High-tech zone, Hefei",,31.849755,117.129624,124,59,31,6,13,7,-,-,0,-,-,20140830190000
801,Hefei,,31.819449,117.232753,124,68,135,9,12,20,-,-,0,-,-,20140830190000
802,"Hudong Road No.4 Elementary School, Maanshan",,31.684121,118.511017,93,40,49,13,5,8,-,-,0,-,-,20140830190000
803,"Tianping Garment Factory, Maanshan",,31.64197,118.488043,102,53,75,14,8,5,-,-,0,-,-,20140830190000
804,"City education base, Maanshan",,31.711216,118.648913,74,42,10,1,2,3,-,-,0,-,-,20140830190000
805,"Cihu No.2 elementary school, Maanshan",,31.748546,118.515729,85,56,23,23,4,12,-,-,0,-,-,20140830190000
806,"Maanshan steel factory power plant, Maanshan",,31.690864,118.48528,87,56,4,1,4,6,-,-,0,-,-,20140830190000
807,Maanshan,,31.668461,118.511939,102,56,75,23,8,12,-,-,0,-,-,20140830190000
808,"Science Innovation Center, Wuhu",,31.417056,118.375406,104,43,14,5,3,7,-,-,0,-,-,20140830190000
809,"No.4 Water Plant, Wuhu",,31.315914,118.376231,152,67,40,12,3,6,-,-,0,-,-,20140830190000
810,"Monitoring station, Wuhu",,31.348955,118.358154,112,50,23,6,14,4,-,-,0,-,-,20140830190000
811,"Wuqierling Factory, Wuhu",,31.382068,118.407639,93,45,20,4,6,5,-,-,0,-,-,20140830190000
812,Wuhu,,31.351007,118.438322,152,67,40,12,14,7,-,-,0,-,-,20140830190000
1331,Chuzhou,,32.299549,118.322508,-,-,-,-,-,-,-,20,0,-,-,20140830190000
813,"Jiangxi Foreign Affairs Office, Nanchang",,28.678027,115.903436,170,101,21,5,1,8,-,-,0,-,-,20140830190000
814,"Provincial forestry company, Nanchang",,28.69065,115.898546,172,120,12,3,2,9,-,-,0,-,-,20140830190000
815,"Institute of Forestry, Nanchang",,28.731518,115.82478,149,69,24,11,1,15,-,-,0,-,-,20140830190000
816,"Jingdong town government, Nanchang",,28.680659,115.972736,160,69,23,20,1,9,-,-,0,-,-,20140830190000
817,"Contruction Industry College, Nanchang",,28.684018,115.865891,157,70,15,21,19,11,-,-,0,-,-,20140830190000
818,"Xianghu, Nanchang",,28.637831,115.9033,178,142,11,44,8,14,-,-,0,-,-,20140830190000
819,"Martial Arts School, Nanchang",,28.794538,115.752876,132,64,7,3,5,6,-,-,0,-,-,20140830190000
820,"Petrifaction Company, Nanchang",,28.608634,115.912999,164,150,19,6,4,8,-,-,0,-,-,20140830190000
821,"Provincial Station, Nanchang",,28.677155,115.941896,153,100,22,28,1,11,-,-,0,-,-,20140830190000
822,Nanchang,,28.679883,115.863022,178,150,24,44,19,15,-,-,0,-,-,20140830190000
823,"Lushan Mountain Observatory, Jiujiang",,29.5751,115.998926,38,6,30,1,2,2,-,-,0,-,-,20140830190000
824,"Shili, Jiujiang",,29.668119,115.992381,159,68,28,12,11,6,-,-,0,-,-,20140830190000
825,"Maoshantou, Jiujiang",,29.700819,115.967192,155,69,27,13,11,11,-,-,0,-,-,20140830190000
826,"Xiyuan, Jiujiang",,29.723929,115.998206,142,68,29,12,7,9,-,-,0,-,-,20140830190000
827,"Wuqierling Factory, Jiujiang",,29.640802,116.022713,132,68,29,6,16,4,-,-,0,-,-,20140830190000
828,"Water Scientific Research Institute, Jiujiang",,29.679179,116.068081,151,61,22,7,9,5,-,-,0,-,-,20140830190000
829,"Zonghe Industrial Park, Jiujiang",,29.592047,115.916335,155,76,17,11,21,7,-,-,0,-,-,20140830190000
830,"Petrochemical General Plant, Jiujiang",,29.738832,116.09463,144,53,32,12,5,6,-,-,0,-,-,20140830190000
831,Jiujiang,,29.70254,116.007025,159,76,32,13,21,11,-,-,0,-,-,20140830190000
1332,"Feiyu, Xinyu",,27.844697,115.000136,137,76,14,10,6,,24,,1014,88,1,20140830190000
1333,"Beigang, Xinyu",,27.932491,115.103767,76,43,17,7,3,,24,,1014,88,1,20140830190000
1334,"No.2 water factory, Xinyu",,27.839577,114.933915,119,61,8,14,28,,24,,1014,88,1,20140830190000
1335,"Bureau of Meteorology, Xinyu",,27.81048,114.936507,139,77,13,11,30,,24,,1014,88,1,20140830190000
1336,Xinyu,,27.814351,114.922194,139,81,17,14,30,15,24,-,1014,88,1,20140830190000
832,"Tobacco Factory, Zhengzhou",,34.753419,113.687131,61,20,25,7,3,10,-,-,0,-,-,20140830190000
833,"Textile Machinery Factory, Zhengzhou",,34.773366,113.647067,78,23,8,9,6,10,-,-,0,-,-,20140830190000
834,"Banking College, Zhengzhou",,34.800856,113.681126,61,27,24,7,8,6,-,-,0,-,-,20140830190000
835,"Water Supply Company, Zhengzhou",,34.807188,113.571089,70,40,18,6,5,11,-,-,0,-,-,20140830190000
836,"Economic Development Zone Management Committee, Zhengzhou",,34.717652,113.733182,61,20,16,13,4,5,-,-,0,-,-,20140830190000
837,"No. 47 middle school, Zhengzhou",,34.772211,113.74009,59,13,17,9,5,4,-,-,0,-,-,20140830190000
838,"City Monitoring Station, Zhengzhou",,34.748404,113.60514,85,16,22,9,2,8,-,-,0,-,-,20140830190000
839,"Henan Medical University, Zhengzhou",,34.752637,113.641658,65,18,16,9,5,9,-,-,0,-,-,20140830190000
840,"Gangli Reservoir, Zhengzhou",,34.952652,113.64248,63,43,20,6,12,6,-,-,0,-,-,20140830190000
841,Zhengzhou,,34.745417,113.631415,85,18,22,9,5,9,-,-,0,-,-,20140830190000
842,"Henan University No.1 Hospital, Kaifeng",,34.799302,114.352706,107,43,26,7,4,6,-,-,0,-,-,20140830190000
843,"Maternity And Child Hospital, Kaifeng",,34.795803,114.386103,104,41,19,7,5,8,-,-,0,-,-,20140830190000
844,"Cancer Hospital, Kaifeng",,34.775428,114.350292,104,35,12,10,7,9,-,-,0,-,-,20140830190000
845,"Yellow River Conservancy Institute, Kaifeng",,34.826066,114.324772,13,44,11,9,23,26,-,-,0,-,-,20140830190000
846,"Shijixing Kindergarden, Kaifeng",,34.793606,114.302744,107,37,20,7,7,0,-,-,0,-,-,20140830190000
847,Kaifeng,,34.796346,114.313426,107,43,26,10,7,9,-,-,0,-,-,20140830190000
852,Jiaozuo,,35.215381,113.248188,74,30,27,16,7,7,-,-,0,-,-,20140830190000
853,"Cotton Research Institute, Anyang",,36.081435,114.486451,87,52,10,12,7,7,-,-,0,-,-,20140830190000
854,"Hongmiao Street, Anyang",,36.086733,114.326,152,61,13,26,16,17,-,-,0,-,-,20140830190000
855,"Yinxing Compound, Anyang",,36.056519,114.36495,142,73,12,27,8,12,-,-,0,-,-,20140830190000
856,"Tiefo Temple, Anyang",,36.110041,114.309309,151,85,16,30,20,15,-,-,0,-,-,20140830190000
857,Anyang,,36.097767,114.398846,152,85,22,30,20,17,-,-,0,-,-,20140830190000
858,"City Monitoring Station, Luoyang",,34.669055,112.439633,87,15,24,3,5,4,20,,1015,100,3,20140830190000
859,"BDA Management Committee, Luoyang",,34.622084,112.390759,46,21,30,3,3,13,20,,1015,100,3,20140830190000
860,"New municipal office, Luoyang",,34.623745,112.432973,59,30,30,3,2,20,20,,1015,100,3,20140830190000
861,"City committee communist party school, Luoyang",,34.650169,112.400212,57,45,31,8,1,8,20,,1015,100,3,20140830190000
862,"Henan Forestry College, Luoyang",,34.685566,112.509429,65,42,28,9,2,14,20,,1015,100,3,20140830190000
863,"CITIC No.2 Elementary School, Luoyang",,34.668212,112.36907,53,19,50,5,4,11,20,,1015,100,3,20140830190000
864,"Yuxi Hotel, Luoyang",,34.685949,112.472611,65,70,19,4,8,13,20,,1015,100,3,20140830190000
865,Luoyang,,34.617424,112.46054,87,70,50,9,8,20,20,-,1015,100,3,20140830190000
866,"City Planning Design Institute, Pingdingshan",,33.7352,113.297916,74,27,26,8,9,10,-,-,0,-,-,20140830190000
867,"Xinhua Hotel, Pingdingshan",,33.737754,113.328814,65,43,29,7,8,6,-,-,0,-,-,20140830190000
868,"Engineering College, Pingdingshan",,33.772474,113.188235,70,30,26,9,7,6,-,-,0,-,-,20140830190000
869,"High Voltage Switchgear Factory, Pingdingshan",,33.719941,113.312665,65,24,20,8,9,7,-,-,0,-,-,20140830190000
870,Pingdingshan,,33.764754,113.199082,74,43,29,9,9,10,-,-,0,-,-,20140830190000
1303,"City Monitoring Station, Hebi",,35.748411,114.313927,74,34,9,3,9,6,24,,1021,84,2,20140830190000
1304,"BDA, Xinxiang",,35.281373,113.908605,93,42,10,3,6,6,22,,1002,99,1,20140830190000
1305,"Environment protection office, Puyang",,35.851321,115.512901,142,63,14,6,7,8,29,,1024,73,2,20140830190000
1306,"BDA, Xuchang",,33.998574,113.802968,57,20,26,8,1,10,21,,1016,100,1,20140830190000
1307,"Monitoring station, Xuchang",,34.011362,113.838373,95,28,24,10,4,9,21,,1016,100,1,20140830190000
1308,"Environment protection office, Xuchang",,34.032831,113.827116,72,23,22,10,2,9,21,,1016,100,1,20140830190000
1309,"Environment protection office, Nanyang",,32.532094,112.371764,70,20,24,9,11,5,22,,1015,100,3,20140830190000
1310,"Weather Monitoring Station, Nanyang",,32.988834,112.534165,82,40,220,5,14,8,23,,1008,100,3,20140830190000
1311,"Environmental Monitoring Station, Shangqiu",,34.412805,115.661879,142,52,16,8,8,4,23,,1024,90,2,20140830190000
1312,"City Environmental Monitoring Station, Zhoukou",,33.609533,114.672682,55,13,31,1,4,7,22,,1025,100,3,20140830190000
1313,"Sewage treatment plant, Jiyuan",,35.066374,112.607855,50,15,15,5,4,6,18,,952,100,3,20140830190000
1314," Lankao EPB Station, Lankao county",,34.821216,114.826903,129,53,24,26,-,2,21,-,1016,94,1,20140830190000
1316,Xinxiang,,35.302343,113.93288,102,42,12,9,6,6,22,-,1002,99,1,20140830190000
1317,Puyang,,35.761825,115.035106,185,64,7,18,12,10,24,-,1025,93,3,20140830190000
1318,Xuchang,,34.033947,113.858511,95,23,24,10,4,9,21,-,1016,100,1,20140830190000
1319,Zhoukou,,33.624592,114.702425,65,24,35,5,7,13,24,-,1025,100,4,20140830190000
871,"Economic Development Zone EPA, Changsha",,28.239029,113.087873,104,42,156,11,10,6,-,-,0,-,-,20140830190000
872,"High-tech Zone EPA, Changsha",,28.216766,112.893403,112,56,95,18,20,7,-,-,0,-,-,20140830190000
873,"Mapoling, Changsha",,28.197926,113.083865,97,60,106,22,8,6,-,-,0,-,-,20140830190000
874,"Hunan Normal University, Changsha",,28.186202,112.949459,183,55,83,12,7,8,-,-,0,-,-,20140830190000
875,"Yuqua District EPB, Changsha",,28.139661,113.008649,72,46,111,13,6,6,-,-,0,-,-,20140830190000
876,"Wujialing, Changsha",,28.256286,112.98457,153,63,11,35,8,11,-,-,0,-,-,20140830190000
877,"New train station, Changsha",,28.191052,113.006646,155,60,81,27,11,9,-,-,0,-,-,20140830190000
878,"Tianxin District EPB, Changsha",,28.114406,112.989577,119,43,140,16,17,7,-,-,0,-,-,20140830190000
879,"Hunan University of Traditional Chinese Medicine, Changsha",,28.127269,112.896395,139,53,67,12,20,16,-,-,0,-,-,20140830190000
880,"Shaping, Changsha",,28.355246,113.00164,112,53,201,9,9,9,-,-,0,-,-,20140830190000
881,Changsha,,28.224701,112.944264,183,63,83,35,8,11,-,-,0,-,-,20140830190000
883,"City Monitoring Station, Xiangtan",,27.854149,112.901062,93,64,37,19,21,10,-,-,0,-,-,20140830190000
884,"HKUST, Xiangtan",,27.908165,112.912881,107,57,75,22,30,9,-,-,0,-,-,20140830190000
885,Xiangtan,,27.826289,112.949479,107,64,110,24,30,12,-,-,0,-,-,20140830190000
886,"Zhuye Hospital, Zhuzhou",,27.883542,113.101131,132,40,95,12,28,12,-,-,0,-,-,20140830190000
887,"No.4 middle school, Zhuzhou",,27.794671,113.195938,109,49,59,15,19,10,-,-,0,-,-,20140830190000
888,"Railway station, Zhuzhou",,27.8349,113.149149,91,53,49,13,35,10,-,-,0,-,-,20140830190000
889,"City Monitoring Station, Zhuzhou",,27.849638,113.135836,99,33,49,15,26,11,-,-,0,-,-,20140830190000
890,"Dajing, Zhuzhou",,27.830311,113.25706,87,42,38,10,5,12,-,-,0,-,-,20140830190000
891,Zhuzhou,,27.824409,113.139832,132,53,95,15,35,12,-,-,0,-,-,20140830190000
896,Yueyang,,29.354548,113.134922,137,82,38,14,50,14,-,-,0,-,-,20140830190000
897,"Dingcheng District EPB, Changde",,29.014303,111.691833,155,57,22,7,4,13,-,-,0,-,-,20140830190000
898,"Baihe Hill, Changde",,29.072606,111.735659,134,53,12,4,2,7,-,-,0,-,-,20140830190000
899,"Municipal Technical Supervision Bureau, Changde",,29.038038,111.6736,137,67,20,8,10,15,-,-,0,-,-,20140830190000
900,"No.2 middle school, Changde",,28.96732,111.707138,156,65,18,6,13,26,-,-,0,-,-,20140830190000
901,Changde,,29.028648,111.704107,156,67,22,13,13,26,-,-,0,-,-,20140830190000
902,"Yuanjiajie, Zhangjiajie",,29.297387,110.421733,34,33,23,1,2,8,-,-,0,-,-,20140830190000
