locationid,stationname,chinesename,latitude,longitude,pm25,pm10,o3,no2,so2,co,temperature,dewpoint,pressure,humidity,wind,est_time
1,Dongcheng Dongsi,,39.9304,116.423239,277,143,44,44,6,15,20,18,1014,88,3,20140920170000
2,"Temple of Heaven, Dongcheng",,39.887403,116.41324,272,-,39,43,3,14,20,18,1014,88,3,20140920170000
3,West Park officials,,39.930333,116.345162,273,117,67,50,3,14,20,18,1014,88,3,20140920170000
4,West Wanshou Nishinomiya,,39.879354,116.358183,269,137,41,48,2,15,20,18,1014,88,3,20140920170000
5,Chaoyang Olympic Sports Center,,39.983406,116.403253,269,157,34,68,2,12,20,18,1014,88,3,20140920170000
6,Chaoyang Agricultural Exhibition Hall,,39.938331,116.46715,255,148,46,54,4,22,20,18,1014,88,3,20140920170000
7,Haidian Wanliu,,39.988245,116.293062,244,141,33,53,5,12,20,18,1014,88,3,20140920170000
8,The Haidian northern New Area,,40.091313,116.180194,181,61,30,25,2,9,20,18,1014,88,3,20140920170000
9,Haidian Beijing Botanical Garden,,40.003252,116.213097,233,-,98,18,2,10,20,18,1014,88,3,20140920170000
10,Fengtai garden,,39.86423,116.285037,260,78,50,51,3,14,20,18,1014,88,3,20140920170000
11,Fengtai Yungang,,39.82535,116.152237,231,-,48,31,2,12,20,18,1014,88,3,20140920170000
12,Shijingshan city,,39.915286,116.190144,273,157,-,-,2,14,20,18,1014,88,3,20140920170000
13,"Fangshan, Liangxiang",,39.743357,116.14225,221,113,2,32,2,13,20,18,1014,88,3,20140920170000
14,"Huangcunzhen, Daxing",,39.719389,116.410219,278,-,48,39,3,14,20,18,1014,88,3,20140920170000
15,BDA,,39.796197,116.51197,272,-,54,39,3,14,20,18,1014,88,3,20140920170000
16,Tongzhou New Town,,39.887113,116.6689,252,-,31,33,5,10,20,18,1014,88,3,20140920170000
17,Shunyi New Town ,,40.128111,116.660908,252,134,32,24,2,11,20,18,1014,88,3,20140920170000
18,Changping Town,,40.218245,116.236084,172,72,81,10,2,9,20,18,1014,88,3,20140920170000
19,"Mentougou, Longquan Town",,39.938397,116.112323,182,-,58,26,3,11,20,18,1014,88,3,20140920170000
20,Pinggu town,,40.144433,117.106563,164,-,48,7,5,12,20,18,1014,88,3,20140920170000
21,Huairou town,,40.329104,116.63387,155,74,46,9,2,9,20,18,1014,88,3,20140920170000
22,The town of Miyun,,40.371186,116.838053,163,-,26,19,2,9,20,18,1014,88,3,20140920170000
23,Yanqing town,,40.454217,115.978106,173,-,45,13,2,8,20,18,1014,88,3,20140920170000
24,Changping Dingling,,40.293269,116.226108,170,69,87,5,2,7,20,18,1014,88,3,20140920170000
25,Badaling Northwest,,40.36623,115.994146,188,-,38,41,2,9,20,18,1014,88,3,20140920170000
26,Miyun Reservoir,,40.500157,116.91701,100,-,42,1,2,6,20,18,1014,88,3,20140920170000
27,"Donggaocun Zhen, Pinggu",,40.10142,117.126556,158,-,53,15,10,10,20,18,1014,88,3,20140920170000
28,"Yongledianzhen, Tongzhou",,39.713192,116.78905,232,-,22,24,5,10,20,18,1014,88,3,20140920170000
29,"Yufazhen, Daxing",,39.521203,116.306026,218,-,33,8,2,15,20,18,1014,88,3,20140920170000
30,"Liulihezhen, Fangshan",,39.581169,116.006089,227,130,41,29,2,11,20,18,1014,88,3,20140920170000
31,"Qianmen E St, Dongcheng",,39.900402,116.401242,300,-,27,51,2,20,20,18,1014,88,3,20140920170000
32,Yongdingmen Inner St,,39.877401,116.400238,274,-,28,55,5,18,20,18,1014,88,3,20140920170000
33,Xizhimen N St,,39.955352,116.355187,284,-,35,46,4,14,20,18,1014,88,3,20140920170000
34,South Ring Road,,39.857377,116.37421,276,91,69,71,2,17,20,18,1014,88,3,20140920170000
35,East Fourth Ring Road,,39.940273,116.489075,259,-,20,60,8,17,20,18,1014,88,3,20140920170000
36,Beijing,,39.955906,116.474246,279,148,70,42,6,21,20,18,1013,88,2,20140920170000
37,Putuo,,31.232979,121.415378,39,25,28,21,5,3,22,19,1012,83,3,20140920170000
38,Yangpu Sipiao,,31.263795,121.540311,56,28,30,26,10,3,22,19,1012,83,3,20140920170000
39,Shanghai Normal College Primary Division,,31.199031,121.487719,35,19,30,16,5,8,22,19,1012,83,3,20140920170000
40,Dianshan Lake,,31.091338,120.982293,103,53,23,35,6,7,22,19,1012,83,3,20140920170000
41,Hongkou Liangcheng,,31.298906,121.47155,48,22,26,16,6,6,22,19,1012,83,3,20140920170000
42,Jingan,,31.224251,121.429637,60,17,29,18,6,6,22,19,1012,83,3,20140920170000
43,Shanghai Normal University,,31.163531,121.416643,44,19,31,21,6,8,22,19,1012,83,3,20140920170000
44,Chuansha,,31.188626,121.707342,25,29,33,13,4,4,22,19,1012,83,3,20140920170000
45,Zhangjiang,,31.204896,121.581215,43,27,35,20,3,4,22,19,1012,83,3,20140920170000
46,Lingshan Road,,31.226286,121.537317,58,27,33,21,6,4,22,19,1012,83,3,20140920170000
1080,City average,,31.228451,121.478227,48,24,31,19,6,5,22,19,1012,83,3,20140920170000
47,Shanghai,,31.202842,121.453493,60,19,30,18,6,8,22,19,1012,83,3,20140920170000
48,Guangzhou,,23.138517,113.263701,78,25,23,17,11,11,25,19,1007,69,2,20140920170000
49,"Huadu town, Guangzhou",,23.389121,113.220062,72,26,28,5,2,7,26,19,1007,65,4,20140920170000
50,"Luogang Zhenlong, Guangzhou",,23.308027,113.567032,76,29,36,11,7,8,26,19,1007,65,4,20140920170000
51,"LuHu, Guangzhou",,23.151743,113.281842,78,24,23,19,4,8,26,19,1007,65,4,20140920170000
52,"Tianhu, Guangzhou",,23.647433,113.629715,55,18,38,4,5,8,26,19,1007,65,4,20140920170000
53,"Zhudong, Guangzhou",,23.418406,113.078552,82,40,29,13,9,8,26,19,1007,65,4,20140920170000
54,"Modiesha station, Guangzhou",,23.103814,113.338238,46,29,24,9,3,9,26,19,1007,65,4,20140920170000
55,Zhuhai,,22.2677,113.581765,87,35,38,20,10,12,27,20,1005,65,7,20140920170000
1075,"Huicai technical school, Foshan",,23.039667,113.105492,68,24,25,12,8,7,26,19,1007,65,4,20140920170000
56,"Sanshuiyun donghai, Foshan",,23.185788,112.865368,61,35,20,12,13,9,26,19,1007,65,4,20140920170000
57,"Nanhai Bureau of Meteorology, Foshan",,23.046836,113.145764,61,17,28,12,3,13,26,19,1007,65,4,20140920170000
58,"Sanshui Monitoring Station, Foshan",,23.163551,112.890843,68,29,18,19,16,10,26,19,1007,65,4,20140920170000
1087,Foshan,,23.018995,113.126899,68,24,28,12,8,13,25,19,1007,69,2,20140920170000
59,"Ronggui street committee, Shunde",,22.762729,113.258356,80,40,27,9,4,11,26,18,1007,61,4,20140920170000
60,Shunde,,22.80246,113.298701,80,40,27,9,8,11,-,-,0,-,-,20140920170000
61,"Donghu, Jiangmen",,22.590411,113.087351,70,32,23,12,4,8,27,20,1005,65,7,20140920170000
62,"Taoyuan Atmosphere Premier Station, Jiangmen",,22.72489,112.93404,72,40,28,14,5,9,27,20,1005,65,7,20140920170000
63,Jiangmen,,22.576047,113.087351,82,41,30,12,8,12,27,20,1005,65,7,20140920170000
64,"Kengkouzi station, Zhaoqing",,23.158865,112.570287,30,20,8,6,4,10,26,19,1007,65,4,20140920170000
65,"Mugangzi station, Zhaoqing",,23.067961,112.431934,59,22,26,8,5,10,26,19,1007,65,4,20140920170000
67,Zhaoqing,,23.044571,112.470346,68,23,28,12,5,10,25,19,1007,69,2,20140920170000
68,"Jinguo Bay, Huizhou",,22.937223,114.385567,85,39,35,6,5,9,27,20,1006,65,6,20140920170000
1091,"Xiabu, Huizhou",,23.077493,114.410275,85,36,26,8,5,6,27,20,1006,65,6,20140920170000
69,"Xijiao, Huizhou",,23.338178,114.112867,82,31,28,7,5,10,27,20,1006,65,6,20140920170000
70,"Jiangbei, Huizhou",,23.111706,114.415274,-,-,-,-,-,-,-,-,0,-,-,20140920170000
71,"Huiyang chuanhu, Huizhou",,22.814485,114.329292,89,46,19,6,5,9,27,20,1006,65,6,20140920170000
72,"Daya bay management committee, Huizhou",,22.739283,114.53631,74,35,26,6,5,6,27,20,1006,65,6,20140920170000
73,Huizhou,,23.109349,114.421164,91,36,26,8,10,6,27,20,1006,65,6,20140920170000
74,"Guancheng No.2 water plant, Dongguan",,23.057294,113.753254,82,37,29,10,5,8,27,20,1006,65,6,20140920170000
75,"Dongcheng Shijing, Dongguan",,23.010039,113.799529,76,24,28,6,3,8,27,20,1006,65,6,20140920170000
76,"Nancheng Xiping, Dongguan",,22.963051,113.743494,76,26,27,12,5,7,27,20,1006,65,6,20140920170000
77,"Nancheng Yuanling, Dongguan",,23.025058,113.751308,82,41,30,3,6,8,27,20,1006,65,6,20140920170000
78,Dongguan,,23.017813,113.756958,82,41,30,11,6,10,27,20,1006,65,6,20140920170000
79,"Zimaling, Zhongshan",,22.505112,113.407183,80,25,80,11,12,11,27,20,1005,65,7,20140920170000
80,"Yangtze River tourist area, Zhongshan",,22.48589,113.439054,80,28,22,11,10,11,27,20,1005,65,7,20140920170000
81,"Huabai Park, Zhongshan",,22.51839,113.374362,78,26,31,9,5,12,27,20,1005,65,7,20140920170000
82,Zhongshan,,22.513997,113.398277,80,36,31,11,13,12,27,20,1005,65,7,20140920170000
83,"No.8 middle school, Shaoguan",,24.767777,113.583537,74,43,24,13,7,8,24,16,1009,55,2,20140920170000
83,"No.8 middle school, Shaoguan",,24.767777,113.583537,74,43,24,13,7,8,24,16,1009,55,2,20140920170000
84,"Forest area, Shaoguan",,24.796106,113.612131,70,30,30,5,8,7,24,16,1009,55,2,20140920170000
84,"Forest area, Shaoguan",,24.796107,113.612131,70,30,30,5,8,7,24,16,1009,55,2,20140920170000
86,"Shaoguan University, Shaoguan",,24.790864,113.646598,65,19,25,8,7,15,24,16,1009,55,2,20140920170000
86,"Shaoguan University, Shaoguan",,24.790864,113.646599,65,19,25,8,7,15,24,16,1009,55,2,20140920170000
88,"Qujiang Monitoring Station, Shaoguan",,24.683042,113.60157,70,40,29,11,15,11,24,16,1009,55,2,20140920170000
88,"Qujiang Monitoring Station, Shaoguan",,24.683042,113.60157,70,40,29,11,15,11,24,16,1009,55,2,20140920170000
89,Shaoguan,,24.807342,113.602712,74,43,38,11,15,15,24,16,1009,55,2,20140920170000
90,"Chaonanzi Station, Shantou",,23.251213,116.406762,97,47,23,8,4,10,27,21,1003,70,2,20140920170000
91,Shantou,,23.350642,116.686306,97,37,30,20,15,13,27,21,1003,70,2,20140920170000
92,"City Environmental Monitoring Station, Zhanjiang",,21.220431,110.397317,89,32,25,6,5,12,26,22,1006,77,3,20140920170000
93,"EPB Dormitory, Zhanjiang",,21.197376,110.406487,114,46,8,5,3,13,26,22,1006,77,3,20140920170000
94,"Xiashan Swimming Park, Zhanjiang",,21.200431,110.415655,82,36,24,5,11,12,26,22,1006,77,3,20140920170000
95,"Zhanjiang Theatre, Zhanjiang",,21.268177,110.366445,112,42,27,5,5,12,26,22,1006,77,3,20140920170000
96,"Mazhang EPA, Zhanjiang",,21.265486,110.335993,97,49,10,11,8,9,26,22,1006,77,3,20140920170000
97,"Potou District EPB, Zhanjiang",,21.247604,110.454508,80,49,31,7,4,11,26,22,1006,77,3,20140920170000
98,Zhanjiang,,21.26832,110.363883,114,49,31,11,11,13,26,22,1006,77,3,20140920170000
99,"Maogang sub-office EPB, Maoming",,21.466435,111.033462,82,44,22,4,4,6,26,23,0,86,2,20140920170000
100,"Petrochemical No. 7 elementaty school, Maoming",,21.648905,110.937861,76,30,28,6,14,6,26,23,0,86,2,20140920170000
101,"Jiankang road, Maoming",,21.662211,110.909482,80,46,18,8,39,11,26,23,0,86,2,20140920170000
102,"Gaoling, Maoming",,21.690558,110.871146,74,40,20,4,14,6,26,23,0,86,2,20140920170000
1094,Maoming,,21.660223,110.929968,80,46,28,8,39,11,26,23,0,86,2,20140920170000
103,"Jiaying University, Meizhou",,24.325415,116.12816,65,23,25,8,4,10,27,21,1003,70,2,20140920170000
104,"Mexian new town, Meizhou",,24.269283,116.084546,70,29,27,4,6,10,27,21,1003,70,2,20140920170000
105,"Environmental Monitoring Center, Meizhou",,24.262778,116.129621,63,27,25,8,4,10,27,21,1003,70,2,20140920170000
1095,Meizhou,,24.285988,116.127065,70,29,27,10,6,10,27,21,1003,70,2,20140920170000
106,"City EPA, Shanwei",,22.772349,115.370227,65,20,25,4,4,9,27,20,1004,60,3,20140920170000
107,"City government, Shanwei",,22.787161,115.375536,70,22,28,5,5,8,27,20,1004,60,3,20140920170000
108,"Xincheng Middle School, Shanwei",,22.789851,115.367124,68,30,25,4,4,9,27,20,1004,60,3,20140920170000
1099,Shanwei,,22.783576,115.38022,70,30,28,3,4,9,27,20,1004,60,3,20140920170000
109,"No.3 elementary school, Heyuan",,23.755946,114.699091,87,40,27,10,5,9,25,19,1006,59,2,20140920170000
109,"No.3 elementary school, Heyuan",,23.75435,114.703514,87,40,27,10,5,9,25,19,1006,59,2,20140920170000
111,"City water company, Heyuan",,23.688709,114.954652,89,39,17,13,3,8,25,19,1006,59,2,20140920170000
111,"City water company, Heyuan",,23.754246,114.682459,89,39,17,13,3,8,25,19,1006,59,2,20140920170000
113,"Heyuan high school, Heyuan",,23.720037,114.699563,87,36,28,9,5,9,25,19,1006,59,2,20140920170000
113,"Heyuan high school, Heyuan",,23.720666,114.693879,87,36,28,9,5,9,25,19,1006,59,2,20140920170000
115,Heyuan,,23.740888,114.705147,89,40,28,12,5,9,25,19,1006,59,2,20140920170000
116,"Yuanyang Lake, Yangjiang",,21.855869,111.983676,-,-,-,-,-,-,-,-,0,-,-,20140920170000
1100,Yangjiang,,21.855227,111.987308,72,37,30,6,4,13,26,22,1007,69,3,20140920170000
118,"Town governement, Qingyuan",,23.708005,113.026215,61,26,26,18,18,12,26,19,1007,65,4,20140920170000
119,"Fupin district, Qingyuan",,24.185415,113.419369,72,20,24,6,8,14,26,19,1007,65,4,20140920170000
119,"Fupin district, Qingyuan",,23.624781,113.067713,72,20,24,6,8,14,26,19,1007,65,4,20140920170000
121,"Environment protection office, Qingyuan",,23.685931,113.053239,68,20,26,9,17,7,26,19,1007,65,4,20140920170000
121,"Environment protection office, Qingyuan",,23.691109,113.047948,68,20,26,9,17,7,26,19,1007,65,4,20140920170000
123,"Fengcheng Subdistrict, Qingyuan",,23.695447,113.068189,61,45,25,17,18,12,26,19,1007,65,4,20140920170000
124,Qingyuan,,23.679304,113.061513,72,26,26,17,18,14,25,19,1007,69,2,20140920170000
125,"Xiyuan Road, Chaozhou",,23.668654,116.638272,65,18,26,3,5,12,27,21,1003,70,2,20140920170000
126,"Archives Bureau, Chaozhou",,23.667881,116.649104,70,28,26,4,5,11,27,21,1003,70,2,20140920170000
127,"Municipal Corporation, Chaozhou",,23.65035,116.621859,63,21,29,6,6,13,27,21,1003,70,2,20140920170000
1101,Chaozhou,,23.654204,116.626969,70,28,29,5,6,13,27,21,1003,70,2,20140920170000
128,"Donghu Park, Jieyang",,23.532877,116.374427,70,26,29,4,6,10,27,21,1003,70,2,20140920170000
129,"Yuhu Middle School, Jieyang",,23.52682,116.414123,85,30,27,6,9,9,27,21,1003,70,2,20140920170000
184,Luzhou,,28.868782,105.445938,153,76,48,24,7,8,22,19,1001,83,2,20140920170000
130,"Experimental Primary School, Jieyang",,23.571473,116.364137,80,27,23,10,9,11,27,21,1003,70,2,20140920170000
1102,Jieyang,,23.547596,116.37754,85,30,29,8,9,11,27,21,1003,70,2,20140920170000
131,"City Environmental Monitoring Station, Yunfu",,22.936779,112.042248,78,32,16,12,7,15,26,19,1007,65,4,20140920170000
132,"The new city government headquarters, Yunfu",,22.914275,112.044475,68,20,18,6,7,19,26,19,1007,65,4,20140920170000
133,"Muyang police sub-station, Yunfu",,22.951267,112.05923,53,20,17,8,7,15,26,19,1007,65,4,20140920170000
1103,Yunfu,,22.912436,112.049811,78,32,18,12,7,19,25,19,1007,69,2,20140920170000
134,Yantian,,22.587949,114.266899,74,23,32,6,5,16,27,20,1006,65,6,20140920170000
135,Kwai Chung,,22.572837,113.867166,109,50,23,8,3,14,27,20,1006,65,6,20140920170000
135,Kwai Chung,,22.627947,114.428875,109,50,23,8,3,14,27,20,1006,65,6,20140920170000
135,Kwai Chung,,22.354168,114.134558,109,50,23,8,3,14,27,20,1006,65,6,20140920170000
137,Nanyou,,22.513802,113.928051,91,38,35,10,10,9,27,20,1006,65,6,20140920170000
138,Meisha,,22.59611,114.318345,80,28,17,6,2,13,27,20,1006,65,6,20140920170000
139,Xi xiang,,22.717524,114.252304,85,37,24,11,3,14,27,20,1006,65,6,20140920170000
140,Liyuan,,22.54732,114.101205,80,40,16,12,2,13,27,20,1006,65,6,20140920170000
1072,Kwai Chung,,22.572837,113.867166,76,25,25,6,2,15,27,20,1006,65,6,20140920170000
1072,Kwai Chung,,22.627947,114.428875,76,25,25,6,2,15,27,20,1006,65,6,20140920170000
1072,Kwai Chung,,22.354168,114.134558,76,25,25,6,2,15,27,20,1006,65,6,20140920170000
141,OCT,,22.539549,113.992458,87,40,27,11,4,16,27,20,1006,65,6,20140920170000
142,Honghu,,22.559647,114.121976,102,43,26,13,2,13,27,20,1006,65,6,20140920170000
143,Mission Hills,,22.694131,114.050496,91,43,29,9,7,7,27,20,1006,65,6,20140920170000
144,Shenzhen,,22.540382,114.062982,109,43,35,13,10,16,-,-,0,-,-,20140920170000
145,Chengdu,,30.622581,104.069564,152,69,13,47,6,13,22,19,1012,83,0,20140920170000
146,"Jinquan lianghe, Chengdu",,30.710359,103.974209,127,50,7,27,4,13,23,19,1012,78,2,20140920170000
147,"Shilidian, Chengdu",,30.684718,104.17845,157,84,6,42,4,11,23,19,1012,78,2,20140920170000
148,"Sanwayao, Chengdu",,30.568159,104.081524,95,63,4,38,4,11,23,19,1012,78,2,20140920170000
149,"Shahepu, Chengdu",,30.633685,104.120536,137,67,4,38,4,12,23,19,1012,78,2,20140920170000
150,"Liang Lane, Chengdu",,30.682601,104.076522,153,69,13,47,6,9,23,19,1012,78,2,20140920170000
151,"Caotang Temple, Chengdu",,30.651891,104.0284,132,58,6,38,6,13,23,19,1012,78,2,20140920170000
152,"Lingyansi, Chengdu",,31.025729,103.615022,157,67,26,12,2,5,23,19,1012,78,2,20140920170000
153,"Fuleshan, Mianyang",,31.472493,104.7806,82,33,13,6,8,11,22,20,1009,89,1,20140920170000
154,"High-tech Zone Water Company, Mianyang",,31.463309,104.674293,76,30,13,18,5,10,22,20,1009,89,1,20140920170000
155,"No.3 water company, Mianyang",,31.505002,104.731054,85,41,11,27,17,6,22,20,1009,89,1,20140920170000
156,Mianyang,,31.465174,104.681731,99,41,13,27,17,11,22,20,1009,89,1,20140920170000
157,"Dongshan Park, Deyang",,31.118648,104.424587,74,37,14,8,1,8,23,19,1012,78,2,20140920170000
158,"Xixiaoqu, Deyang",,31.131159,104.390972,89,21,17,8,10,9,23,19,1012,78,2,20140920170000
159,"City Procuratorate, Deyang",,31.114554,104.407986,102,46,29,13,10,10,23,19,1012,78,2,20140920170000
160,"Refractory Factory, Deyang",,31.108606,104.356506,80,59,13,9,13,5,23,19,1012,78,2,20140920170000
161,Deyang,,31.124715,104.400703,102,59,29,13,13,10,23,19,1012,78,2,20140920170000
162,"Nongnongping, Panzhihua",,26.566698,101.695438,76,38,23,19,51,13,21,16,0,66,1,20140920170000
163,"Hemenkou, Panzhihua",,26.589072,101.578312,76,20,25,8,1,5,21,16,0,66,1,20140920170000
164,"Bingcaogang, Panzhihua",,26.58143,101.718473,61,35,20,20,16,16,21,16,0,66,1,20140920170000
165,"Renhe, Panzhihua",,26.498166,101.746887,63,28,15,8,2,9,21,16,0,66,1,20140920170000
166,"Jinjina, Panzhihua",,26.553226,101.84862,72,53,14,7,12,9,21,16,0,66,1,20140920170000
167,Panzhihua,,26.578779,101.720211,76,53,25,20,16,16,21,16,0,66,1,20140920170000
168,"Shima Middle School, Yibin",,28.815979,104.599199,119,60,22,44,8,9,25,20,1010,71,1,20140920170000
169,"Municipal party committee, Yibin",,28.762654,104.624834,109,32,30,6,7,8,25,20,1010,71,1,20140920170000
170,"No. 4 middle school, Yibin",,28.783257,104.608407,152,65,24,26,11,7,25,20,1010,71,1,20140920170000
171,"City government, Yibin",,28.760477,104.644079,157,69,24,13,29,10,25,20,1010,71,1,20140920170000
172,"Huangjinzui, Yibin",,28.712319,104.578389,109,72,11,22,13,12,25,20,1010,71,1,20140920170000
173,"Shaping Middle School, Yibin",,28.795569,104.681393,109,44,25,6,8,8,25,20,1010,71,1,20140920170000
174,Yibin,,28.748384,104.645766,157,72,30,44,29,12,25,20,1010,71,1,20140920170000
175,"Datang Hill, Zigong",,29.359969,104.757388,153,65,19,6,38,6,22,19,1001,81,2,20140920170000
176,"Yanma Road, Zigong",,29.355752,104.724036,147,82,11,2,5,12,22,19,1001,81,2,20140920170000
177,"Tanmulin Street, Zigong",,29.353555,104.777397,139,55,24,10,9,5,22,19,1001,81,2,20140920170000
178,"Chunhua Road, Zigong",,29.33825,104.771895,158,74,17,16,10,12,22,19,1001,81,2,20140920170000
179,Zigong,,29.33617,104.781138,158,82,24,16,38,12,22,19,1001,81,2,20140920170000
180,"Jiushi Hill, Luzhou",,28.955347,105.434207,134,64,45,12,4,3,22,19,1001,83,2,20140920170000
181,"Xiaoshishang Port, Luzhou",,28.899583,105.447192,153,63,43,12,7,8,22,19,1001,83,2,20140920170000
182,"Lantianxian Bridge, Luzhou",,28.852766,105.4358,151,76,48,20,1,6,22,19,1001,83,2,20140920170000
183,"City Environment Monitoring Station, Luzhou",,28.895898,105.435802,153,76,31,24,5,7,22,19,1001,83,2,20140920170000
185,"City Committee, Nanchong",,30.799993,106.082906,151,62,11,17,11,8,22,22,1010,100,1,20140920170000
186,"Refinery Factory, Nanchong",,30.819412,106.10712,157,80,24,19,3,7,22,22,1010,100,1,20140920170000
187,"Gaoping District Monitoring Station, Nanchong",,30.783291,106.110417,156,92,20,28,7,13,22,22,1010,100,1,20140920170000
188,"Jialing District EPB, Nanchong",,30.761255,106.06818,164,77,40,31,11,9,22,22,1010,100,1,20140920170000
189,"City Environmental Monitoring Station, Nanchong",,30.836519,106.11272,147,55,31,26,10,5,22,22,1010,100,1,20140920170000
190,Nanchong,,30.835511,106.114717,157,92,31,28,11,13,22,22,1010,100,1,20140920170000
1249,"City Monitoring Station, Neijiang",,29.592673,105.036234,132,70,19,7,4,7,22,19,1001,81,2,20140920170000
1250,"Dongxing District Government , Neijiang",,29.592148,105.074966,149,54,24,12,4,5,22,19,1001,81,2,20140920170000
1251,"No 2 middle school, Neijiang",,29.579135,105.068548,155,61,29,8,7,8,22,19,1001,81,2,20140920170000
1252,Neijiang,,29.577653,105.06166,155,70,29,12,8,8,22,19,1001,81,2,20140920170000
1253,"City Monitoring Station, Suining",,30.610641,105.683583,153,71,23,14,2,7,22,18,0,81,1,20140920170000
1254,"Administrative center , Suining",,30.63206,105.819747,129,77,5,1,-,5,22,18,0,81,1,20140920170000
1255,Suining,,30.530053,105.596307,167,92,23,28,13,23,22,18,0,81,1,20140920170000
1256,"City Monitoring Station, Leshan",,29.560651,103.759211,162,79,13,24,8,10,21,19,0,89,1,20140920170000
1257,"Leshan Giant Buddha Scenic Area , Leshan",,29.543938,103.772706,161,74,14,28,15,10,21,19,0,89,1,20140920170000
1258,Leshan,,29.54935,103.767777,162,79,14,28,15,12,21,19,0,89,1,20140920170000
1259,"Heilongtan , Meishan",,30.047726,103.900649,152,64,23,1,14,6,23,19,1012,78,2,20140920170000
1260,"Bureau of Meteorology, Meishan",,30.084591,103.843715,199,109,12,18,8,10,23,19,1012,78,2,20140920170000
1261,"Xuguang Community , Meishan",,30.066277,103.8516,211,111,12,16,7,6,23,19,1012,78,2,20140920170000
1262,"City Monitoring Station, Meishan",,30.059205,103.836229,193,110,13,21,10,7,23,19,1012,78,2,20140920170000
1263,Meishan,,30.072618,103.85064,211,111,23,21,14,10,23,19,1012,78,2,20140920170000
1264,"Ziyang middle school, Ziyang",,30.147763,104.638024,63,51,22,2,17,9,22,19,1001,82,2,20140920170000
1265,Ziyang,,30.126054,104.63004,68,68,27,12,19,12,22,19,1001,82,2,20140920170000
191,Shenyang US Consulate,,41.785668,123.432865,119,50,24,28,11,9,14,12,1015,88,1,20140920170000
192,"Huishan, Shenyang",,41.835421,123.647773,99,36,24,9,4,9,14,12,1015,88,1,20140920170000
193,"Hunnan, Shenyang",,41.758263,123.540809,152,45,17,18,8,7,15,12,1015,82,1,20140920170000
194,"Zhangshi, Shenyang",,41.771679,123.289859,114,63,7,41,10,9,14,12,1015,88,1,20140920170000
195,"Artillery College, Shenyang",,41.835749,123.547799,59,46,19,22,5,6,15,12,1015,82,1,20140920170000
196,"Beiling, Shenyang",,41.849633,123.434146,119,67,7,29,4,6,15,12,1015,82,1,20140920170000
197,"Wenyi Road, Shenyang",,41.767444,123.416144,95,50,26,28,11,7,15,12,1015,82,1,20140920170000
198,"Xiaoheyan, Shenyang",,41.779828,123.484015,107,60,14,34,5,7,15,12,1015,82,1,20140920170000
199,"Taiyuan Street, Shenyang",,41.799646,123.406146,154,74,10,37,6,8,14,12,1015,88,1,20140920170000
200,"Ermao, Shenyang",,41.783011,123.366679,89,48,28,32,11,8,15,12,1015,82,1,20140920170000
201,"Liaoning University, Shenyang",,41.830704,123.361071,97,43,14,21,5,6,15,12,1015,82,1,20140920170000
202,Shenyang,,41.808126,123.437611,119,67,11,37,6,8,14,12,1015,88,1,20140920170000
1104,"wenhua street, Shenyang , Shenyang",,41.774139,123.441839,147,58,21,35,16,8,14,12,1015,88,1,20140920170000
1105,"Tanglin Road , Shenyang , Shenyang",,41.823665,123.562317,61,42,14,15,4,7,14,12,1015,88,1,20140920170000
203,"Ganjingzi, Dalian",,38.9747,121.616893,72,37,39,18,2,5,16,13,1014,82,2,20140920170000
204,"Zhoushuizi, Dalian",,38.951928,121.569981,55,35,36,13,3,10,16,13,1014,82,2,20140920170000
205,"Xinghai No 3 station, Dalian",,38.885779,121.568864,82,12,47,6,3,6,16,13,1014,82,2,20140920170000
206,"Qingniwa Bridge, Dalian",,38.91274,121.638018,-,-,-,-,-,-,-,-,0,-,-,20140920170000
207,"Fujiazhuang, Dalian",,38.864647,121.629947,68,29,30,3,1,6,16,13,1014,82,2,20140920170000
208,"Qixianling, Dalian",,38.856978,121.523169,59,29,93,6,2,11,16,13,1014,82,2,20140920170000
209,"Lushun, Dalian",,38.808946,121.264063,68,22,39,7,2,4,16,13,1014,82,2,20140920170000
210,"Jinzhou, Dalian",,39.132192,121.753259,-,-,-,-,-,-,-,-,0,-,-,20140920170000
211,"BDA, Dalian",,39.05213,121.782022,-,-,-,-,-,-,-,-,0,-,-,20140920170000
212,"D&D Port, Dalian",,39.064087,121.981874,57,12,13,6,1,6,16,13,1014,82,2,20140920170000
213,Dalian,,38.91478,121.619625,68,29,30,3,1,6,-,-,0,-,-,20140920170000
214,"Bearing Factory, Dandong",,40.068929,124.345703,76,47,23,11,12,15,15,11,1015,69,4,20140920170000
215,"Financial school, Dandong",,40.158723,124.432593,74,38,22,12,7,7,15,11,1015,69,4,20140920170000
216,"Yuanbaoshan water, Dandong",,40.149431,124.391698,68,22,-,-,-,-,15,11,1015,69,4,20140920170000
217,"Experimental Primary School, Dandong",,39.887343,124.158056,82,37,23,13,5,26,15,11,1015,69,4,20140920170000
218,Dandong,,40.002046,124.360479,82,40,23,12,7,26,15,11,1015,69,4,20140920170000
1106,"minzhu bridge, Dandong , Dandong",,40.112974,124.373604,76,34,23,11,4,26,15,11,1015,69,4,20140920170000
1107,"yuanbaoshan, Dandong , Dandong",,40.146298,124.399081,68,25,-,-,-,-,15,11,1015,69,4,20140920170000
1108,"linjiang houjie, Dandong , Dandong",,40.152757,124.431745,82,40,18,12,7,7,15,11,1015,69,4,20140920170000
219,"BDA, Panjin",,41.157144,122.06645,91,52,21,18,5,9,14,13,0,97,2,20140920170000
220,"Xinglongtai, Panjin",,41.140948,122.111343,102,62,10,20,7,10,14,13,0,97,2,20140920170000
221,"Dingxiang, Panjin",,41.16139,121.928781,76,59,27,20,4,12,15,14,0,96,2,20140920170000
222,Panjin,,41.122089,122.076206,91,52,21,22,5,12,14,13,0,97,2,20140920170000
223,"No.3 water company, Yingkou",,40.682052,122.385352,53,19,40,14,9,5,15,12,1015,76,3,20140920170000
224,"Yingkou University, Yingkou",,40.683689,122.388285,50,22,35,14,3,6,15,12,1015,76,3,20140920170000
225,"Botanical garden, Yingkou",,40.711674,122.281568,59,21,32,14,5,6,15,12,1015,76,3,20140920170000
226,Yingkou,,40.668578,122.24059,57,23,27,12,10,12,15,12,1015,76,3,20140920170000
1109,"jinghu west street, Yingkou , Yingkou",,40.653831,122.221943,55,20,38,12,9,5,15,12,1015,76,3,20140920170000
1110,"Daqing Road , Yingkou , Yingkou",,40.709181,122.28243,78,30,28,22,5,7,15,12,1015,76,3,20140920170000
227,"Xishanpo, Huludao",,40.724078,120.921974,107,42,34,27,8,7,15,14,0,96,2,20140920170000
228,"Huagong hospital, Huludao",,40.755662,120.848435,80,30,21,23,1,13,15,14,0,96,2,20140920170000
229,"New district park, Huludao",,40.723415,120.853801,53,40,23,23,4,9,15,14,0,96,2,20140920170000
230,"Lianshan district governement, Huludao",,40.775488,120.872292,46,42,25,28,10,10,15,14,0,96,2,20140920170000
231,Huludao,,40.712501,120.842107,104,51,23,31,21,14,16,13,0,81,1,20140920170000
1111,"Dongcheng District , Huludao , Huludao",,40.775362,120.871706,34,20,16,31,10,10,,,0,,,20140920170000
1112,"huagong street, Huludao , Huludao",,40.758901,120.842935,21,27,15,15,1,14,,,0,,,20140920170000
232,Anshan,,41.110466,123.000147,76,60,17,30,6,16,14,12,1015,88,1,20140920170000
233,"Qianshan Park, Anshan",,41.033486,123.143897,25,15,17,3,9,2,15,12,1015,82,1,20140920170000
234,"Tiexi, Anshan",,41.121636,122.97506,68,47,17,15,4,9,15,12,1015,82,1,20140920170000
235,"Taiping Station, Anshan",,41.153322,123.052433,97,56,14,19,4,9,15,12,1015,82,1,20140920170000
236,"Central Station, Anshan",,41.106731,123.002736,57,30,24,13,3,4,15,12,1015,82,1,20140920170000
237,"Shengou Temple, Anshan",,41.137157,123.031901,46,24,17,4,3,7,14,12,1015,88,1,20140920170000
1113,"Qianshan , Anshan , Anshan",,41.014521,123.122538,30,14,14,2,9,2,14,12,1015,88,1,20140920170000
1114,"Tiexi Sandao jie, Anshan",,41.103264,122.978613,57,32,12,16,4,9,14,12,1015,88,1,20140920170000
1115,"Taiyang, Anshan",,41.094946,123.019037,46,22,20,5,3,3,14,12,1015,88,1,20140920170000
238,Fushun,,41.883028,123.962984,109,80,22,26,35,14,14,11,1015,82,2,20140920170000
239,"Shenfu new town, Fushun",,41.804638,123.631684,78,42,13,12,5,9,14,11,1015,82,2,20140920170000
240,"Reservoir, Fushun",,41.8464,123.802857,102,64,30,13,4,10,15,12,1015,82,1,20140920170000
241,"Train Station, Fushun",,41.89726,124.017604,122,65,14,25,10,8,15,12,1015,82,1,20140920170000
242,"Dongzhou, Fushun",,41.855578,124.044738,78,53,27,17,6,5,15,12,1015,82,1,20140920170000
243,"Xinhua, Fushun",,41.888598,123.932932,132,81,11,33,11,14,15,12,1015,82,1,20140920170000
244,"Wanghua, Fushun",,41.888825,123.093723,127,51,15,23,11,10,15,12,1015,82,1,20140920170000
245,Benxi,,41.296267,123.772371,80,76,14,22,6,35,14,11,1015,82,2,20140920170000
246,"Weining, Benxi",,41.349663,123.826071,76,41,9,6,3,35,14,11,1015,82,2,20140920170000
247,"Occupational disease hospital, Benxi",,41.305432,123.74645,30,9,18,9,5,6,15,12,1015,82,1,20140920170000
248,"Dongming, Benxi",,41.292369,123.765058,68,26,16,13,26,13,14,11,1015,82,2,20140920170000
249,"Caitun, Benxi",,41.301591,123.746039,95,67,9,22,3,29,14,11,1015,82,2,20140920170000
250,"Xihu, Benxi",,41.331332,123.773537,80,76,9,22,6,13,14,11,1015,82,2,20140920170000
251,"Dayu, Benxi",,41.308091,123.818442,46,18,16,7,10,7,14,11,1015,82,2,20140920170000
1116,"Xinlitun , Benxi , Benxi",,41.264104,123.811523,25,12,14,6,4,5,14,11,1015,82,2,20140920170000
252,Jinzhou,,41.097169,121.132647,144,65,18,23,18,10,16,13,1015,81,1,20140920170000
253,"Beihu Park, Jinzhou",,41.141447,121.137339,102,42,18,10,7,9,16,13,1015,81,1,20140920170000
254,"Monitoring station, Jinzhou",,41.113441,121.140911,122,57,20,22,8,8,16,13,1015,81,1,20140920170000
255,"Nanshan, Jinzhou",,41.570689,122.046753,107,50,17,17,8,9,16,13,1015,81,1,20140920170000
1118,"BDA, Jinzhou",,40.853915,121.061756,144,65,9,23,18,8,16,13,1015,81,1,20140920170000
1119,"tianan street, Jinzhou , Jinzhou",,41.124468,121.126119,102,41,18,17,6,8,16,13,1015,81,1,20140920170000
1120,"baigu street, Jinzhou, Jinzhou",,41.12214,121.21027,124,57,12,16,7,10,16,13,1015,81,1,20140920170000
1121,Chaoyang,,41.576022,120.456053,93,41,17,15,23,14,-,-,0,-,-,20140920170000
472,"Fukang road, Tianjin",,39.098136,117.157621,183,116,14,45,8,15,20,18,1014,88,4,20140920170000
1122,"Agricultural Area, Chaoyang",,43.93968,125.247371,70,23,7,5,5,7,14,13,1014,88,1,20140920170000
1123,Tieling,,42.225197,123.732174,165,54,19,17,11,7,-,-,0,-,-,20140920170000
260,"Waterpark, Tieling",,42.297031,123.880748,165,52,11,17,11,7,14,11,1015,82,2,20140920170000
1124,"Huigong Street West , Tieling , Tieling",,42.311115,123.845614,93,58,13,17,8,5,14,11,1015,82,2,20140920170000
1125,Liaoyang,,41.269312,123.24268,57,84,26,14,9,12,-,-,0,-,-,20140920170000
1126,"Riverside Road , Liaoyang , Liaoyang",,41.176884,123.419859,46,13,12,9,12,4,17,11,1015,68,3,20140920170000
1127,Fuxin,,42.02373,121.675733,93,59,11,18,6,9,-,-,0,-,-,20140920170000
266,"Agricultural Area, Fuxin",,42.071291,121.696445,80,63,14,6,7,6,12,12,0,98,2,20140920170000
267,"Industrial Area, Fuxin",,42.041052,121.715554,82,52,6,17,5,10,12,12,0,98,2,20140920170000
1128,"Yulong Metro , Fuxin , Fuxin",,42.035091,121.666531,93,59,11,18,6,9,12,12,0,98,2,20140920170000
1129,"Dongyuan , Fuxin , Fuxin",,42.029119,121.681553,89,49,33,11,12,4,12,12,0,98,2,20140920170000
268,"City Monitoring Station, Jinan",,36.662614,117.054645,151,61,56,10,16,5,21,15,1013,62,2,20140920170000
269,"Shandong Institute of Economics, Jinan",,36.63819,117.074975,112,64,73,5,22,5,21,15,1013,62,2,20140920170000
270,"Quancheng Plaza, Jinan",,36.661711,117.027043,129,64,37,13,14,6,21,15,1013,62,2,20140920170000
271,"Kegansuo, Jinan",,36.611582,116.99384,102,64,129,9,11,5,21,15,1013,62,2,20140920170000
272,"Agriculture Science Institute, Jinan",,36.663115,116.95063,93,80,35,27,17,12,21,15,1013,62,2,20140920170000
273,"Lanxiang technical school, Jinan",,36.700421,116.95342,170,99,26,6,23,8,21,15,1013,62,2,20140920170000
274,"Chemical factory, Jinan",,36.687463,116.994406,122,76,23,60,11,8,21,15,1013,62,2,20140920170000
275,"Provincial Seed Warehouse, Jinan",,36.685706,117.066348,119,56,46,32,2,0,21,15,1013,62,2,20140920170000
276,"Shandong Architecture University, Jinan",,36.681732,117.191868,153,66,36,15,18,9,21,15,1013,62,2,20140920170000
277,"Baosheng cable company, Jinan",,36.724638,117.130855,155,91,159,55,8,5,21,15,1013,62,2,20140920170000
278,"Paomaling, Jinan",,36.47869,117.219027,152,68,86,7,25,11,21,15,1013,62,2,20140920170000
279,"Changqing District Communist Party School, Jinan",,36.548797,116.770859,152,70,46,19,10,11,21,15,1013,62,2,20140920170000
280,"BDA, Jinan",,36.685835,117.130851,97,57,86,13,3,7,21,15,1013,62,2,20140920170000
281,Jinan,,36.651426,117.126625,170,99,129,27,23,12,21,15,1013,62,2,20140920170000
282,"Shinan district No. 1, Qingdao",,36.065534,120.40839,61,20,65,1,8,11,21,18,1014,83,4,20140920170000
283,"Shibei district No. 1, Qingdao",,36.069919,120.341264,59,36,49,1,8,6,21,18,1014,83,4,20140920170000
284,"Shibei district No. 2, Qingdao",,36.104146,120.36637,25,6,107,8,3,12,21,18,1014,83,4,20140920170000
285,"Huangdao District No. 1, Qingdao",,35.958935,120.191041,38,44,49,10,12,5,21,18,1014,83,4,20140920170000
286,"Huangdao District No. 2, Qingdao",,35.970487,120.160339,63,42,46,18,8,11,21,18,1014,83,4,20140920170000
287,"Laoshan District No. 1, Qingdao",,36.085881,120.451839,72,53,49,10,12,5,21,18,1014,83,4,20140920170000
288,"Laoshan District No. 2, Qingdao",,36.091075,120.490388,53,17,86,6,6,2,21,18,1014,83,4,20140920170000
289,"Licang District No. 1, Qingdao",,36.184872,120.38533,34,33,33,10,7,7,21,18,1014,83,4,20140920170000
290,"Licang District No. 2, Qingdao",,36.154369,120.432287,59,51,39,13,7,4,21,18,1014,83,4,20140920170000
291,"Chengyang District No. 1, Qingdao",,36.308502,120.40008,53,39,31,26,12,5,21,18,1014,83,4,20140920170000
292,"Chengyang District No. 2, Qingdao",,36.308429,120.465806,70,38,48,11,8,3,21,18,1014,83,4,20140920170000
293,Qingdao,,36.067358,120.387773,72,53,49,1,13,11,21,18,1014,83,4,20140920170000
294,"Zichuan Meteo. Stations, Zibo",,36.637916,117.960222,170,124,27,39,59,18,17,15,0,87,3,20140920170000
295,"Dongfeng Chemical factory, Zibo",,36.838576,118.050785,159,140,18,78,117,16,17,15,0,87,3,20140920170000
296,"Boshan shuangshan, Zibo",,36.497278,117.853581,162,92,22,39,52,19,17,15,0,87,3,20140920170000
297,"Linzi Putian Park, Zibo",,36.820171,118.315022,165,113,39,32,59,19,17,15,0,87,3,20140920170000
298,"Qilu Petrochemical, Zibo",,36.765907,118.254967,160,120,29,31,10,22,17,15,0,87,3,20140920170000
299,"Zhoucun sanjin Group, Zibo",,36.8044,117.85694,167,79,30,36,16,18,17,15,0,87,3,20140920170000
300,"Vocational College, Zibo",,36.825208,117.926305,165,82,28,56,38,18,17,15,0,87,3,20140920170000
301,"BDA, Zibo",,36.905214,118.021824,168,120,11,48,62,17,17,15,0,87,3,20140920170000
302,Zibo,,36.813618,118.060948,191,142,38,78,117,19,17,15,0,87,3,20140920170000
303,"Shizhong District Government, Zaozhuang",,34.850397,117.569545,185,155,37,39,90,9,18,17,1014,90,0,20140920170000
304,"Sewage treatment plant, Zaozhuang",,34.818951,117.595345,270,160,21,46,57,9,18,17,1014,90,0,20140920170000
305,"Xuecheng EPA, Zaozhuang",,34.790214,117.272455,172,71,58,16,11,11,18,17,1014,90,0,20140920170000
306,"Yicheng District government, Zaozhuang",,34.772806,117.57647,166,102,48,15,12,6,18,17,1014,90,0,20140920170000
307,"Taierzhuang EPA, Zaozhuang",,34.579462,117.741067,147,73,34,18,10,10,18,17,1014,90,0,20140920170000
308,"Shanting EPA, Zaozhuang",,35.070373,117.457691,104,59,46,11,16,11,18,17,1014,90,0,20140920170000
309,"City EPA, Zaozhuang",,34.809466,117.320608,157,80,109,6,11,6,18,17,1014,90,0,20140920170000
310,"High-tech zone, Zaozhuang",,34.821779,117.363495,174,93,42,22,29,8,18,17,1014,90,0,20140920170000
311,Zaozhuang,,34.809693,117.329634,185,155,58,39,90,11,18,17,1014,90,0,20140920170000
312,"City EPA, Dongying",,37.432052,118.672871,166,112,43,29,26,14,19,17,0,83,4,20140920170000
313,"Vocational College, Dongying",,37.438653,118.630567,158,112,43,50,14,11,19,17,0,83,4,20140920170000
314,"Xianhe Oil Production Plant, Dongying",,37.442419,118.510222,177,145,38,39,14,11,19,17,0,83,4,20140920170000
315,"Gengjin village, Dongying",,37.445072,118.55839,173,121,27,30,8,10,19,17,0,83,4,20140920170000
316,"City environmental company, Dongying",,37.466599,118.508012,173,112,40,39,11,12,19,17,0,83,4,20140920170000
317,"Hekou  district, Dongying",,37.883786,118.522171,164,108,73,10,11,9,19,17,0,83,4,20140920170000
318,"BDA, Dongying",,37.435162,118.701827,173,101,64,17,10,14,19,17,0,83,4,20140920170000
319,Dongying,,37.435429,118.680434,177,145,73,50,26,14,19,17,0,83,4,20140920170000
320,"Bearing Factory, Yantai",,37.544126,121.376956,82,39,30,19,5,2,,,0,,,20140920170000
321,"Xijiao Chemical Station, Yantai",,37.547148,121.323695,78,50,42,25,13,6,,,0,,,20140920170000
322,"Fushan Monitoring Stations, Yantai",,37.472245,121.260116,42,17,61,6,2,5,,,0,,,20140920170000
323,"Mouping EPA, Yantai",,37.376681,121.586509,55,38,37,6,6,3,,,0,,,20140920170000
324,"Laishan EPA, Yantai",,37.478422,121.44829,65,29,44,8,5,4,,,0,,,20140920170000
325,"Laishan Shengquan Industrial Park, Yantai",,37.4271,121.408386,42,40,44,17,9,3,,,0,,,20140920170000
326,"China Agricultural University, Yantai",,37.423568,121.511838,46,49,40,9,5,4,,,0,,,20140920170000
327,"BDA EPA, Yantai",,37.560827,121.257954,21,27,28,13,2,6,,,0,,,20140920170000
329,"Dajijia, Yantai",,37.673849,121.071465,25,8,17,7,8,5,,,0,,,20140920170000
330,Yantai,,37.464793,121.453142,89,50,42,25,13,6,20,17,0,82,4,20140920170000
331,"BDA, Weifang",,36.720022,119.054064,198,141,62,16,22,10,,,0,,,20140920170000
332,"Business School, Weifang",,36.682442,119.105909,191,91,59,25,20,8,,,0,,,20140920170000
333,"Hanting District, Weifang",,36.773484,119.199705,182,119,54,15,21,10,,,0,,,20140920170000
334,"Gongda Company, Weifang",,36.657635,119.167266,180,116,47,22,11,11,,,0,,,20140920170000
335,"City EPA, Weifang",,36.701272,119.16838,186,133,34,23,16,16,,,0,,,20140920170000
336,"City Arbitration Committee, Weifang",,36.702422,119.145927,185,110,76,23,15,13,,,0,,,20140920170000
337,"Xinhui Group, Weifang",,36.641581,119.11679,172,107,62,15,14,11,,,0,,,20140920170000
338,"Jincheng Middle School, Weifang",,36.773611,119.115539,182,114,110,12,24,10,,,0,,,20140920170000
339,Weifang,,36.707217,119.167638,198,141,110,25,26,13,19,17,0,83,4,20140920170000
340,"City Monitoring Station, Jining",,35.408443,116.623917,164,93,41,27,24,9,19,17,1012,88,1,20140920170000
1090,"Shengdi Hollidays Resort, Jining",,35.424746,116.699093,157,102,44,17,32,5,19,17,1012,88,1,20140920170000
341,"Sewage treatment plant, Jining",,35.364286,116.609177,170,65,42,18,29,21,19,17,1012,88,1,20140920170000
342,"Electrochemical Factory, Jining",,35.390473,116.552956,134,66,46,19,24,9,19,17,1012,88,1,20140920170000
343,"Rencheng BDA, Jining",,35.390484,116.662995,180,84,47,21,18,8,19,17,1012,88,1,20140920170000
344,"Agricultural School, Jining",,35.44235,116.601682,155,72,44,19,12,7,19,17,1012,88,1,20140920170000
345,"BDA Huojucheng, Jining",,35.436377,116.642953,166,81,47,13,15,10,19,17,1012,88,1,20140920170000
346,Jining,,35.414473,116.59239,180,102,44,17,32,5,19,17,1012,88,1,20140920170000
347,"Taishan monitoring station, Taian",,36.194362,117.159648,127,75,25,11,19,13,11,11,0,100,5,20140920170000
348,"Shandong Electric Power School, Taian",,36.176071,117.12413,154,74,31,39,19,13,11,11,0,100,5,20140920170000
349,"Population Education school, Taian",,36.194417,117.104131,127,86,41,8,25,12,11,11,0,100,5,20140920180000
350,"Houfeng company, Taian",,36.204863,117.19015,152,96,20,16,14,12,11,11,0,100,5,20140920180000
351,"Nongda new campus, Taian",,36.170179,117.165191,163,119,12,31,21,16,11,11,0,100,5,20140920180000
352,"Transportation technical school, Taian",,36.202126,117.047068,134,70,21,5,6,10,11,11,0,100,5,20140920180000
353,"ICT Technology, Taian",,36.116621,117.107458,151,93,20,19,7,13,11,11,0,100,5,20140920180000
354,Taian,,36.200502,117.093682,163,119,41,39,25,16,11,11,0,100,5,20140920180000
355,"City Environmental Monitoring Station, Weihai",,37.513939,122.067058,38,22,42,5,4,2,20,17,0,82,4,20140920180000
356,"Woodworking Factory, Weihai",,37.325455,122.160777,63,30,45,6,7,2,20,17,0,82,4,20140920180000
357,"Lantian Hotel, Weihai",,37.514641,122.146276,55,28,50,6,5,8,20,17,0,82,4,20140920180000
358,"Zhang village government, Weihai",,37.485561,122.049436,50,19,36,10,6,3,20,17,0,82,4,20140920180000
359,"Gao District Bank, Weihai",,37.534919,122.056294,74,26,45,5,7,3,20,17,0,81,5,20140920180000
360,"Huxia technical school, Weihai",,37.427951,122.130811,57,31,39,12,6,3,20,17,0,82,4,20140920180000
361,Weihai,,37.5141,122.125477,63,31,39,12,6,3,20,17,0,82,4,20140920180000
362,"City governement square, Rizhao",,35.4075,119.526008,93,60,38,18,7,4,22,19,1014,78,2,20140920180000
363,"Port Authority, Rizhao",,35.381297,119.55396,65,78,45,22,8,6,22,19,1014,78,2,20140920180000
364,"City Monitoring Station, Rizhao",,35.388683,119.496405,154,69,37,32,12,5,22,19,1014,78,2,20140920180000
365,"Professor Garden, Rizhao",,35.462161,119.574193,74,57,49,7,6,5,22,19,1014,78,2,20140920180000
366,"Vocational and Technical College, Rizhao",,35.441939,119.538187,139,64,50,12,7,5,22,19,1014,78,2,20140920180000
367,"Lanshan EPA branch, Rizhao",,35.293405,119.345716,87,39,32,4,10,6,22,19,1014,78,2,20140920180000
368,"Jinma Industrial Park, Rizhao",,35.373339,119.514108,59,57,46,11,9,5,22,19,1014,78,2,20140920180000
369,Rizhao,,35.416089,119.532316,139,78,50,22,10,6,22,19,1014,78,2,20140920180000
370,"Vegetable oil factory, Laiwu",,36.205028,117.700917,450,96,24,31,42,14,18,16,1014,83,0,20140920180000
371,"Nursing home, Laiwu",,36.266067,117.652769,166,113,28,23,23,21,18,16,1014,83,0,20140920180000
372,"Xinyi middle school, Laiwu",,36.245086,117.739025,153,90,23,28,45,16,18,16,1014,83,0,20140920180000
373,"Risheng International School, Laiwu",,36.208125,117.730959,172,98,10,10,52,14,18,16,1014,83,0,20140920180000
374,"Gangcheng EPA, Laiwu",,36.066836,117.871823,167,101,16,20,47,20,18,16,1014,83,0,20140920180000
375,"City EPA, Laiwu",,36.228913,117.694797,162,91,21,26,34,24,18,16,1014,83,0,20140920180000
376,Laiwu,,36.213688,117.682612,450,113,28,31,47,21,-,-,0,-,-,20140920180000
377,"Lunan Pharmaceutical Factory, Linyi",,35.061671,118.299527,159,95,17,48,28,14,15,14,0,95,1,20140920180000
378,"Yihe compound, Linyi",,35.056752,118.34739,153,109,23,22,10,17,15,14,0,95,1,20140920180000
379,"Linyi University, Linyi",,35.114777,118.293414,164,98,11,32,26,27,15,14,0,95,1,20140920180000
380,City EPA,Nanfang,35.104871,118.353518,147,86,25,42,17,14,15,14,0,95,1,20140920180000
381,"Xinguang woolen factory, Linyi",,34.981004,118.282,162,120,14,21,51,17,15,14,0,95,1,20140920180000
382,"Hongfu Baijiu Factory, Linyi",,34.998788,118.257275,169,138,13,47,66,19,15,14,0,95,1,20140920180000
384,"Hedong insurance company, Linyi",,35.089354,118.40812,159,114,22,38,9,14,15,14,0,95,1,20140920180000
385,"Jianghua vehicule center, Linyi",,35.010082,118.435749,154,707,16,25,22,14,15,14,0,95,1,20140920180000
386,Linyi,,35.10428,118.362202,169,707,25,21,51,27,15,14,0,95,1,20140920180000
387,"Heima group, Dezhou",,37.466063,116.314134,188,124,18,36,7,20,21,20,1011,88,0,20140920180000
388,"Monitoring station, Dezhou",,37.433107,116.377312,181,122,13,38,9,18,21,20,1011,88,0,20140920180000
389,"Supervision Station, Dezhou",,37.449689,116.324709,178,2,17,28,10,10,21,20,1011,88,0,20140920180000
390,"Huayu technical school, Dezhou",,37.462809,116.357559,174,142,21,34,9,23,21,20,1011,88,0,20140920180000
391,"Shuangyi group, Dezhou",,37.478848,116.316362,194,161,21,5,10,18,21,20,1011,88,0,20140920180000
392,Dezhou,,37.434959,116.363366,194,161,21,38,10,26,21,20,1011,88,0,20140920180000
393,"Dongchang District Government, Liaocheng",,36.444473,115.971733,134,73,26,18,18,18,21,19,1011,87,0,20140920180000
394,"Light Machinery Factory No. 2, Liaocheng",,36.456788,116.002383,132,82,28,18,20,13,21,19,1011,87,0,20140920180000
395,"City committee communist party school, Liaocheng",,36.479537,115.989288,132,64,24,17,20,4,21,19,1011,87,0,20140920180000
396,"Customs, Liaocheng",,36.431933,115.956974,137,77,22,19,13,14,21,19,1011,87,0,20140920180000
397,"Hongshun Garden, Liaocheng",,36.471124,115.960319,134,76,28,26,16,14,21,19,1011,87,0,20140920180000
398,"BDA, Liaocheng",,36.459407,116.043621,124,68,24,13,19,19,21,19,1011,87,0,20140920180000
399,Liaocheng,,36.456792,115.991051,137,82,28,26,20,18,21,19,1011,87,0,20140920180000
400,"City EPA, Binzhou",,37.38024,118.026895,158,74,15,25,10,14,23,18,1012,70,0,20140920180000
401,"Beizhong new school, Binzhou",,37.38374,117.988996,190,87,9,27,16,16,23,18,1012,70,0,20140920180000
402,"No.2 water factory, Binzhou",,37.36155,118.002648,158,83,13,17,2,14,23,18,1012,70,0,20140920180000
403,"Keling Chemical factory, Binzhou",,37.396138,117.943609,151,71,15,19,40,17,23,18,1012,70,0,20140920180000
404,"Yinhe logistics company, Binzhou",,37.356122,117.943326,151,88,19,36,22,18,23,18,1012,70,0,20140920180000
405,"Bilin compond, Binzhou",,37.36815,117.978964,158,86,7,17,9,15,23,18,1012,70,0,20140920180000
406,Binzhou,,37.382639,117.976606,190,87,18,40,25,17,23,18,1012,70,0,20140920180000
407,"Bureau of Meteorology, Heze",,35.248625,115.428775,85,57,31,15,11,9,17,16,0,94,2,20140920180000
408,"Sewage treatment plant, Heze",,35.222517,115.531511,134,59,23,12,10,11,17,16,0,94,2,20140920180000
409,"Municipal CPPCC, Heze",,35.237125,115.480591,104,52,26,15,11,10,17,16,0,94,2,20140920180000
410,"Huarun Pharmaceutical Company, Heze",,35.261463,115.524873,91,58,21,13,10,13,17,16,0,94,2,20140920180000
411,"Heze University, Heze",,35.269706,115.460934,93,53,32,20,8,12,17,16,0,94,2,20140920180000
412,Heze,,35.233354,115.486503,114,59,33,20,11,13,17,16,0,94,2,20140920180000
413,"Shiji Park, Shijiazhuang",,38.03155,114.547873,194,133,17,21,7,11,17,17,1013,100,1,20140920180000
414,"Xinan College, Shijiazhuang",,38.012764,114.473163,185,138,12,10,17,11,17,17,1013,100,1,20140920180000
415,"Chemical College, Shijiazhuang",,38.055503,114.569816,243,158,6,17,6,9,17,17,1013,100,1,20140920180000
416,"Worker hospital, Shijiazhuang",,38.051784,114.461209,191,139,25,20,6,12,17,17,1013,100,1,20140920180000
417,"Northwest Water Company, Shijiazhuang",,38.140638,114.508038,200,158,18,26,6,8,17,17,1013,100,1,20140920180000
418,"High-tech zone, Shijiazhuang",,38.040482,114.610775,191,146,14,26,15,9,17,17,1013,100,1,20140920180000
419,"Fenglong Montain, Shijiazhuang",,37.910829,114.360264,174,112,120,5,18,16,17,17,1013,100,1,20140920180000
1130,"Zhengding Unicom, Shijiazhuang",,38.159458,114.59879,314,436,20,42,11,13,17,17,1013,100,1,20140920180000
1131,"Luancheng Communications, Shijiazhuang",,37.906534,114.638785,299,192,34,33,35,18,17,17,1013,100,1,20140920180000
1132,"Gaocheng Experimental School, Shijiazhuang",,38.039518,114.867812,237,166,28,30,19,17,17,17,1013,100,1,20140920180000
1133,"Wuji EPA, Shijiazhuang",,38.17862,114.997012,277,175,26,33,52,13,17,17,1013,100,1,20140920180000
1134,"Shenze Power Supply Bureau, Shijiazhuang",,38.197674,115.219126,250,150,10,36,24,15,17,17,1013,100,1,20140920180000
1135,"Zhaoxian EPA, Shijiazhuang",,37.77171,114.775957,233,159,26,39,26,18,17,17,1013,100,1,20140920180000
1136,"Gaoyi County City Hall, Shijiazhuang",,37.623535,114.612729,253,194,37,22,15,16,17,17,1013,100,1,20140920180000
1137,"Zanhuang County City Hall, Shijiazhuang",,37.672898,114.398269,315,190,38,15,27,16,17,17,1013,100,1,20140920180000
1138,"Jingxing Bureau of Meteorology, Shijiazhuang",,38.038788,114.158406,272,238,49,28,21,21,17,17,1013,100,1,20140920180000
1139,"Pingshan Ye River, Shijiazhuang",,38.266657,114.210275,262,180,37,25,10,12,17,17,1013,100,1,20140920180000
420,Shijiazhuang,,38.042926,114.520834,243,158,28,26,17,12,17,17,1013,100,1,20140920180000
421,"No. 12 middle school, Tangshan",,39.659306,118.190271,174,98,28,11,9,3,-,-,0,-,-,20140920180000
422,"Ceramics Company, Tangshan",,39.669255,118.225185,99,68,15,28,28,12,20,18,1014,88,4,20140920180000
423,"Commodities Bureau, Tangshan",,39.642301,118.191265,109,70,13,24,22,11,20,18,1014,88,4,20140920180000
424,"Leidazhanzi Station, Tangshan",,39.644375,118.150383,127,59,19,22,17,14,20,18,1014,88,4,20140920180000
425,"Supply and marketing cooperatives, Tangshan",,39.632334,118.17232,147,64,18,28,28,14,20,18,1014,88,4,20140920180000
1140,"Guye District City Hall, Tangshan",,39.741379,118.460246,149,76,31,25,22,25,20,18,1014,88,4,20140920180000
1141,"Kaiping Stations, Tangshan",,39.675246,118.275149,153,89,21,30,17,20,20,18,1014,88,4,20140920180000
1142,"Fengnan District City Hall, Tangshan",,39.5834,118.097454,160,96,27,44,61,33,20,18,1014,88,4,20140920180000
1143,"Fengrun City Hall, Tangshan",,39.840355,118.175338,161,109,24,45,54,25,20,18,1014,88,4,20140920180000
1144,"Qianxi EPA, Tangshan",,40.153339,118.317265,102,56,26,18,5,19,20,18,1014,88,4,20140920180000
1145,"Caofeidian Xinli  Primary School, Tangshan",,39.291232,118.462182,137,65,43,28,7,9,20,18,1014,88,4,20140920180000
1146,"Zunhua EPA, Tangshan",,40.206249,117.997315,129,63,21,27,9,10,20,18,1014,88,4,20140920180000
1147,"Qianan No.1 middle school, Tangshan",,40.004248,118.717055,102,50,36,15,8,9,20,18,1014,88,4,20140920180000
1266,"Luannan County , Tangshan",,39.511132,118.686928,114,53,45,20,11,6,20,18,1014,88,4,20140920180000
1267,"Yutian County , Tangshan",,39.908249,117.751417,162,113,24,48,45,22,20,18,1014,88,4,20140920180000
426,Tangshan,,39.632175,118.186472,160,96,27,44,61,33,-,-,0,-,-,20140920180000
427,"City Monitoring Station, Qinhuangdao",,39.958109,119.607773,74,30,23,16,4,7,,,0,,,20140920180000
428,"Beidaihe, Qinhuangdao",,39.829209,119.53194,76,26,21,23,13,6,,,0,,,20140920180000
429,"Shanhai Pass, Qinhuangdao",,40.019298,119.767898,42,19,12,45,2,6,,,0,,,20140920180000
430,"Contruction Plazz, Qinhuangdao",,39.943187,119.542912,42,41,17,34,3,5,,,0,,,20140920180000
431,"City government, Qinhuangdao",,39.93711,119.612769,21,29,9,20,5,7,,,0,,,20140920180000
1148,"Qinglong EPA, Qinhuangdao",,40.419223,118.958002,65,33,16,10,2,3,20,18,0,88,4,20140920180000
1149,"Changli EPA, Qinhuangdao",,39.714369,119.173237,104,54,39,15,1,6,,,0,,,20140920180000
1268,"Lulong County Bureau of Meteorology , Qinhuangdao",,39.901091,118.904857,147,48,33,17,9,9,20,18,0,88,4,20140920180000
432,Qinhuangdao,,39.936485,119.606263,74,41,23,34,5,7,-,-,0,-,-,20140920180000
433,"CongTai Park, Handan",,36.620197,114.501891,249,198,11,12,6,24,20,19,0,92,0,20140920180000
434,"City EPA, Handan",,36.618145,114.518822,285,187,15,27,5,25,20,19,0,92,0,20140920180000
435,"East Sewage Factory, Handan",,36.616064,114.548714,229,194,15,16,7,18,20,19,0,92,0,20140920180000
436,"Mine Hospital, Handan",,36.578149,114.509854,190,142,18,39,4,14,20,19,0,92,0,20140920180000
1150,"Fengfeng mine Inland Revenue Department, Handan",,36.423085,114.245994,235,164,21,27,6,10,22,19,0,78,2,20140920180000
1151,"Shexian EPA, Handan",,36.589084,113.692341,294,192,32,22,11,42,,,0,,,20140920180000
1152,"Ci County Vocational Education Center, Handan",,36.380247,114.390119,201,111,27,44,9,22,,,0,,,20140920180000
1153,"Yongnian government guesthouse, Handan",,36.783297,114.502905,307,399,19,36,22,15,20,19,0,92,0,20140920180000
1154,"Wuan BDA, Handan",,36.686223,114.269009,244,179,8,37,13,19,,,0,,,20140920180000
1085,Handan,,36.625683,114.544812,285,198,18,39,7,25,20,19,0,92,0,20140920180000
437,"Road and Bridge Corporation, Xingtai",,37.096415,114.538799,240,250,10,51,11,20,20,19,1012,92,0,20140920180000
438,"Dahuo fontain, Xingtai",,37.097563,114.488001,201,129,12,24,8,20,20,19,1012,92,0,20140920180000
439,"Xingtai Normal College, Xingtai",,37.053404,114.531819,257,232,15,39,10,20,20,19,1012,92,0,20140920180000
440,"Environment protection office, Xingtai",,37.06253,114.490985,256,205,26,38,11,20,20,19,1012,92,0,20140920180000
1155,"Cultural centers within the mound, Xingtai",,37.293569,114.524873,212,143,33,5,9,19,20,19,1012,92,0,20140920180000
383,Xingtai,,37.071066,114.510749,257,250,26,51,11,20,20,19,1012,92,0,20140920180000
441,"City Monitoring Station, Baoding",,38.871737,115.527103,203,141,33,-,10,1,20,18,1011,85,1,20140920180000
442,"Surface water Company, Baoding",,38.842891,115.467326,257,152,21,39,5,11,20,18,1011,85,1,20140920180000
443,"Huadian II, Baoding",,38.896748,115.528102,219,139,36,5,7,8,20,18,1011,85,1,20140920180000
444,"Reception Center, Baoding",,38.911905,115.477301,220,138,21,97,9,9,20,18,1011,85,1,20140920180000
445,"Film Factory, Baoding",,38.876949,115.448383,221,153,24,18,5,20,20,18,1011,85,1,20140920180000
446,"Natatorium, Baoding",,38.863815,115.499212,187,140,31,18,9,18,20,18,1011,85,1,20140920180000
1156,"Qingyuan City Hall, Baoding",,38.771758,115.502189,246,149,22,17,8,14,20,18,1011,85,1,20140920180000
1157,"Xushui EPA, Baoding",,39.025781,115.668023,231,186,44,31,60,13,20,18,1011,85,1,20140920180000
1158,"Zhouzhou Monitoring Stations, Baoding",,39.493241,116.040187,229,137,42,18,8,7,20,18,1011,85,1,20140920180000
1159,"Gaobeidian EPA, Baoding",,39.3329,115.885891,238,165,44,25,26,8,20,18,1011,85,1,20140920180000
447,Baoding,,38.874791,115.471124,257,153,36,97,10,20,20,18,1011,85,1,20140920180000
448,"Century Compound, Zhangjiakou",,40.770279,114.909106,65,21,22,12,5,2,14,2,1014,31,2,20140920180000
449,"North Pumping Station, Zhangjiakou",,40.874362,114.910119,93,49,16,7,4,4,14,2,1014,31,2,20140920180000
450,"Hardware Warehouse, Zhangjiakou",,40.81232,114.887119,9,36,49,20,7,13,14,2,1014,31,2,20140920180000
451,"Tanji Chang, Zhangjiakou",,40.796301,114.89811,61,22,16,9,8,3,14,2,1014,31,2,20140920180000
1160,"Xiahuayuan EPA, Zhangjiakou",,40.509345,115.302442,107,59,6,16,23,4,14,2,1014,31,2,20140920180000
1161,"Huaian EPA, Zhangjiakou",,40.68157,114.398646,17,44,15,25,12,0,14,2,1014,31,2,20140920180000
1162,"Huailai Fuqian Primary School, Zhangjiakou",,40.422204,115.530285,152,75,14,46,1,1,14,2,1014,31,2,20140920180000
1269,"Zhangbei EPA , Zhangjiakou",,41.166775,114.732369,93,73,15,24,6,3,14,2,1014,31,2,20140920180000
1270,"Kangbao County Environmental Protection Agency , Zhangjiakou",,41.837866,114.591246,80,56,27,11,4,2,14,2,1014,31,2,20140920180000
1271,"Guyuan County welfare , Zhangjiakou",,41.669984,115.687401,97,59,16,19,3,4,14,2,1014,31,2,20140920180000
1272,"Shangyi County Environmental Protection Bureau , Zhangjiakou",,41.086638,113.984688,99,79,13,14,4,6,14,2,1014,31,2,20140920180000
1273,"Yuxian Secondary School , Zhangjiakou",,39.84699,114.601986,144,104,22,20,9,8,14,2,1014,31,2,20140920180000
1274,"Yang County Vocational Education Center , Zhangjiakou",,40.106343,114.134732,-,62,30,8,3,10,14,2,1014,31,2,20140920180000
1275,"Wan county Environmental Protection Agency , Zhangjiakou",,40.770459,114.75033,74,36,30,8,5,13,14,2,1014,31,2,20140920180000
473,"Nankou road, Tianjin",,39.174022,117.199688,161,130,11,33,11,19,20,17,1014,83,3,20140920180000
1276,"Zhuolu County Environmental Protection Agency , Zhangjiakou",,40.374273,115.221393,87,45,22,1,5,4,14,2,1014,31,2,20140920180000
452,Zhangjiakou,,40.825744,114.893659,93,49,49,20,8,13,14,2,1014,31,2,20140920180000
453,"Railway, Chengde",,40.917557,117.972331,59,50,21,10,4,3,14,9,1015,65,1,20140920180000
454,"Cultural Center, Chengde",,40.974625,117.824437,17,37,18,14,2,5,14,9,1015,65,1,20140920180000
455,"Bank of China, Chengde",,40.985582,117.958304,122,31,8,12,5,6,14,9,1015,65,1,20140920180000
456,"BDA, Chengde",,40.937567,117.969325,63,39,5,12,51,1,14,9,1015,65,1,20140920180000
457,"Ligong, Chengde",,41.012579,117.94428,72,34,21,7,1,3,14,9,1015,65,1,20140920180000
1163,"Chengde County EPA, Chengde",,40.776643,118.17646,112,54,20,12,2,6,14,9,1015,65,1,20140920180000
1164,"Xinglong County City Hall, Chengde",,40.424301,117.513488,137,54,16,19,9,10,14,9,1015,65,1,20140920180000
1165,"Luanping EPA, Chengde",,40.950792,117.350715,104,53,14,17,7,6,14,9,1015,65,1,20140920180000
1166,"Fengning County City Hall, Chengde",,41.216739,116.658037,68,40,7,10,5,8,14,9,1015,65,1,20140920180000
1277,"Longhua EPA , Chengde",,41.311956,117.739605,95,40,15,17,6,5,14,9,1015,65,1,20140920180000
458,Chengde,,40.955652,117.968737,122,50,21,12,51,6,14,9,1015,65,1,20140920180000
459,"Municipal EPB, Cangzhou",,38.323507,116.876746,185,157,13,41,4,12,20,17,1014,83,3,20140920180000
460,"Cangxian Urban Construction Bureau, Cangzhou",,38.299495,116.890734,190,169,9,26,11,14,20,17,1014,83,3,20140920180000
461,"TV Broadcast Station, Cangzhou",,38.325525,116.863761,216,138,11,21,6,17,20,17,1014,83,3,20140920180000
1167,"Qing County City Hall, Cangzhou",,38.589643,116.815876,194,20,2,31,8,0,20,17,1014,83,3,20140920180000
1168,"Poyoushi City Hall, Cangzhou",,38.089516,116.590575,255,314,1,39,14,15,20,17,1014,83,3,20140920180000
1169,"Huanghua Finance Bureau Training Center, Cangzhou",,38.377793,117.343356,195,125,20,15,21,6,20,17,1014,83,3,20140920180000
462,Cangzhou,,38.305035,116.844625,216,169,13,41,11,17,20,17,1014,83,3,20140920180000
463,"Environmental Monitoring Supervision Center, Langfang",,39.558157,116.720995,221,164,26,16,7,14,19,17,1013,88,1,20140920180000
464,"TCM Medical Material Company, Langfang",,39.519096,116.689914,200,134,23,25,8,19,20,17,1014,83,3,20140920180000
465,"BDA, Langfang",,39.576175,116.779041,203,150,24,28,10,16,20,17,1014,83,3,20140920180000
466,"North China Institute of Aerospace, Langfang",,39.53517,116.743027,203,142,15,36,7,18,20,17,1014,83,3,20140920180000
1170,"Guan Party School, Langfang",,39.446185,116.311026,232,177,37,32,9,14,20,17,1014,83,3,20140920180000
1171,"Xianghe EPA, Langfang",,39.76725,117.015252,229,145,30,21,12,13,20,17,1014,83,3,20140920180000
1172,"Wenan County EPA, Langfang",,38.880927,116.47001,276,168,27,30,8,12,20,17,1014,83,3,20140920180000
1173,"Three Rivers Department of Transportation, Langfang",,39.989419,117.091528,151,75,35,26,16,11,20,17,1014,83,3,20140920180000
1278,"Yongqing EPA , Langfang",,39.329071,116.510917,203,131,30,31,15,18,20,17,1014,83,3,20140920180000
1279,"Dacheng EPA, Langfang",,38.712628,116.665751,256,172,19,29,10,15,20,17,1014,83,3,20140920180000
467,Langfang,,39.539148,116.689668,203,159,24,36,10,19,20,17,1014,83,3,20140920180000
468,"Hengshui City EPB, Hengshui",,37.739679,115.695929,221,122,20,17,7,16,18,17,0,94,2,20140920180000
469,"Environmental Monitoring Station, Hengshui",,37.738593,115.648837,213,132,26,17,5,15,18,17,0,94,2,20140920180000
470,"Electrical Machine North Factory, Hengshui",,37.758686,115.70094,195,146,18,21,8,18,18,17,0,94,2,20140920180000
1174,"Anping EPA, Hengshui",,38.238559,115.537988,261,157,17,25,10,17,18,17,0,94,2,20140920180000
1175,"Jizhou EPA, Hengshui",,37.548552,115.58679,267,149,26,18,9,16,18,17,0,94,2,20140920180000
1280,"Zaoqiang EPA, Hengshui",,37.520698,115.714936,233,170,47,12,6,14,18,17,0,94,2,20140920180000
1281,"Wuyi EPA, Hengshui",,37.801554,115.898697,208,168,19,11,10,15,18,17,0,94,2,20140920180000
1282,"Wuqiang EPA , Hengshui",,38.03557,115.959767,215,145,15,36,10,20,18,17,0,94,2,20140920180000
1283,"Raoyang EPA , Hengshui",,38.230652,115.741041,223,184,20,19,8,15,18,17,0,94,2,20140920180000
1284,"Gucheng County , Hengshui",,37.347569,115.966707,243,167,27,28,15,8,18,17,0,94,2,20140920180000
471,Hengshui,,37.739562,115.676066,221,146,26,21,8,18,18,17,0,94,2,20140920180000
1176,"Xinji City Hall, Xinji",,37.949711,115.230084,286,173,27,16,14,14,18,17,0,94,2,20140920180000
474,"Qinjian street, Tianjin",,39.166588,117.15104,183,118,12,38,12,18,20,17,1014,83,3,20140920180000
475,"Nanjing Road, Tianjin",,39.120958,117.195112,197,124,13,33,15,18,20,17,1014,83,3,20140920180000
476,"Dazhigu No.8 road, Tianjin",,39.111811,117.25147,182,110,9,35,10,19,20,17,1014,83,3,20140920180000
477,"Qianjin street, Tianjin",,39.09371,117.207981,183,123,8,43,14,15,20,17,1014,83,3,20140920180000
478,"Huaihe street, Tianjin",,39.227167,117.191293,180,160,12,32,9,16,20,17,1014,83,3,20140920180000
479,"Xiangshan street, Tianjin",,39.134752,117.275125,191,103,10,28,9,20,20,17,1014,83,3,20140920180000
480,"Yuejin Road, Tianjin",,39.088177,117.320884,187,87,12,42,8,16,20,17,1014,83,3,20140920180000
482,"No.4 street, Tianjin",,39.035228,117.713424,175,95,19,9,7,13,20,17,1014,83,3,20140920180000
483,"Yongming road, Tianjin",,38.840392,117.463805,162,95,7,27,7,24,20,17,1014,83,3,20140920180000
484,"Xinhua street, Tianjin",,39.138671,117.010083,220,158,8,27,5,25,20,17,1014,83,3,20140920180000
485,"Jingu Road, Tianjin",,38.985659,117.381254,168,77,7,27,12,19,20,17,1014,83,3,20140920180000
486,"Tanggu Yingkou street, Tianjin",,39.021768,117.656454,169,98,12,17,11,17,20,17,1014,83,3,20140920180000
487,"Hexi Yijing road, Tianjin",,39.248392,117.798043,139,95,9,27,12,13,20,17,1014,83,3,20140920180000
488,"Jianshe Road, Tianjin",,39.720075,117.310588,197,106,10,34,8,21,20,17,1014,83,3,20140920180000
489,"Quanzhou South road, Tianjin",,39.373857,117.050329,191,104,13,26,14,15,20,17,1014,83,3,20140920180000
490,"Donghuan road, Tianjin",,40.043144,117.451062,175,95,15,12,12,20,20,17,1014,83,3,20140920180000
491,"Tuanpowa, Tianjin",,38.920418,117.16299,197,147,14,32,10,24,20,17,1014,83,3,20140920180000
493,"Beiwei No.2 road, Tianjin",,38.943857,116.920624,175,95,8,27,10,18,20,17,1014,83,3,20140920180000
494,"Haitai fazhan No.2 road, Tianjin",,39.079608,117.096583,198,157,6,14,6,11,20,17,1014,83,3,20140920180000
495,"Hangtian road, Tianjin",,39.152244,117.381309,169,95,10,15,10,16,20,17,1014,83,3,20140920180000
496,"Hanbei road, Tianjin",,39.159768,117.770477,112,95,21,11,10,19,20,17,1014,83,3,20140920180000
497,"Baobai highway, Tianjin",,39.51757,117.349635,172,119,16,11,6,17,20,17,1014,83,3,20140920180000
498,Tianjin,,39.085164,117.207281,197,124,13,43,15,18,20,17,1014,83,3,20140920180000
499,"Wolong bridge, Hangzhou",,30.24371,120.132762,154,70,16,32,4,8,22,19,1011,83,3,20140920180000
500,"Hemu primary school, Hangzhou",,30.309669,120.124507,134,56,33,32,13,11,22,19,1011,83,3,20140920180000
501,"Zhejiang Agricultural University, Hangzhou",,30.265601,120.197583,112,44,26,23,11,8,22,19,1011,83,3,20140920180000
502,"Xiasha, Hangzhou",,30.303516,120.352618,93,30,32,8,9,6,22,19,1011,83,3,20140920180000
503,"Yunqi, Hangzhou",,30.178555,120.093142,107,47,19,17,3,8,22,19,1011,83,3,20140920180000
504,"Xixi, Hangzhou",,30.272425,120.068144,151,68,16,31,3,8,22,19,1011,83,3,20140920180000
505,"Chengxiang town, Hangzhou",,30.179493,120.274184,78,14,40,14,8,7,22,19,1011,83,3,20140920180000
506,"Qiandao lake, Hangzhou",,29.638139,119.031092,102,48,37,3,5,5,22,19,1011,83,3,20140920180000
507,"Linping town, Hangzhou",,30.415948,120.305059,117,35,35,17,15,8,22,19,1011,83,3,20140920180000
509,"No.2 Middle School, Hangzhou",,30.044303,119.956356,154,81,11,14,6,11,22,19,1011,83,3,20140920180000
510,"City Hall, Hangzhou",,30.234185,119.723503,127,52,37,13,11,9,22,19,1011,83,3,20140920180000
511,"No. 4 middle school, Hangzhou",,30.229428,119.699591,117,52,19,9,6,9,22,19,1011,83,3,20140920180000
512,Hangzhou,,30.271756,120.159765,154,70,40,32,13,11,22,19,1011,83,3,20140920180000
513,"City Station, Wenzhou",,28.009715,120.679129,70,23,21,16,5,15,19,18,0,95,4,20140920180000
514,"Ouhai, Wenzhou",,28.001846,120.641982,63,21,13,18,2,7,19,18,0,95,4,20140920180000
515,"Longwan, Wenzhou",,27.968122,120.768393,65,22,17,19,4,8,19,18,0,95,4,20140920180000
516,"Nanpu, Wenzhou",,27.981763,120.683685,70,32,15,22,3,15,19,18,0,95,4,20140920180000
517,Wenzhou,,27.990985,120.703425,70,23,21,19,5,15,19,18,0,95,4,20140920180000
518,"Monitoring station, Jiaxing",,30.75437,120.767373,155,69,34,30,13,8,21,19,1012,88,2,20140920180000
519,"Jiaxing University, Jiaxing",,30.745099,120.735004,97,46,36,22,11,9,21,19,1012,88,2,20140920180000
520,"Qinghe Primary School, Jiaxing",,30.775685,120.747969,80,30,33,14,11,6,21,19,1012,88,2,20140920180000
521,Jiaxing,,30.751627,120.762862,155,69,36,30,13,9,21,19,1012,88,2,20140920180000
522,"Chengbei water plant, Huzhou",,30.891155,120.096593,87,33,20,24,7,8,22,19,1012,83,3,20140920180000
523,"Jishan new village, Huzhou",,30.859939,120.120168,99,34,30,19,9,8,22,19,1012,83,3,20140920180000
524,"Town west water plant, Huzhou",,30.862371,120.084577,85,37,29,19,8,7,22,19,1012,83,3,20140920180000
525,Huzhou,,30.892304,120.091694,99,37,30,24,9,8,22,19,1012,83,3,20140920180000
526,"Donghu middle school, Shaoxing",,29.990447,120.647547,153,63,27,18,13,15,22,19,1011,83,3,20140920180000
527,"City EPA station, Shaoxing",,30.001695,120.584318,175,90,32,28,17,7,22,19,1011,83,3,20140920180000
528,"Chengdong BDA committee, Shaoxing",,29.986643,120.613578,167,68,33,23,14,9,22,19,1011,83,3,20140920180000
529,"Paojiang station, Shaoxing",,30.07574,120.62154,68,37,34,20,53,12,22,19,1011,83,3,20140920180000
530,"Shaoxing technical school, Shaoxing",,29.930983,120.577131,151,67,9,12,8,11,22,19,1011,83,3,20140920180000
531,"Library, Shaoxing",,29.706266,120.253183,162,95,18,15,12,14,22,19,1011,83,3,20140920180000
532,"Transporation management station, Shaoxing",,29.726405,120.221602,160,104,16,21,8,15,22,19,1011,83,3,20140920180000
533,"Dongpu Town Governement, Shaoxing",,30.049601,120.539893,80,52,24,17,20,9,22,19,1011,83,3,20140920180000
534,Shaoxing,,29.993122,120.590182,175,68,34,28,53,12,-,-,0,-,-,20140920180000
535,"City Monitoring Station, Jinhua",,29.100031,119.690373,170,76,21,25,16,18,18,18,0,97,2,20140920180000
536,"No.15 middle school, Jinhua",,29.074022,119.652121,170,89,22,14,15,10,18,18,0,97,2,20140920180000
537,"No.4 middle school, Jinhua",,29.110109,119.653654,172,74,20,20,14,13,18,18,0,97,2,20140920180000
538,"Beiyuan, Jinhua",,29.332898,120.083351,164,83,7,22,17,16,18,18,0,97,2,20140920180000
539,"Jiangdong, Jinhua",,29.302486,120.095291,171,85,8,26,26,16,18,18,0,97,2,20140920180000
540,Jinhua,,29.076083,119.65215,172,89,22,25,16,18,18,18,0,97,2,20140920180000
541,"EPA building, Quzhou",,28.937291,118.876081,155,36,27,2,9,9,21,18,1011,84,3,20140920180000
542,"Experimental school, Quzhou",,28.961502,118.880916,158,72,28,23,14,5,21,18,1011,84,3,20140920180000
543,"Quzhou University, Quzhou",,28.971452,118.860052,162,71,17,13,12,8,21,18,1011,84,3,20140920180000
544,Quzhou,,28.966994,118.864252,162,71,28,13,14,9,21,18,1011,84,3,20140920180000
545,"Putuo east port, Zhoushan",,29.951412,122.317679,21,9,45,2,2,3,22,21,1010,94,1,20140920180000
546,"Dinghai tanfeng, Zhoushan",,30.018014,122.126566,38,0,41,3,3,9,21,21,1010,100,1,20140920180000
547,Zhoushan,,29.983049,122.210763,38,20,45,4,3,9,22,21,1010,94,1,20140920180000
548,"Taizhou EPA building, Taizhou",,28.651216,121.42331,72,28,36,4,2,6,20,20,0,97,3,20140920180000
549,"Luqiao Tian Yang Wang, Taizhou",,28.574364,121.381194,80,0,26,7,2,3,20,20,0,97,3,20140920180000
550,"Huangyan EPA building, Taizhou",,28.656151,121.285064,93,35,23,13,1,12,20,20,0,97,3,20140920180000
551,"Yu Zhuang Qian, Lishui",,28.419638,119.883884,149,51,10,22,4,9,21,19,1011,90,1,20140920180000
552,"Monitoring station building, Lishui",,28.444379,119.923103,160,63,9,15,11,7,21,19,1011,90,1,20140920180000
553,"Liandu primary school, Lishui",,28.450912,119.939332,163,66,13,18,7,10,21,19,1011,90,1,20140920180000
554,Lishui,,28.464224,119.927201,163,66,13,22,11,10,21,19,1011,90,1,20140920180000
1248,Jingningxian,,27.977454,119.634837,132,55,6,7,2,8,21,19,1011,90,1,20140920180000
555,Taigu Primary School,,29.864178,121.60022,154,70,3,31,6,14,21,21,1010,100,1,20140920180000
556,Qianhu shuihan,,29.862459,121.5328,147,59,5,7,5,11,21,21,1010,100,1,20140920180000
557,Sanjiang secondary schools,,29.891563,121.568427,132,57,7,33,8,12,21,21,1010,100,1,20140920180000
558,Longsai Hospital,,29.957301,121.726734,34,13,28,12,5,5,21,21,1010,100,1,20140920180000
559,Beilun District EPB,,29.911633,121.850773,65,31,7,28,3,8,21,21,1010,100,1,20140920180000
560,Wanli University,,29.821314,121.574364,158,74,2,30,6,13,21,21,1010,100,1,20140920180000
561,Qianhu water plant,,29.774416,121.648136,160,73,10,19,4,12,21,21,1010,100,1,20140920180000
562,Municipal management station,,29.899182,121.626691,142,63,3,30,5,12,21,21,1010,100,1,20140920180000
1177,Daxie Literary Museum,,29.9027,121.986447,59,20,20,11,4,6,21,21,1010,100,1,20140920180000
1178,Cixi EPB,,30.165807,121.248991,61,33,28,11,3,7,21,21,1010,100,1,20140920180000
1179,Cixi Experimently Primary School,,30.179808,121.268672,61,11,38,5,3,8,21,21,1010,100,1,20140920180000
1180,"Yongsan Park, Yuyao",,30.050842,121.162477,159,81,11,33,6,14,21,21,1010,100,1,20140920180000
1181,"Qilupu Water Company, Yuyao",,30.039112,121.133416,157,78,7,29,6,9,21,21,1010,100,1,20140920180000
1182,Fenghua EPB,,29.666557,121.42069,152,61,19,15,7,11,21,21,1010,100,1,20140920180000
1183,"Yuelong station, Ninghai",,29.296505,121.445872,142,86,17,17,7,10,21,21,1010,100,1,20140920180000
1184,"Wenfeng Primary School, Xiangshan",,29.470908,121.889544,34,13,29,5,2,7,21,21,1010,100,1,20140920180000
1185,"Chengnan Primary School, Ninghai",,29.293812,121.43666,153,63,17,17,7,9,21,21,1010,100,1,20140920180000
1186,"Xingang Primary School, Xiangshan",,29.203878,121.952514,17,10,40,6,2,5,21,21,1010,100,1,20140920180000
1356,Haishu City Monitoring Center,,29.86835,121.539341,147,59,5,8,53,11,21,21,1010,100,1,20140920180000
1357,Fenghua Xikou government,,29.693164,121.29331,107,49,10,18,3,9,21,21,1010,100,1,20140920180000
1294,Ningbo,,29.865766,121.548164,160,74,28,33,8,14,21,21,1010,100,1,20140920180000
1187,Fuyang,,30.046157,119.96468,154,81,11,14,6,11,-,-,0,-,-,20140920180000
1188,Yiwu,,29.304353,120.079794,171,85,8,26,26,16,-,-,0,-,-,20140920180000
1189,Zhuji,,29.711185,120.240748,162,95,18,15,12,14,22,19,1011,83,3,20140920180000
563,"Shanxi Road , Nanjing",,32.06795,118.779216,95,58,15,22,6,1,19,18,1013,94,2,20140920180000
564,"Ruijin Road , Nanjing",,32.029321,118.80817,95,57,7,22,7,8,19,18,1013,94,2,20140920180000
565,"Xuanwu Lake, Nanjing",,32.075423,118.800188,65,40,9,11,5,5,19,18,1013,94,2,20140920180000
566,"Olympic Center, Nanjing",,32.007171,118.742217,102,59,15,11,3,4,19,18,1013,94,2,20140920180000
567,"Xianlin University Town , Nanjing",,32.106958,118.919882,61,50,16,7,4,5,19,18,1013,94,2,20140920180000
568,Nanjing,,32.058179,118.802061,102,55,16,23,9,4,19,18,1013,94,2,20140920180000
569,"Shangfang hill , Suzhou",,31.24502,120.565211,72,34,13,24,5,3,21,20,1011,94,3,20140920180000
570,"Wuzhong District , Suzhou",,31.268105,120.61717,80,31,11,24,8,4,21,20,1011,94,3,20140920180000
571,"Suzhou New District , Suzhou",,31.297277,120.547262,89,30,14,30,16,4,21,20,1011,94,3,20140920180000
572,"Suzhou Industrial Area, Suzhou",,31.307603,120.673257,74,32,18,16,3,4,21,20,1011,94,3,20140920180000
573,"Xiangcheng district, Suzhou",,31.368674,120.645209,87,38,24,27,6,6,22,19,1012,83,3,20140920180000
574,Suzhou,,31.296701,120.589493,89,30,11,30,9,5,21,20,1011,94,3,20140920180000
575,"South suburb , Nantong",,31.957836,120.917218,114,45,20,26,15,2,19,18,1003,94,3,20140920180000
576,"Xinghu park, Nantong",,31.927873,120.944254,89,61,30,19,25,4,19,18,1003,94,3,20140920180000
577,"Zilang school, Nantong",,32.039638,120.814358,124,54,22,22,7,0,19,18,1003,94,3,20140920180000
578,Nantong,,31.978005,120.898555,114,57,19,26,17,5,19,18,1003,94,3,20140920180000
579,Lianyungang,,34.595509,119.226814,152,84,21,27,10,7,8,8,1016,96,0,20140920180000
580,"Hongmen police substation, Lianyungang",,34.588692,119.146693,65,40,28,10,8,5,18,17,1015,94,0,20140920180000
581,"Xugou Nuclear Expert Village , Lianyungang",,34.749957,119.373707,55,56,22,9,18,4,18,17,1015,94,0,20140920180000
582,"Hengrui pharmaceutical company, BDA, Lianyungang",,34.697574,119.353668,57,34,28,9,5,5,18,17,1015,94,0,20140920180000
583,"City Monitoring Station, Lianyungang",,34.586791,119.186929,78,40,18,11,6,4,18,17,1015,94,0,20140920180000
584,"Yellow river new village , Xuzhou",,34.271542,117.177241,89,49,15,13,8,9,18,17,1014,90,0,20140920180000
585,"Tongshan Veterinary Hospital , Xuzhou",,34.307086,117.197766,93,49,21,15,2,4,18,17,1014,90,0,20140920180000
586,"New Town , Xuzhou",,34.213992,117.261718,104,51,25,13,2,3,18,17,1014,90,0,20140920180000
587,"Taoyuan road, Xuzhou",,34.289822,117.249721,104,56,2,6,5,8,18,17,1014,90,0,20140920180000
588,"Agricultural Science Academy , Xuzhou",,34.27655,117.299079,80,36,22,12,5,3,18,17,1014,90,0,20140920180000
589,"Tongshan EPA, Xuzhou",,34.179384,117.171798,78,57,21,20,4,7,18,17,1014,90,0,20140920180000
590,Xuzhou,,34.20346,117.289825,104,56,15,20,7,8,18,17,1014,90,0,20140920180000
591,Yangzhou,,32.39233,119.418446,159,69,10,19,10,5,11,9,0,90,6,20140920180000
592,"Hanjiang Monitoring Station, Yangzhou",,32.374218,119.394484,68,33,23,7,5,2,17,16,0,95,2,20140920180000
593,"No. 4 Hospital, Yangzhou",,32.401394,119.44444,53,44,27,2,7,1,17,16,0,95,2,20140920180000
594,"City Monitoring Station, Yangzhou",,32.406588,119.41591,78,34,23,6,18,3,17,16,0,95,2,20140920190000
595,"University Town , Wuxi",,31.484752,120.273571,99,46,15,14,17,4,21,20,1011,94,3,20140920190000
596,"Shibei High School , Wuxi",,31.619969,120.279584,112,54,12,25,19,2,21,19,1012,88,2,20140920190000
597,"Yuhong Elementary School , Wuxi",,31.561155,120.249588,107,51,24,17,14,5,21,20,1011,94,3,20140920190000
598,Wuxi,,31.488746,120.31575,117,51,24,25,14,7,-,-,0,-,-,20140920190000
599,Changzhou,,31.808037,119.979205,172,86,6,22,36,13,11,9,0,88,5,20140920190000
600,"Chengjian School, Changzhou",,31.776476,119.937681,99,58,15,17,11,6,18,18,1003,96,3,20140920190000
601,"Changzhou Engineering Institute , Changzhou",,31.806828,119.966724,102,53,20,19,18,6,18,18,1003,96,3,20140920190000
602,"Wujin Monitoring Station, Changzhou",,31.701788,119.939676,127,57,13,23,19,5,18,18,1003,96,3,20140920190000
603,"City Monitoring Station, Changzhou",,31.777201,119.979426,137,60,23,24,18,6,18,18,1003,96,3,20140920190000
604,Zhenjiang,,32.18597,119.431281,170,79,4,39,15,13,9,8,0,93,5,20140920190000
605,"New District Administrative office , Zhenjiang",,32.186174,119.685021,78,47,22,12,6,5,19,18,1013,94,2,20140920190000
606,"Vocational Education Center , Zhenjiang",,32.212973,119.496253,59,30,19,22,4,5,19,18,1013,94,2,20140920190000
607,"Dantu Monitoring Station , Zhenjiang",,32.130026,119.435432,72,51,16,29,13,4,19,18,1013,94,2,20140920190000
608,"City Monitoring Station, Zhenjiang",,32.202178,119.439766,63,38,23,23,9,5,19,18,1013,94,2,20140920190000
609,"Gaogang Adminstrative office , Taizhoushi",,32.300768,119.886757,-,-,-,-,-,-,-,-,0,-,-,20140920190000
610,"Students Innovation Park , Taizhoushi",,32.461672,119.892761,104,62,28,3,10,2,17,16,0,95,2,20140920190000
611,Taizhoushi,,32.453555,119.927852,114,52,26,15,18,4,17,16,0,95,2,20140920190000
612,"Yancheng power station , Yancheng",,33.400859,120.123067,93,51,32,17,7,1,-,-,0,-,-,20140920190000
613,Yancheng,,33.345939,120.168504,144,52,30,5,3,7,11,10,1016,95,4,20140920190000
614,"Wenfeng Middle School , Yancheng",,33.370531,120.134041,68,35,26,15,6,2,-,-,0,-,-,20140920190000
615,"BDA Management Committe, Yancheng",,33.393191,120.22978,53,20,23,8,3,2,-,-,0,-,-,20140920190000
616,"City Monitoring Station, Yancheng",,33.390623,120.164423,95,43,25,28,3,3,17,16,0,95,2,20140920190000
617,Suqian,,33.960666,118.281004,160,87,24,7,5,7,11,10,0,91,6,20140920190000
618,"Suqian College , Suqian",,33.951472,118.298523,117,66,20,26,7,8,17,16,0,96,2,20140920190000
619,"Suqian Middle School , Suqian",,33.95784,118.249505,142,86,17,20,11,6,17,16,0,96,2,20140920190000
620,"Suyu District Environmental Protection Agency , Suqian",,33.94932,118.326569,154,60,25,12,9,7,17,16,0,96,2,20140920190000
621,"City Monitoring Station, Suqian",,33.956982,118.277022,149,58,25,15,10,6,17,16,0,96,2,20140920190000
622,Taizhou,,28.653436,121.425185,93,33,23,13,1,12,20,20,0,97,3,20140920190000
623,Donghu Liyuan,,30.572324,114.377844,155,64,23,49,1,12,19,19,1012,100,1,20140920190000
624,Yuehu Lake,,30.554662,114.256937,144,86,21,68,3,11,19,19,1012,100,1,20140920190000
625,Hankou Huaqiao ,,30.61724,114.287652,159,80,12,56,8,15,19,19,1012,100,1,20140920190000
626,Wuchang Ziyang ,,30.530801,114.309438,142,85,11,61,3,9,19,19,1012,100,1,20140920190000
627,Qingshan Ganghua,,30.622435,114.375599,165,104,8,42,11,17,19,19,1012,100,1,20140920190000
628,Dunkou Xinou,,30.480091,114.162176,164,88,17,52,6,12,19,19,1012,100,1,20140920190000
629,Donghu Gaoxin,,30.48095,114.40724,158,105,16,45,3,14,19,19,1012,100,1,20140920190000
630,Wujianshan,,30.63114,114.135907,134,58,24,24,0,11,20,19,1012,94,2,20140920190000
631,Yuanshun Road,,30.297142,113.858587,104,50,34,5,4,5,19,19,1012,100,1,20140920190000
632,Wuhan,,30.590689,114.310838,165,104,12,68,11,17,19,19,1012,100,1,20140920190000
1190,"Silingsan Factory, Yichang",,30.713288,111.306585,1,1,8,0,0,6,19,18,1012,95,1,20140920190000
633,Yichang,,30.689528,111.292131,1,1,12,0,0,6,22,19,1012,78,1,20140920190000
633,Yichang,,30.689528,111.292131,1,1,12,0,0,6,22,19,1012,78,1,20140920190000
1191,"City Library , Jingzhou",,30.31494,112.260844,1,1,7,0,0,25,22,20,1010,84,1,20140920190000
1192,"City committee communist party school, Jingzhou",,30.35054,112.20743,1,1,9,0,0,20,22,20,1010,84,1,20140920190000
1193,"kerong EPA, Jingzhou",,30.302965,112.29443,1,1,8,0,0,18,22,20,1010,84,1,20140920190000
634,Jingzhou,,30.332608,112.245451,1,1,7,0,0,21,22,20,1010,84,1,20140920190000
634,Jingzhou,,30.332608,112.245451,1,1,7,0,0,21,22,20,1010,84,1,20140920190000
635,Huangshi,,30.19723,115.043908,154,69,32,19,18,21,20,19,1014,97,3,20140920190000
635,Huangshi,,30.19723,115.043908,154,69,32,19,18,21,20,19,1014,97,3,20140920190000
1194,"Chenjiaying, Huangshi",,30.232823,115.067923,139,69,14,14,8,21,20,,1014,97,3,20140920190000
1195,"Chenjiawan , Huangshi",,30.200422,115.082138,129,57,26,8,6,20,20,,1014,97,3,20140920190000
1196,"Xinxialu, Huangshi",,30.17332,114.954357,132,63,28,19,18,20,20,,1014,97,3,20140920190000
1197,"Tie montian, Huangshi",,30.203885,114.906439,154,63,18,14,1,16,20,,1014,97,3,20140920190000
1198,"BDA, Huangshi",,30.207491,115.031739,132,-,32,11,3,21,20,,1014,97,3,20140920190000
636,Shiyan,,32.627208,110.803311,129,60,7,15,7,6,14,,1012,91,1,20140920190000
636,Shiyan,,32.627208,110.803311,129,60,7,15,7,6,14,,1012,91,1,20140920190000
1199,"Wudang Mountain , Shiyan",,32.392921,111.047655,50,13,22,1,3,5,14,,,91,1,20140920190000
1200,"Riverside Village , Shiyan",,32.647286,110.785335,129,60,6,15,6,6,14,,,91,1,20140920190000
1201,"Liujiagou , Shiyan",,32.636732,110.731129,-,-,-,-,-,-,-,,,-,-,20140920190000
637,Xiangyang,,32.007029,112.128496,139,61,29,1,15,9,16,,1012,88,1,20140920190000
637,Xiangyang,,32.007029,112.128496,139,61,29,1,15,9,16,,1012,88,1,20140920190000
638,Ezhou,,30.389244,114.899884,159,86,26,24,11,22,21,19,1021,96,2,20140920190000
638,Ezhou,,30.389244,114.899884,159,86,26,24,11,22,21,19,1021,96,2,20140920190000
1203,"City government, Ezhou",,30.391836,114.892822,132,56,24,13,7,18,21,,1021,96,2,20140920190000
1204,"Zhaojiaba, Ezhou",,30.368966,114.90365,134,59,21,18,1,22,21,,1021,96,2,20140920190000
1205,"Fankou BDA, Ezhou",,30.410759,114.818225,159,86,26,24,11,21,21,,1021,96,2,20140920190000
640,Xiaogan,,30.922089,113.922387,160,78,12,19,1,34,20,19,1012,94,2,20140920190000
640,Xiaogan,,30.922089,113.922387,160,78,12,19,1,34,20,19,1012,94,2,20140920190000
1206,"wenhua street, Shenyang , Xiaogan",,30.925856,113.92104,160,78,12,19,1,34,20,19,1012,94,2,20140920190000
1207,"Dongcheng District , Huludao , Xiaogan",,30.917963,113.943904,-,77,12,1,1,6,20,19,1012,94,2,20140920190000
641,Huanggang,,30.45124,114.877378,134,73,32,30,9,12,21,19,1021,96,2,20140920190000
641,Huanggang,,30.45124,114.877378,134,73,32,30,9,12,21,19,1021,96,2,20140920190000
1208,"Dazhou Island, Huanggang",,30.446205,114.900323,-,73,26,30,9,12,21,,1021,96,2,20140920190000
1209,"Workers Center , Huanggang",,30.469244,114.912504,134,63,32,20,5,11,21,,1021,96,2,20140920190000
642,Xianning,,29.838978,114.327898,127,59,22,14,6,18,14,19,986,92,1,20140920190000
642,Xianning,,29.838978,114.327898,127,59,22,14,6,18,14,19,986,92,1,20140920190000
1210,"Municipal Development and Reform Commission , Xianning",,29.818645,114.328461,87,52,18,12,6,18,14,,986,92,1,20140920190000
1211,"Xianan District Governement, Xianning",,29.51107,114.181864,82,50,3,5,5,21,15,,995,92,2,20140920190000
1212,"Yangtze River Industrial Park , Xianning",,29.883098,114.32909,114,59,17,14,1,18,14,,986,92,1,20140920190000
1213,"Qianshan Park, Xianning",,29.815351,114.328689,127,58,22,5,1,13,14,,986,92,1,20140920190000
643,Suizhou,,31.688342,113.388675,107,67,18,11,19,12,15,,1007,86,1,20140920190000
643,Suizhou,,31.688342,113.388675,107,67,18,11,19,12,15,,1007,86,1,20140920190000
1338,"City committee communist party school, Suizhou",,31.725316,113.3648,149,104,14,13,3,13,15,,1007,86,1,20140920190000
1339,"Forestry Bureau, Suizhou",,31.690065,113.383157,95,51,19,14,49,12,15,,1007,86,1,20140920190000
645,Xiantao,,30.360228,113.460616,152,76,13,20,5,12,17,19,1021,87,1,20140920190000
645,Xiantao,,30.360228,113.460616,152,76,13,20,5,12,17,19,1021,87,1,20140920190000
1214,"Xiangcheng Yundong Street, Xiangfan",,32.017716,112.16102,139,61,29,1,15,9,16,,1012,88,1,20140920190000
655,"City Environmental Monitoring Station, Baotou",,40.657201,109.886738,158,114,12,40,19,13,,,0,,,20140920190000
656,"Donghe EPB, Baotou",,40.586213,110.002224,154,173,16,40,40,46,,,0,,,20140920190000
657,"Baotou shopping mall, Baotou",,40.508334,109.819085,144,113,15,19,9,11,,,0,,,20140920190000
658,"Huilong logistics, Baotou",,40.633436,109.879821,154,112,20,42,11,9,,,0,,,20140920190000
659,Baotou,,40.658597,109.846051,168,173,23,42,40,46,16,3,0,30,1,20140920190000
660,"Huatai Automobile Mall, Eerduosi",,39.837048,109.972209,89,60,51,33,4,4,16,3,1011,30,1,20140920190000
661,"Olympus Garden, Eerduosi",,39.789171,109.987742,102,53,61,12,6,8,16,3,1011,30,1,20140920190000
662,Eerduosi,,39.609284,109.78704,127,60,64,37,15,13,16,3,1011,30,1,20140920190000
663,"Tianyi Road, Chifeng",,42.275552,118.88507,78,54,35,14,11,20,8,7,1018,89,1,20140920190000
664,"Songshan No.1 Middle School, Chifeng",,42.329307,118.793045,72,61,32,15,7,13,8,7,1018,89,1,20140920190000
665,"Hada Street, Chifeng",,42.280714,118.988235,82,84,17,16,10,9,8,7,1018,89,1,20140920190000
666,"Songshan Road, Chifeng",,42.171487,118.89501,85,67,110,10,10,5,8,7,1018,89,1,20140920190000
667,Chifeng,,42.259752,118.893027,85,84,110,16,11,20,8,7,1018,89,1,20140920190000
674,Fuzhou,,26.071406,119.301294,9,8,34,2,1,6,22,20,1004,88,5,20140920190000
675,"Xidong, Xiamen",,24.815345,118.161848,17,6,40,6,2,4,27,21,1002,70,2,20140920190000
676,"Hongwen, Xiamen",,24.473969,118.156281,38,12,47,5,2,7,27,21,1002,70,2,20140920190000
677,"Gulangyu, Xiamen",,24.443168,118.068571,25,11,36,4,1,6,27,21,1002,70,2,20140920190000
678,"Huli, Xiamen",,24.51235,118.099146,17,10,36,2,1,4,27,21,1002,70,2,20140920190000
679,Xiamen,,24.477187,118.094402,17,10,36,2,1,4,-,-,0,-,-,20140920190000
680,"Qingyuan Montain, Quanzhou",,24.939503,118.598337,34,12,18,3,3,4,27,21,1002,70,2,20140920190000
681,"Tushan Street, Quanzhou",,24.90867,118.586397,25,13,33,3,2,4,27,21,1002,70,2,20140920190000
682,"Wanan, Quanzhou",,24.304154,118.070903,17,8,30,3,1,4,27,21,1002,70,2,20140920190000
683,Quanzhou,,24.87179,118.68001,34,8,33,4,3,4,27,21,1002,70,2,20140920190000
687,"Jiancaoping, Taiyuan",,37.887889,112.528383,151,80,6,20,8,13,13,10,1015,82,2,20140920190000
688,"Jianhe, Taiyuan",,37.910779,112.579258,158,117,13,11,12,17,13,10,1015,82,2,20140920190000
689,"Shanglan, Taiyuan",,38.011589,112.440679,65,54,27,8,9,7,13,10,1015,82,2,20140920190000
690,"Jinyuan, Taiyuan",,37.713164,112.475552,170,108,16,22,19,11,13,10,1015,82,2,20140920190000
691,"Xiaodian, Taiyuan",,37.782137,112.483533,156,103,22,20,19,16,13,10,1015,82,2,20140920190000
692,"Taoyuan, Taiyuan",,37.869752,112.543332,149,89,14,27,10,19,12,10,1016,88,2,20140920190000
693,"Wucheng, Taiyuan",,37.819998,112.576252,182,183,17,18,14,18,13,10,1015,82,2,20140920190000
694,"Nanzhai, Taiyuan",,37.985902,112.555312,155,80,15,13,7,15,13,10,1015,82,2,20140920190000
695,"Jinsheng, Taiyuan",,37.781205,112.494494,159,139,17,16,18,11,13,10,1015,82,2,20140920190000
696,Taiyuan,,37.871115,112.555178,151,89,6,27,10,13,-,-,0,-,-,20140920190000
697,"Monitoring station, Changzhi",,36.194062,113.10389,167,87,19,13,16,26,21,19,0,88,2,20140920190000
698,"Auditing bureau, Changzhi",,36.212787,113.095221,172,99,8,20,8,19,21,19,0,88,2,20140920190000
699,"Qinghua station, Changzhi",,36.154328,113.116385,163,86,16,31,5,32,21,19,0,88,2,20140920190000
700,"No.8 middle school, Changzhi",,36.185451,113.099481,181,105,19,12,17,24,,,0,,,20140920190000
701,Changzhi,,36.195553,113.12292,163,86,16,31,5,32,21,16,0,65,2,20140920190000
702,"Yungang Hotel, Datong",,40.076997,113.278079,97,70,16,12,3,11,11,7,1014,71,0,20140920190000
703,"college of education, Datong",,40.085608,113.27808,155,72,11,21,7,17,11,7,1014,71,0,20140920190000
704,Datong,,40.078016,113.307143,93,72,21,7,10,11,11,7,1014,71,0,20140920190000
705,"Technical Schools, Linfen",,36.07131,111.509046,175,78,14,16,4,47,14,11,0,79,2,20140920190000
706,"Municipal party committee, Linfen",,36.087425,111.508771,151,64,22,1,8,26,14,11,0,79,2,20140920190000
1073,"City Monitoring Station, Linfen",,36.097676,111.518739,179,98,20,29,6,25,14,11,0,77,2,20140920190000
707,"South Airport, Linfen",,36.041614,111.497968,-,-,-,-,-,-,-,-,0,-,-,20140920190000
708,Linfen,,36.087944,111.525098,175,78,22,16,8,47,14,11,0,79,2,20140920190000
709,"City center, Yangquan",,37.848012,113.578636,240,167,50,8,10,18,12,10,1016,88,2,20140920190000
710,Yangquan,,37.857475,113.586921,190,187,42,8,85,37,13,10,1015,82,2,20140920190000
711,"Water Company, Jincheng",,35.504787,112.857245,151,77,16,27,6,14,21,16,1011,65,2,20140920190000
712,"Baiyun shopping mall, Jincheng",,35.492858,112.841566,74,69,8,29,12,16,21,16,1011,65,2,20140920190000
713,"City EPA, Jincheng",,35.488422,112.858528,85,51,8,28,9,21,21,16,1011,65,2,20140920190000
714,"Institute of Technology, Jincheng",,35.484844,112.878073,151,95,21,40,25,15,21,16,1011,65,2,20140920190000
715,"No.1 middle school, Jincheng",,35.478725,112.838636,104,47,10,47,14,11,21,16,1011,65,2,20140920190000
716,Jincheng,,35.490287,112.85794,151,95,21,47,25,21,21,16,1011,65,2,20140920190000
718,"District Government, Shuozhou",,39.320857,112.430641,-,81,-,17,27,-,13,6,1013,49,2,20140920190000
719,"City EPA, Shuozhou",,39.331495,112.407997,-,-,-,-,-,-,-,-,0,-,-,20140920190000
720,"No.2 middle school, Shuozhou",,39.377963,112.432877,124,80,11,39,27,10,13,6,1013,49,2,20140920190000
721,Shuozhou,,39.332756,112.439672,124,80,11,39,27,10,13,6,1013,49,2,20140920190000
722,"Jinlun compound, Jinzhong",,37.697891,112.771017,155,71,12,12,6,18,13,10,1015,82,2,20140920190000
723,"Hydraulic Component Factory, Jinzhong",,37.688355,112.725844,152,76,11,34,8,14,13,10,1015,82,2,20140920190000
724,"Nandu compound, Jinzhong",,37.713148,112.732036,173,96,7,10,5,14,13,10,1015,82,2,20140920190000
725,"Yuci district government, Jinzhong",,37.698228,112.714167,170,88,9,8,7,12,13,10,1015,82,2,20140920190000
726,Jinzhong,,37.687705,112.759187,173,96,12,34,8,18,13,10,1015,82,2,20140920190000
727,"Yuncheng Middle School, Yuncheng",,35.012345,111.003215,153,84,31,6,64,20,18,16,1011,87,1,20140920190000
728,"Yudou BDA, Yuncheng",,35.05065,111.029571,155,88,21,10,13,8,18,16,1011,87,1,20140920190000
730,"Regional Technical School, Yuncheng",,35.028727,110.974076,-,-,-,-,-,-,-,-,0,-,-,20140920190000
731,"Airport new district, Yuncheng",,35.084515,111.05339,-,-,-,-,-,-,-,-,0,-,-,20140920190000
732,Yuncheng,,35.025675,111.013344,155,88,31,10,64,20,-,-,0,-,-,20140920190000
733,"Jiyin, Xinzhou",,38.413292,112.742432,171,59,23,22,55,16,17,12,1013,72,2,20140920190000
734,"BDA, Xinzhou",,38.450069,112.736723,129,59,10,5,12,22,13,10,1015,82,2,20140920190000
735,"Convention Center, Xinzhou",,38.492043,112.709772,158,82,10,15,40,23,13,10,1015,82,2,20140920190000
736,Xinzhou,,38.417244,112.740742,158,82,10,15,40,23,15,12,1015,82,2,20140920190000
737,"City EPA, Luliang",,37.522189,111.144365,63,50,9,18,17,13,20,16,0,75,1,20140920190000
738,"Soybean factory, Luliang",,37.51689,111.135101,72,41,4,19,24,19,20,16,0,75,1,20140920190000
739,"Water Company, Luliang",,37.53394,111.138834,91,101,5,17,4,19,20,16,0,75,1,20140920190000
740,Luliang,,25.027007,103.668566,91,101,5,19,24,19,20,16,0,75,1,20140920190000
741,"City government, Sanmenxia",,34.776251,111.198781,91,85,8,17,14,18,18,16,1011,87,1,20140920190000
743,"BDA, Sanmenxia",,34.800434,111.204332,153,79,7,15,6,5,18,16,1011,87,1,20140920190000
744,Sanmenxia,,34.771506,111.206129,153,85,14,17,14,18,18,16,1011,87,1,20140920190000
745,"Food Factory, Changchun",,43.919094,125.329521,124,77,30,18,4,6,11,8,1017,82,1,20140920190000
746,"Bus Factory, Changchun",,43.912337,125.293431,129,78,16,43,6,7,11,8,1017,82,1,20140920190000
747,"Institute of Posts and Telecommunications, Changchun",,43.842368,125.285005,104,70,9,47,4,9,11,8,1017,82,1,20140920190000
748,"Laodong Park, Changchun",,43.877293,125.371519,160,83,17,37,5,12,11,8,1017,82,1,20140920190000
749,"Forest area, Changchun",,43.871825,125.331519,129,94,20,41,4,8,11,8,1017,82,1,20140920190000
750,"Jinyuetan, Changchun",,43.79031,125.460561,76,55,34,10,1,6,11,8,1017,82,1,20140920190000
751,"Shuaiwanzi, Changchun",,43.552321,125.639086,82,45,30,5,1,6,11,8,1017,82,1,20140920190000
752,"Economic Development Zone Sanitation Department, Changchun",,43.869221,125.42365,137,78,23,35,3,7,11,8,1017,82,1,20140920190000
753,"High-tech Zone Administrative Committee, Changchun",,43.819064,125.256375,97,75,25,29,2,7,11,8,1017,82,1,20140920190000
754,"Daishan Park, Changchun",,43.852365,125.223399,117,77,23,32,3,6,11,8,1017,82,1,20140920190000
755,Changchun,,43.819415,125.329977,160,70,17,47,5,12,-,-,0,-,-,20140920190000
756,"Hadawan, Jilin",,43.888081,126.545727,162,95,31,15,8,9,8,4,0,75,2,20140920190000
757,"Fengman, Jilin",,43.768169,126.678802,80,34,37,6,3,4,8,4,0,75,2,20140920190000
758,"Electric Power College, Jilin",,43.827403,126.502281,91,56,31,15,2,5,8,4,0,75,2,20140920190000
759,"Jiangnan Park, Jilin",,43.83531,126.556519,102,58,20,18,3,7,8,4,0,75,2,20140920190000
760,"Dongjuzi, Jilin",,43.838597,126.590068,85,67,15,23,2,8,8,4,0,75,2,20140920190000
763,Jilin,,43.840137,126.555262,162,95,38,23,8,9,8,4,0,75,2,20140920190000
764,"Lingbei, Haerbin",,45.756979,126.548008,82,56,26,31,39,6,6,5,1016,93,0,20140920190000
765,"Songbei Commercial University, Haerbin",,45.818624,126.566963,85,64,3,19,10,7,6,5,1016,93,0,20140920190000
766,"Acheng huining, Haerbin",,45.544286,126.985183,114,79,24,8,5,7,6,5,1016,93,0,20140920190000
767,"Nangang College Street, Haerbin",,45.724121,126.604906,129,72,26,38,7,9,6,5,1016,93,0,20140920190000
768,"Taiping Hongwei Park, Haerbin",,45.775332,126.695101,142,82,24,29,7,7,6,5,1016,93,0,20140920190000
769,"Daowai Chengde Square, Haerbin",,45.768637,126.640955,104,74,24,27,9,8,6,5,1016,93,0,20140920190000
770,"Xiangfang Hongqi Street, Haerbin",,45.733936,126.691083,85,62,26,7,10,9,6,5,1016,93,0,20140920190000
771,"Dongli Heping Road, Haerbin",,45.727765,126.651974,95,58,26,39,10,-,6,5,1016,93,0,20140920190000
772,"Daoli Jianguo Road, Haerbin",,45.749715,126.59891,107,65,27,32,22,9,6,5,1016,93,0,20140920190000
773,"Pingfang Light Factory, Haerbin",,45.611951,126.620898,112,51,6,27,6,11,6,5,1016,93,0,20140920190000
774,"Hulan Normal College, Haerbin",,45.983745,126.616553,93,37,25,24,10,5,6,5,1016,93,0,20140920190000
775,"Provincial Academy of Agricultural Sciences, Haerbin",,45.686141,126.626517,93,76,24,38,12,4,6,5,1016,93,0,20140920190000
776,Haerbin,,45.805757,126.541007,85,64,26,31,10,7,-,-,0,-,-,20140920190000
777,"Anju Compound, Qiqihaer",,47.365672,123.937016,65,30,37,10,5,6,13,10,1017,77,1,20140920190000
778,"Farming Vehicule Factory, Qiqihaer",,47.326793,123.961427,65,20,40,13,2,7,13,10,1017,77,1,20140920190000
779,"Fuqu EPA, Qiqihaer",,47.1853,123.62322,76,36,44,4,1,8,13,10,1017,77,1,20140920190000
780,"City Center Square, Qiqihaer",,47.343096,123.96192,61,19,33,5,1,6,13,10,1017,77,1,20140920190000
1217,"City Environmental Monitoring Station, Qiqihaer",,47.303639,123.957551,61,55,35,17,3,5,13,10,1017,77,1,20140920190000
781,Qiqihaer,,47.356387,123.924736,76,53,44,17,5,8,13,10,1017,77,1,20140920190000
782,"Saertu District, Daqing",,46.582368,125.152904,78,27,27,5,5,2,9,8,1017,86,1,20140920190000
783,"Datong District, Daqing",,46.036786,124.842115,89,27,36,4,5,4,9,8,1017,86,1,20140920190000
784,"Honggang District, Daqing",,46.418381,124.88973,68,31,33,8,4,3,9,8,1017,86,1,20140920190000
785,"Longfeng District, Daqing",,46.535426,125.107043,72,34,32,16,7,5,9,8,1017,86,1,20140920190000
786,"Ranghulu District, Daqing",,46.635123,124.85648,82,58,37,19,7,4,13,10,1016,76,0,20140920190000
787,Daqing,,46.591414,125.110838,82,58,37,19,7,5,13,10,1016,76,0,20140920190000
788,"Locomotive Factory, Mudanjiang",,44.610589,129.652672,97,48,37,9,2,4,7,5,1018,79,1,20140920190000
789,"No. 1 hospital, Mudanjiang",,44.567775,129.617043,114,67,28,16,10,5,7,5,1018,79,1,20140920190000
1220,"EPA building, Mudanjiang",,44.567777,129.620658,114,53,7,10,2,4,7,5,1018,79,1,20140920190000
1221,"Cultural Square, Mudanjiang",,44.586388,129.623164,109,40,2,14,12,6,7,5,1018,79,1,20140920190000
790,Mudanjiang,,44.553619,129.640246,107,112,37,17,15,7,7,5,1018,79,1,20140920190000
791,"Mingzhu Plaza, Hefei",,31.782847,117.201512,157,69,101,17,11,10,18,16,1013,88,3,20140920190000
792,"Sanli Street, Hefei",,31.874637,117.312573,149,72,76,38,8,6,18,16,1013,88,3,20140920190000
793,"Hupo Compound, Hefei",,31.868583,117.264491,137,56,42,7,9,7,18,16,1013,88,3,20140920190000
794,"Dongpu Reservoir, Hefei",,31.90319,117.165584,155,61,111,12,2,6,18,16,1013,88,3,20140920190000
795,"Changjiang middle road, Hefei",,31.855185,117.255484,151,81,8,10,11,13,18,16,1013,88,3,20140920190000
796,"Luyang District, Hefei",,31.941771,117.271504,151,59,36,2,14,8,18,16,1013,88,3,20140920190000
797,"Yaohai District, Hefei",,31.856595,117.341644,158,63,36,4,7,8,18,17,1013,94,3,20140920190000
798,"Baohe District, Hefei",,31.793644,117.307554,154,99,4,8,1,11,18,16,1013,88,3,20140920190000
799,"Lake district, Hefei",,31.736619,117.283501,158,66,21,30,3,8,18,16,1013,88,3,20140920190000
800,"High-tech zone, Hefei",,31.849755,117.129624,159,96,12,15,10,9,18,16,1013,88,3,20140920190000
801,Hefei,,31.819449,117.232753,157,81,101,17,11,13,-,-,0,-,-,20140920190000
802,"Hudong Road No.4 Elementary School, Maanshan",,31.684121,118.511017,104,41,94,12,7,9,19,18,1013,94,2,20140920190000
803,"Tianping Garment Factory, Maanshan",,31.64197,118.488043,134,60,113,15,10,8,19,18,1013,94,3,20140920190000
804,"City education base, Maanshan",,31.711216,118.648913,93,43,41,3,3,2,19,18,1013,94,3,20140920190000
805,"Cihu No.2 elementary school, Maanshan",,31.748546,118.515729,99,64,113,18,13,6,19,18,1013,94,3,20140920190000
806,"Maanshan steel factory power plant, Maanshan",,31.690864,118.48528,78,56,49,12,8,7,19,18,1013,94,3,20140920190000
807,Maanshan,,31.668461,118.511939,104,62,113,18,13,9,19,18,1013,94,2,20140920190000
808,"Science Innovation Center, Wuhu",,31.417056,118.375406,-,-,-,-,-,-,-,-,0,-,-,20140920190000
809,"No.4 Water Plant, Wuhu",,31.315914,118.376231,82,35,14,13,8,12,19,18,1013,94,3,20140920190000
810,"Monitoring station, Wuhu",,31.348955,118.358154,104,58,16,6,4,6,19,18,1013,94,3,20140920190000
811,"Wuqierling Factory, Wuhu",,31.382068,118.407639,85,43,39,8,7,4,19,18,1013,94,3,20140920190000
812,Wuhu,,31.351007,118.438322,104,58,39,13,8,12,19,18,1013,94,3,20140920190000
813,"Jiangxi Foreign Affairs Office, Nanchang",,28.678027,115.903436,159,74,28,16,17,3,22,18,1010,73,1,20140920190000
814,"Provincial forestry company, Nanchang",,28.69065,115.898546,142,59,28,12,18,10,22,18,1010,73,1,20140920190000
815,"Institute of Forestry, Nanchang",,28.731518,115.82478,68,54,35,7,14,11,22,18,1010,73,1,20140920190000
816,"Jingdong town government, Nanchang",,28.680659,115.972736,93,59,41,13,22,7,22,18,1010,73,1,20140920190000
817,"Contruction Industry College, Nanchang",,28.684018,115.865891,91,51,34,14,21,10,22,18,1010,73,1,20140920190000
818,"Xianghu, Nanchang",,28.637831,115.9033,154,54,43,19,28,11,22,18,1010,73,1,20140920190000
819,"Martial Arts School, Nanchang",,28.794538,115.752876,74,38,17,6,6,6,22,18,1010,73,1,20140920190000
820,"Petrifaction Company, Nanchang",,28.608634,115.912999,134,62,36,14,22,7,22,18,1010,73,1,20140920190000
821,"Provincial Station, Nanchang",,28.677155,115.941896,109,56,36,14,22,10,22,18,1010,73,1,20140920190000
822,Nanchang,,28.679883,115.863022,159,74,41,17,22,11,22,18,1010,73,1,20140920190000
939,Sanya,,18.251142,109.515993,55,36,10,11,2,6,28,26,1005,89,2,20140920190000
823,"Lushan Mountain Observatory, Jiujiang",,29.5751,115.998926,59,27,39,10,3,3,13,13,1012,99,7,20140920190000
824,"Shili, Jiujiang",,29.668119,115.992381,153,65,27,12,13,5,13,13,1012,99,7,20140920190000
825,"Maoshantou, Jiujiang",,29.700819,115.967192,114,54,32,7,6,6,13,13,1012,99,7,20140920190000
826,"Xiyuan, Jiujiang",,29.723929,115.998206,117,58,28,14,8,6,13,13,1012,99,7,20140920190000
827,"Wuqierling Factory, Jiujiang",,29.640802,116.022713,109,58,31,8,12,7,13,13,1012,99,7,20140920190000
828,"Water Scientific Research Institute, Jiujiang",,29.679179,116.068081,124,66,23,12,17,6,13,13,1012,99,7,20140920190000
829,"Zonghe Industrial Park, Jiujiang",,29.592047,115.916335,107,59,34,20,16,2,13,13,1012,99,7,20140920190000
830,"Petrochemical General Plant, Jiujiang",,29.738832,116.09463,112,53,23,12,6,4,13,13,1012,99,7,20140920190000
831,Jiujiang,,29.70254,116.007025,153,66,39,20,17,7,13,13,1012,99,7,20140920190000
1332,"Feiyu, Xinyu",,27.844697,115.000136,114,59,44,4,4,,19,,1010,91,1,20140920190000
1333,"Beigang, Xinyu",,27.932491,115.103767,99,-,24,4,13,,19,,1010,91,1,20140920190000
1334,"No.2 water factory, Xinyu",,27.839577,114.933915,114,58,17,6,17,,19,,1010,91,1,20140920190000
1335,"Bureau of Meteorology, Xinyu",,27.81048,114.936507,112,70,28,5,12,,19,,1010,91,1,20140920190000
1336,Xinyu,,27.814351,114.922194,114,70,28,7,17,11,19,18,1010,91,1,20140920190000
832,"Tobacco Factory, Zhengzhou",,34.753419,113.687131,91,45,18,19,8,16,18,18,1013,100,2,20140920190000
833,"Textile Machinery Factory, Zhengzhou",,34.773366,113.647067,93,57,8,19,8,13,18,18,1013,100,2,20140920190000
834,"Banking College, Zhengzhou",,34.800856,113.681126,85,57,15,20,14,13,18,18,1013,100,2,20140920190000
835,"Water Supply Company, Zhengzhou",,34.807188,113.571089,102,52,24,22,16,17,18,18,1013,100,2,20140920190000
836,"Economic Development Zone Management Committee, Zhengzhou",,34.717652,113.733182,93,50,11,17,8,9,18,18,1013,100,2,20140920190000
837,"No. 47 middle school, Zhengzhou",,34.772211,113.74009,117,54,24,17,8,5,18,18,1013,100,2,20140920190000
838,"City Monitoring Station, Zhengzhou",,34.748404,113.60514,97,57,16,26,9,16,18,18,1013,100,2,20140920190000
839,"Henan Medical University, Zhengzhou",,34.752637,113.641658,104,65,15,17,8,10,18,18,1013,100,2,20140920190000
840,"Gangli Reservoir, Zhengzhou",,34.952652,113.64248,93,67,12,12,9,18,21,19,1011,88,2,20140920190000
841,Zhengzhou,,34.745417,113.631415,104,65,16,26,9,16,-,-,0,-,-,20140920190000
842,"Henan University No.1 Hospital, Kaifeng",,34.799302,114.352706,91,52,28,10,5,14,18,18,1013,100,2,20140920190000
843,"Maternity And Child Hospital, Kaifeng",,34.795803,114.386103,122,59,16,12,8,32,18,18,1013,100,2,20140920190000
844,"Cancer Hospital, Kaifeng",,34.775428,114.350292,82,52,18,20,10,9,18,18,1013,100,2,20140920190000
845,"Yellow River Conservancy Institute, Kaifeng",,34.826066,114.324772,82,48,42,9,35,19,18,18,1013,100,2,20140920190000
846,"Shijixing Kindergarden, Kaifeng",,34.793606,114.302744,82,52,11,9,10,9,18,18,1013,100,2,20140920190000
847,Kaifeng,,34.796346,114.313426,91,52,28,20,10,14,18,18,1013,100,2,20140920190000
852,Jiaozuo,,35.215381,113.248188,155,77,47,14,22,16,18,18,1013,100,1,20140920190000
853,"Cotton Research Institute, Anyang",,36.081435,114.486451,107,45,21,12,7,9,19,17,1013,92,1,20140920190000
854,"Hongmiao Street, Anyang",,36.086733,114.326,171,99,5,32,8,31,19,17,1013,92,1,20140920190000
855,"Yinxing Compound, Anyang",,36.056519,114.36495,172,78,8,31,5,18,19,17,1013,92,1,20140920190000
856,"Tiefo Temple, Anyang",,36.110041,114.309309,164,119,9,33,8,42,19,17,1013,92,1,20140920190000
857,Anyang,,36.097767,114.398846,172,119,31,33,8,42,19,17,1013,92,1,20140920190000
858,"City Monitoring Station, Luoyang",,34.669055,112.439633,107,98,14,27,10,14,19,,1012,99,1,20140920190000
859,"BDA Management Committee, Luoyang",,34.622084,112.390759,134,71,22,10,13,14,19,,1012,99,1,20140920190000
860,"New municipal office, Luoyang",,34.623745,112.432973,153,67,27,16,8,23,19,,1012,99,1,20140920190000
861,"City committee communist party school, Luoyang",,34.650169,112.400212,122,76,21,30,17,15,19,,1012,99,1,20140920190000
862,"Henan Forestry College, Luoyang",,34.685566,112.509429,160,86,33,17,3,16,19,,1012,99,1,20140920190000
863,"CITIC No.2 Elementary School, Luoyang",,34.668212,112.36907,82,57,11,16,5,11,19,,1012,99,1,20140920190000
864,"Yuxi Hotel, Luoyang",,34.685949,112.472611,142,78,8,17,10,16,19,,1012,99,1,20140920190000
865,Luoyang,,34.617424,112.46054,160,98,33,30,17,23,19,16,1012,99,1,20140920190000
866,"City Planning Design Institute, Pingdingshan",,33.7352,113.297916,129,58,7,26,24,16,18,18,1013,100,1,20140920190000
