locationid,stationname,chinesename,latitude,longitude,pm25,pm10,o3,no2,so2,co,temperature,dewpoint,pressure,humidity,wind,est_time
1,Dongcheng Dongsi,,39.9304,116.423239,103,50,13,19,2,7,2,-1,1030,81,1,20141107170000
2,"Temple of Heaven, Dongcheng",,39.887403,116.41324,95,33,10,14,2,6,2,-1,1030,81,1,20141107170000
3,West Park officials,,39.930333,116.345162,124,50,10,25,2,7,2,-1,1030,81,1,20141107170000
4,West Wanshou Nishinomiya,,39.879354,116.358183,135,49,8,26,2,7,2,-1,1030,81,1,20141107170000
5,Chaoyang Olympic Sports Center,,39.983406,116.403253,113,38,6,26,2,7,2,-1,1030,81,1,20141107170000
6,Chaoyang Agricultural Exhibition Hall,,39.938331,116.46715,117,38,11,27,4,6,2,-1,1030,81,1,20141107170000
7,Haidian Wanliu,,39.988245,116.293062,155,56,2,31,4,8,2,-1,1030,81,1,20141107170000
8,The Haidian northern New Area,,40.091313,116.180194,177,83,1,23,4,24,2,-1,1030,81,1,20141107170000
9,Haidian Beijing Botanical Garden,,40.003252,116.213097,154,56,6,26,2,11,2,-1,1030,81,1,20141107170000
10,Fengtai garden,,39.86423,116.285037,157,58,4,32,2,8,2,-1,1030,81,1,20141107170000
11,Fengtai Yungang,,39.82535,116.152237,159,53,10,28,4,8,2,-1,1030,81,1,20141107170000
12,Shijingshan city,,39.915286,116.190144,142,55,11,25,3,9,2,-1,1030,81,1,20141107170000
13,"Fangshan, Liangxiang",,39.743357,116.14225,158,72,7,22,2,8,2,-1,1030,81,1,20141107170000
14,"Huangcunzhen, Daxing",,39.719389,116.410219,151,55,11,24,2,7,2,-1,1030,81,1,20141107170000
15,BDA,,39.796197,116.51197,158,61,10,23,3,7,2,-1,1030,81,1,20141107170000
16,Tongzhou New Town,,39.887113,116.6689,180,88,8,25,7,9,2,-1,1030,81,1,20141107170000
17,Shunyi New Town ,,40.128111,116.660908,164,78,3,28,2,16,2,-1,1030,81,1,20141107170000
18,Changping Town,,40.218245,116.236084,149,59,3,26,5,17,2,-1,1030,81,1,20141107170000
19,"Mentougou, Longquan Town",,39.938397,116.112323,150,54,6,21,3,13,2,-1,1030,81,1,20141107170000
20,Pinggu town,,40.144433,117.106563,168,76,6,20,4,21,2,-1,1030,81,1,20141107170000
21,Huairou town,,40.329104,116.63387,113,49,5,19,2,12,2,-1,1030,81,1,20141107170000
22,The town of Miyun,,40.371186,116.838053,158,60,3,22,5,15,2,-1,1030,81,1,20141107170000
23,Yanqing town,,40.454217,115.978106,158,60,7,17,6,19,2,-1,1030,81,1,20141107170000
24,Changping Dingling,,40.293269,116.226108,152,57,2,23,6,13,2,-1,1030,81,1,20141107170000
25,Badaling Northwest,,40.36623,115.994146,152,55,2,21,4,14,2,-1,1030,81,1,20141107170000
26,Miyun Reservoir,,40.500157,116.91701,137,51,11,10,4,11,2,-1,1030,81,1,20141107170000
27,"Donggaocun Zhen, Pinggu",,40.10142,117.126556,155,63,13,26,5,9,2,-1,1030,81,1,20141107170000
28,"Yongledianzhen, Tongzhou",,39.713192,116.78905,164,69,6,29,4,6,2,-1,1030,81,1,20141107170000
29,"Yufazhen, Daxing",,39.521203,116.306026,153,55,8,13,2,6,2,-1,1030,81,1,20141107170000
30,"Liulihezhen, Fangshan",,39.581169,116.006089,153,57,15,19,2,4,2,-1,1030,81,1,20141107170000
31,"Qianmen E St, Dongcheng",,39.900402,116.401242,144,43,7,25,3,9,2,-1,1030,81,1,20141107170000
32,Yongdingmen Inner St,,39.877401,116.400238,128,50,10,30,4,7,2,-1,1030,81,1,20141107170000
33,Xizhimen N St,,39.955352,116.355187,130,51,6,28,4,9,2,-1,1030,81,1,20141107170000
34,South Ring Road,,39.857377,116.37421,138,55,2,23,5,8,2,-1,1030,81,1,20141107170000
35,East Fourth Ring Road,,39.940273,116.489075,123,42,8,26,2,6,2,-1,1030,81,1,20141107170000
36,Beijing,,39.955906,116.474246,127,50,13,19,2,7,2,-1,1030,81,1,20141107170000
37,Putuo,,31.232979,121.415378,80,45,28,13,6,3,15,8,1026,63,5,20141107170000
38,Yangpu Sipiao,,31.263795,121.540311,74,36,31,14,12,6,15,8,1026,63,5,20141107170000
39,Shanghai Normal College Primary Division,,31.199031,121.487719,82,38,31,19,8,6,15,8,1026,63,5,20141107170000
40,Dianshan Lake,,31.091338,120.982293,95,33,27,9,7,7,15,8,1026,63,5,20141107170000
41,Hongkou Liangcheng,,31.298906,121.47155,55,40,30,20,8,6,15,9,1026,67,5,20141107170000
42,Jingan,,31.224251,121.429637,64,36,27,15,7,5,15,8,1026,63,5,20141107170000
43,Shanghai Normal University,,31.163531,121.416643,70,33,31,17,4,5,15,8,1026,63,5,20141107170000
44,Chuansha,,31.188626,121.707342,68,31,34,11,4,5,15,9,1026,67,5,20141107170000
45,Zhangjiang,,31.204896,121.581215,79,32,32,10,4,4,15,8,1026,63,5,20141107170000
46,Lingshan Road,,31.226286,121.537317,60,38,30,21,11,3,15,8,1026,63,5,20141107170000
1080,City average,,31.228451,121.478227,70,36,30,16,7,5,15,8,1026,63,5,20141107170000
47,Shanghai,,31.202842,121.453493,87,44,31,19,9,5,15,8,1026,63,5,20141107170000
48,Guangzhou,,23.138517,113.263701,80,40,5,16,2,14,17,16,1019,94,3,20141107170000
49,"Huadu town, Guangzhou",,23.389121,113.220062,17,4,5,15,2,7,17,16,1019,94,3,20141107170000
50,"Luogang Zhenlong, Guangzhou",,23.308027,113.567032,50,19,7,12,6,11,17,16,1019,94,3,20141107170000
51,"LuHu, Guangzhou",,23.151743,113.281842,68,22,1,18,2,10,17,16,1019,94,3,20141107170000
52,"Tianhu, Guangzhou",,23.647433,113.629715,5,6,19,6,3,9,17,16,1019,94,3,20141107170000
53,"Zhudong, Guangzhou",,23.418406,113.078552,17,8,8,15,4,8,17,16,1019,94,3,20141107170000
54,"Modiesha station, Guangzhou",,23.103814,113.338238,61,20,6,25,4,9,17,16,1019,94,3,20141107170000
55,Zhuhai,,22.2677,113.581765,139,52,6,38,3,13,21,21,1017,100,4,20141107170000
1075,"Huicai technical school, Foshan",,23.039667,113.105492,63,22,4,25,11,11,17,16,1019,94,4,20141107170000
56,"Sanshuiyun donghai, Foshan",,23.185788,112.865368,74,35,8,18,11,10,17,16,1019,94,4,20141107170000
57,"Nanhai Bureau of Meteorology, Foshan",,23.046836,113.145764,55,13,3,23,7,17,17,16,1019,94,4,20141107170000
58,"Sanshui Monitoring Station, Foshan",,23.163551,112.890843,80,40,5,24,14,11,17,16,1019,94,4,20141107170000
1087,Foshan,,23.018995,113.126899,55,13,3,23,7,17,17,16,1019,94,3,20141107170000
59,"Ronggui street committee, Shunde",,22.762729,113.258356,155,66,2,23,5,16,17,16,1019,94,3,20141107170000
60,Shunde,,22.80246,113.298701,139,52,1,26,9,10,-,-,0,-,-,20141107170000
61,"Donghu, Jiangmen",,22.590411,113.087351,119,59,1,24,11,8,21,21,1017,100,4,20141107170000
62,"Taoyuan Atmosphere Premier Station, Jiangmen",,22.72489,112.93404,78,32,1,18,11,14,21,21,1017,100,4,20141107170000
63,Jiangmen,,22.576047,113.087351,119,59,5,24,11,8,21,21,1017,100,4,20141107170000
64,"Kengkouzi station, Zhaoqing",,23.158865,112.570287,78,39,8,18,9,11,17,16,1019,94,4,20141107170000
65,"Mugangzi station, Zhaoqing",,23.067961,112.431934,80,25,6,15,4,15,17,16,1019,94,4,20141107170000
67,Zhaoqing,,23.044571,112.470346,82,25,10,12,5,9,17,16,1019,94,3,20141107170000
68,"Jinguo Bay, Huizhou",,22.937223,114.385567,152,74,21,10,4,7,22,21,1018,94,2,20141107170000
1091,"Xiabu, Huizhou",,23.077493,114.410275,152,65,9,16,7,5,22,21,1018,94,2,20141107170000
69,"Xijiao, Huizhou",,23.338178,114.112867,102,40,11,11,9,8,22,21,1018,94,2,20141107170000
70,"Jiangbei, Huizhou",,23.111706,114.415274,144,58,16,20,9,4,22,21,1018,94,2,20141107170000
71,"Huiyang chuanhu, Huizhou",,22.814485,114.329292,137,49,47,6,5,10,22,21,1018,94,2,20141107170000
72,"Daya bay management committee, Huizhou",,22.739283,114.53631,139,53,44,15,6,6,22,21,1018,94,2,20141107170000
73,Huizhou,,23.109349,114.421164,144,58,16,20,9,4,22,21,1018,94,2,20141107170000
74,"Guancheng No.2 water plant, Dongguan",,23.057294,113.753254,147,55,3,14,12,11,22,21,1018,94,2,20141107170000
75,"Dongcheng Shijing, Dongguan",,23.010039,113.799529,147,55,6,24,13,9,22,21,1018,94,2,20141107170000
76,"Nancheng Xiping, Dongguan",,22.963051,113.743494,152,56,4,23,9,11,22,21,1018,94,2,20141107170000
77,"Nancheng Yuanling, Dongguan",,23.025058,113.751308,129,52,4,22,14,10,22,21,1018,94,2,20141107170000
78,Dongguan,,23.017813,113.756958,129,52,4,22,14,10,22,21,1018,94,2,20141107170000
79,"Zimaling, Zhongshan",,22.505112,113.407183,153,59,1,17,12,12,21,21,1017,100,4,20141107170000
80,"Yangtze River tourist area, Zhongshan",,22.48589,113.439054,147,63,2,25,6,14,21,21,1017,100,4,20141107170000
81,"Huabai Park, Zhongshan",,22.51839,113.374362,134,60,3,17,10,16,21,21,1017,100,4,20141107170000
82,Zhongshan,,22.513997,113.398277,153,59,2,17,12,12,21,21,1017,100,4,20141107170000
83,"No.8 middle school, Shaoguan",,24.767777,113.583537,68,30,15,11,7,10,14,14,1022,96,1,20141107170000
83,"No.8 middle school, Shaoguan",,24.767777,113.583537,68,30,15,11,7,10,14,14,1022,96,1,20141107170000
84,"Forest area, Shaoguan",,24.796106,113.612131,70,32,18,6,7,8,14,14,1022,96,1,20141107170000
84,"Forest area, Shaoguan",,24.796107,113.612131,70,32,18,6,7,8,14,14,1022,96,1,20141107170000
86,"Shaoguan University, Shaoguan",,24.790864,113.646599,34,8,18,11,9,6,14,14,1022,96,1,20141107170000
86,"Shaoguan University, Shaoguan",,24.790864,113.646598,34,8,18,11,9,6,14,14,1022,96,1,20141107170000
88,"Qujiang Monitoring Station, Shaoguan",,24.683042,113.60157,42,21,17,17,14,11,14,14,1022,96,1,20141107170000
88,"Qujiang Monitoring Station, Shaoguan",,24.683042,113.60157,42,21,17,17,14,11,14,14,1022,96,1,20141107170000
89,Shaoguan,,24.807342,113.602712,70,32,18,6,7,8,14,14,1022,96,1,20141107170000
90,"Chaonanzi Station, Shantou",,23.251213,116.406762,117,63,42,12,5,8,22,16,1019,69,5,20141107170000
91,Shantou,,23.350642,116.686306,107,53,50,11,5,11,22,16,1019,69,5,20141107170000
92,"City Environmental Monitoring Station, Zhanjiang",,21.220431,110.397317,76,29,38,6,3,10,25,23,1016,84,3,20141107170000
93,"EPB Dormitory, Zhanjiang",,21.197376,110.406487,93,42,37,6,4,4,25,23,1016,84,3,20141107170000
94,"Xiashan Swimming Park, Zhanjiang",,21.200431,110.415655,117,47,48,6,5,10,25,23,1016,84,3,20141107170000
95,"Zhanjiang Theatre, Zhanjiang",,21.268177,110.366445,78,34,37,-,4,25,25,23,1016,84,3,20141107170000
96,"Mazhang EPA, Zhanjiang",,21.265486,110.335993,59,26,19,5,5,12,25,23,1016,84,3,20141107170000
97,"Potou District EPB, Zhanjiang",,21.247604,110.454508,30,18,44,7,1,14,25,22,1015,81,2,20141107170000
98,Zhanjiang,,21.26832,110.363883,78,34,37,6,4,25,25,23,1016,84,3,20141107170000
99,"Maogang sub-office EPB, Maoming",,21.466435,111.033462,142,60,39,5,3,6,22,21,0,89,4,20141107170000
100,"Petrochemical No. 7 elementaty school, Maoming",,21.648905,110.937861,153,58,36,6,3,12,22,21,0,89,4,20141107170000
101,"Jiankang road, Maoming",,21.662211,110.909482,147,59,23,10,4,12,22,21,0,89,4,20141107170000
102,"Gaoling, Maoming",,21.690558,110.871146,122,56,23,8,8,11,22,21,0,89,4,20141107170000
1094,Maoming,,21.660223,110.929968,147,59,23,10,4,12,22,21,0,89,4,20141107170000
103,"Jiaying University, Meizhou",,24.325415,116.12816,154,57,7,19,5,13,22,16,1019,69,5,20141107170000
104,"Mexian new town, Meizhou",,24.269283,116.084546,151,60,8,14,5,10,22,16,1019,69,5,20141107170000
105,"Environmental Monitoring Center, Meizhou",,24.262778,116.129621,153,61,7,16,6,9,22,16,1019,69,5,20141107170000
1095,Meizhou,,24.285988,116.127065,153,61,7,16,6,9,22,16,1019,69,5,20141107170000
106,"City EPA, Shanwei",,22.772349,115.370227,149,50,72,6,6,11,22,18,1019,71,4,20141107170000
107,"City government, Shanwei",,22.787161,115.375536,147,56,70,6,7,9,22,18,1019,71,4,20141107170000
108,"Xincheng Middle School, Shanwei",,22.789851,115.367124,144,58,43,5,4,12,22,18,1019,71,4,20141107170000
1099,Shanwei,,22.783576,115.38022,144,58,43,5,4,12,22,18,1019,71,4,20141107170000
109,"No.3 elementary school, Heyuan",,23.755946,114.699091,109,55,9,12,5,9,18,15,1020,76,1,20141107170000
109,"No.3 elementary school, Heyuan",,23.75435,114.703514,109,55,9,12,5,9,18,15,1020,76,1,20141107170000
111,"City water company, Heyuan",,23.688709,114.954652,137,46,11,12,5,9,18,15,1020,76,1,20141107170000
111,"City water company, Heyuan",,23.754246,114.682459,137,46,11,12,5,9,18,15,1020,76,1,20141107170000
113,"Heyuan high school, Heyuan",,23.720666,114.693879,93,30,10,9,5,9,18,15,1020,76,1,20141107170000
113,"Heyuan high school, Heyuan",,23.720037,114.699563,93,30,10,9,5,9,18,15,1020,76,1,20141107170000
115,Heyuan,,23.740888,114.705147,93,30,10,9,5,9,18,15,1020,76,1,20141107170000
116,"Yuanyang Lake, Yangjiang",,21.855869,111.983676,117,51,14,25,6,13,20,18,1017,89,5,20141107170000
1100,Yangjiang,,21.855227,111.987308,117,51,10,25,6,13,20,18,1017,89,5,20141107170000
118,"Town governement, Qingyuan",,23.708005,113.026215,53,14,10,16,9,16,17,16,1019,94,3,20141107170000
119,"Fupin district, Qingyuan",,23.624781,113.067713,34,11,7,11,6,16,17,16,1019,94,3,20141107170000
121,"Environment protection office, Qingyuan",,23.691109,113.047948,13,8,12,10,5,8,17,16,1019,94,3,20141107170000
121,"Environment protection office, Qingyuan",,23.685931,113.053239,13,8,12,10,5,8,17,16,1019,94,3,20141107170000
123,"Fengcheng Subdistrict, Qingyuan",,23.695447,113.068189,53,14,10,14,9,15,17,16,1019,94,3,20141107170000
124,Qingyuan,,23.679304,113.061513,13,8,12,10,5,8,17,16,1019,94,3,20141107170000
125,"Xiyuan Road, Chaozhou",,23.668654,116.638272,158,68,55,9,14,12,22,16,1019,69,5,20141107170000
126,"Archives Bureau, Chaozhou",,23.667881,116.649104,153,65,71,13,18,14,22,16,1019,69,5,20141107170000
127,"Municipal Corporation, Chaozhou",,23.65035,116.621859,151,69,47,11,11,18,22,16,1019,69,5,20141107170000
1101,Chaozhou,,23.654204,116.626969,151,69,47,11,11,18,22,16,1019,69,5,20141107170000
128,"Donghu Park, Jieyang",,23.532877,116.374427,104,35,47,10,4,9,22,16,1019,69,5,20141107170000
129,"Yuhu Middle School, Jieyang",,23.52682,116.414123,95,40,41,6,5,7,22,16,1019,69,5,20141107170000
130,"Experimental Primary School, Jieyang",,23.571473,116.364137,102,40,44,8,8,9,22,16,1019,69,5,20141107170000
1102,Jieyang,,23.547596,116.37754,104,35,47,10,4,9,22,16,1019,69,5,20141107170000
131,"City Environmental Monitoring Station, Yunfu",,22.936779,112.042248,34,12,2,4,5,12,17,16,1019,94,4,20141107170000
132,"The new city government headquarters, Yunfu",,22.914275,112.044475,53,13,3,14,10,22,17,16,1019,94,4,20141107170000
133,"Muyang police sub-station, Yunfu",,22.951267,112.05923,80,40,6,6,6,16,17,16,1019,94,4,20141107170000
1103,Yunfu,,22.912436,112.049811,53,13,3,14,10,22,17,16,1019,94,3,20141107170000
134,Yantian,,22.587949,114.266899,-,-,-,-,-,-,-,-,0,-,-,20141107170000
135,Kwai Chung,,22.572837,113.867166,160,64,22,23,4,14,22,21,1018,94,2,20141107170000
135,Kwai Chung,,22.354168,114.134558,160,64,22,23,4,14,22,21,1018,94,2,20141107170000
137,Nanyou,,22.513802,113.928051,129,46,35,19,5,12,22,21,1018,94,2,20141107170000
138,Meisha,,22.59611,114.318345,127,55,49,3,3,10,22,21,1018,94,2,20141107170000
139,Xi xiang,,22.717524,114.252304,9,56,36,14,4,13,22,21,1018,94,2,20141107170000
140,Liyuan,,22.54732,114.101205,117,44,25,15,2,13,22,21,1018,94,2,20141107170000
1072,Kwai Chung,,22.627947,114.428875,142,56,46,1,2,13,22,21,1018,94,2,20141107170000
1072,Kwai Chung,,22.354168,114.134558,142,56,46,1,2,13,22,21,1018,94,2,20141107170000
141,OCT,,22.539549,113.992458,124,55,32,12,2,13,22,21,1018,94,2,20141107170000
142,Honghu,,22.559647,114.121976,139,37,43,26,2,9,22,21,1018,94,2,20141107170000
143,Mission Hills,,22.694131,114.050496,158,60,36,15,2,15,22,21,1018,94,2,20141107170000
144,Shenzhen,,22.540382,114.062982,160,60,49,26,5,15,-,-,0,-,-,20141107170000
145,Chengdu,,30.622581,104.069564,137,60,10,26,5,7,14,11,1023,82,2,20141107170000
146,"Jinquan lianghe, Chengdu",,30.710359,103.974209,127,86,9,20,10,11,15,11,1024,77,1,20141107170000
147,"Shilidian, Chengdu",,30.684718,104.17845,114,57,5,18,3,6,15,11,1024,77,1,20141107170000
148,"Sanwayao, Chengdu",,30.568159,104.081524,142,79,,,,8,15,11,1024,77,1,20141107170000
149,"Shahepu, Chengdu",,30.633685,104.120536,147,67,5,25,3,8,15,11,1024,77,1,20141107170000
150,"Liang Lane, Chengdu",,30.682601,104.076522,112,54,16,25,5,7,15,11,1024,77,1,20141107170000
151,"Caotang Temple, Chengdu",,30.651891,104.0284,119,60,10,26,5,7,15,11,1024,77,1,20141107170000
152,"Lingyansi, Chengdu",,31.025729,103.615022,46,120,11,9,2,4,15,11,1024,77,1,20141107170000
153,"Fuleshan, Mianyang",,31.472493,104.7806,63,24,26,6,5,5,13,10,1024,76,3,20141107170000
154,"High-tech Zone Water Company, Mianyang",,31.463309,104.674293,65,30,24,7,8,5,13,10,1024,76,3,20141107170000
155,"No.3 water company, Mianyang",,31.505002,104.731054,70,29,30,3,2,2,13,10,1024,76,3,20141107170000
156,Mianyang,,31.465174,104.681731,85,32,30,9,8,5,13,10,1024,76,3,20141107170000
157,"Dongshan Park, Deyang",,31.118648,104.424587,65,31,7,2,3,4,15,11,1024,77,1,20141107170000
158,"Xixiaoqu, Deyang",,31.131159,104.390972,91,31,6,6,1,8,15,11,1024,77,1,20141107170000
159,"City Procuratorate, Deyang",,31.114554,104.407986,72,30,6,8,1,8,15,11,1024,77,1,20141107170000
160,"Refractory Factory, Deyang",,31.108606,104.356506,76,50,17,9,1,6,15,11,1024,77,1,20141107170000
161,Deyang,,31.124715,104.400703,91,50,17,9,3,8,15,11,1024,77,1,20141107170000
162,"Nongnongping, Panzhihua",,26.566698,101.695438,53,19,9,14,6,6,14,9,0,62,2,20141107170000
163,"Hemenkou, Panzhihua",,26.589072,101.578312,85,56,15,16,23,19,14,9,0,62,2,20141107170000
164,"Bingcaogang, Panzhihua",,26.58143,101.718473,53,50,18,22,16,17,14,9,0,62,2,20141107170000
165,"Renhe, Panzhihua",,26.498166,101.746887,30,15,8,10,6,19,14,9,0,62,2,20141107170000
166,"Jinjina, Panzhihua",,26.553226,101.84862,87,49,12,11,5,12,14,9,0,62,2,20141107170000
167,Panzhihua,,26.578779,101.720211,87,56,15,22,23,19,14,9,0,62,2,20141107170000
168,"Shima Middle School, Yibin",,28.815979,104.599199,166,89,8,17,13,11,13,12,1025,93,0,20141107170000
169,"Municipal party committee, Yibin",,28.762654,104.624834,154,65,5,14,9,12,13,12,1025,93,0,20141107170000
170,"No. 4 middle school, Yibin",,28.783257,104.608407,180,110,5,16,8,10,13,12,1025,93,0,20141107170000
171,"City government, Yibin",,28.760477,104.644079,168,92,6,16,6,10,13,12,1025,93,0,20141107170000
172,"Huangjinzui, Yibin",,28.712319,104.578389,164,89,11,12,18,13,13,12,1025,93,0,20141107170000
173,"Shaping Middle School, Yibin",,28.795569,104.681393,151,69,10,12,6,9,13,12,1025,93,0,20141107170000
174,Yibin,,28.748384,104.645766,180,110,10,17,18,13,13,12,1025,93,0,20141107170000
175,"Datang Hill, Zigong",,29.359969,104.757388,169,20,15,10,1,7,14,11,0,80,2,20141107170000
176,"Yanma Road, Zigong",,29.355752,104.724036,153,63,22,13,20,4,14,11,0,80,2,20141107170000
177,"Tanmulin Street, Zigong",,29.353555,104.777397,165,74,20,8,12,6,14,11,0,80,2,20141107170000
178,"Chunhua Road, Zigong",,29.33825,104.771895,157,61,13,11,8,8,14,11,0,80,2,20141107170000
179,Zigong,,29.33617,104.781138,169,74,22,13,20,8,14,11,0,80,2,20141107170000
180,"Jiushi Hill, Luzhou",,28.955347,105.434207,99,53,20,9,5,4,14,11,0,82,1,20141107170000
181,"Xiaoshishang Port, Luzhou",,28.899583,105.447192,112,42,11,9,11,5,14,11,0,82,1,20141107170000
182,"Lantianxian Bridge, Luzhou",,28.852766,105.4358,82,41,10,17,3,2,14,11,0,82,1,20141107170000
183,"City Environment Monitoring Station, Luzhou",,28.895898,105.435802,76,35,4,15,6,5,14,11,0,82,1,20141107170000
184,Luzhou,,28.868782,105.445938,112,42,11,17,11,5,14,11,0,82,1,20141107170000
185,"City Committee, Nanchong",,30.799993,106.082906,134,58,20,7,6,3,14,13,1025,100,1,20141107170000
186,"Refinery Factory, Nanchong",,30.819412,106.10712,152,55,30,11,7,1,14,13,1025,100,1,20141107170000
187,"Gaoping District Monitoring Station, Nanchong",,30.783291,106.110417,129,45,13,5,8,8,14,13,1025,100,1,20141107170000
188,"Jialing District EPB, Nanchong",,30.761255,106.06818,139,52,13,33,6,7,14,13,1025,100,1,20141107170000
189,"City Environmental Monitoring Station, Nanchong",,30.836519,106.11272,109,17,8,20,9,6,14,13,1025,100,1,20141107170000
190,Nanchong,,30.835511,106.114717,152,58,30,33,9,8,14,13,1025,100,1,20141107170000
1249,"City Monitoring Station, Neijiang",,29.592673,105.036234,153,55,10,14,15,6,15,11,0,80,2,20141107170000
1250,"Dongxing District Government , Neijiang",,29.592148,105.074966,152,63,12,12,11,4,15,11,0,80,2,20141107170000
1251,"No 2 middle school, Neijiang",,29.579135,105.068548,152,64,13,15,13,5,15,11,0,80,2,20141107170000
1252,Neijiang,,29.577653,105.06166,153,64,13,15,15,6,15,11,0,80,2,20141107170000
1253,"City Monitoring Station, Suining",,30.610641,105.683583,76,46,46,6,14,8,12,9,0,81,1,20141107170000
1254,"Administrative center , Suining",,30.63206,105.819747,76,44,98,8,5,4,12,9,0,81,1,20141107170000
1255,Suining,,30.530053,105.596307,85,46,98,8,14,8,12,9,0,81,1,20141107170000
1256,"City Monitoring Station, Leshan",,29.560651,103.759211,173,89,6,24,9,12,14,12,0,83,1,20141107170000
1257,"Leshan Giant Buddha Scenic Area , Leshan",,29.543938,103.772706,171,87,8,24,6,9,14,12,0,83,1,20141107170000
1258,Leshan,,29.54935,103.767777,188,110,8,26,9,12,14,12,0,83,1,20141107170000
1259,"Heilongtan , Meishan",,30.047726,103.900649,169,75,10,16,1,5,15,11,1024,77,1,20141107170000
1260,"Bureau of Meteorology, Meishan",,30.084591,103.843715,176,97,7,22,7,8,15,11,1024,77,1,20141107170000
1261,"Xuguang Community , Meishan",,30.066277,103.8516,173,102,4,23,8,7,15,11,1024,77,1,20141107170000
1262,"City Monitoring Station, Meishan",,30.059205,103.836229,179,92,4,21,16,9,15,11,1024,77,1,20141107170000
1263,Meishan,,30.072618,103.85064,179,102,10,23,16,9,15,11,1024,77,1,20141107170000
1264,"Ziyang middle school, Ziyang",,30.147763,104.638024,109,63,18,3,17,5,14,11,0,80,2,20141107170000
1265,Ziyang,,30.126054,104.63004,139,69,18,9,24,5,14,11,0,80,2,20141107170000
191,Shenyang US Consulate,,41.785668,123.432865,225,149,,48,56,,-4,-12,1030,54,2,20141107170000
192,"Huishan, Shenyang",,41.835421,123.647773,185,101,28,20,11,4,-4,-12,1029,54,1,20141107170000
193,"Hunnan, Shenyang",,41.758263,123.540809,193,113,7,32,14,13,-4,-12,1030,54,2,20141107170000
194,"Zhangshi, Shenyang",,41.771679,123.289859,200,139,3,47,34,16,-4,-12,1029,54,1,20141107170000
195,"Artillery College, Shenyang",,41.835749,123.547799,157,107,17,36,26,9,-3,-12,1030,51,2,20141107170000
196,"Beiling, Shenyang",,41.849633,123.434146,266,187,9,48,51,18,-4,-12,1029,54,1,20141107170000
197,"Wenyi Road, Shenyang",,41.767444,123.416144,293,149,14,48,56,12,-4,-12,1030,54,2,20141107170000
198,"Xiaoheyan, Shenyang",,41.779828,123.484015,234,150,11,39,18,12,-4,-12,1029,54,1,20141107170000
199,"Taiyuan Street, Shenyang",,41.799646,123.406146,325,216,6,53,77,11,-4,-12,1030,54,2,20141107170000
200,"Ermao, Shenyang",,41.783011,123.366679,280,187,16,60,52,14,-4,-12,1030,54,2,20141107170000
201,"Liaoning University, Shenyang",,41.830704,123.361071,265,155,9,46,45,14,-4,-12,1030,54,2,20141107170000
202,Shenyang,,41.808126,123.437611,325,216,6,53,77,11,-4,-12,1029,54,1,20141107170000
1104,"wenhua street, Shenyang , Shenyang",,41.774139,123.441839,293,149,14,48,56,12,-4,-12,1029,54,1,20141107170000
1105,"Tanglin Road , Shenyang , Shenyang",,41.823665,123.562317,159,125,13,38,51,11,-4,-12,1029,54,1,20141107170000
203,"Ganjingzi, Dalian",,38.9747,121.616893,82,59,14,27,6,2,3,-3,1029,65,2,20141107170000
204,"Zhoushuizi, Dalian",,38.951928,121.569981,93,45,7,24,17,17,3,-3,1029,65,2,20141107170000
205,"Xinghai No 3 station, Dalian",,38.885779,121.568864,91,50,6,33,14,4,3,-3,1029,65,2,20141107170000
206,"Qingniwa Bridge, Dalian",,38.91274,121.638018,74,37,12,29,16,5,3,-5,1030,56,1,20141107170000
207,"Fujiazhuang, Dalian",,38.864647,121.629947,70,43,8,20,25,4,3,-3,1029,65,2,20141107170000
208,"Qixianling, Dalian",,38.856978,121.523169,74,59,2,13,4,8,3,-3,1029,65,2,20141107170000
209,"Lushun, Dalian",,38.808946,121.264063,72,33,16,8,8,4,3,-3,1029,65,2,20141107170000
210,"Jinzhou, Dalian",,39.132192,121.753259,87,49,14,4,25,8,3,-3,1029,65,2,20141107170000
211,"BDA, Dalian",,39.05213,121.782022,78,36,13,9,12,5,3,-3,1029,65,2,20141107170000
212,"D&D Port, Dalian",,39.064087,121.981874,102,6,3,6,17,9,3,-5,1030,56,1,20141107170000
213,Dalian,,38.91478,121.619625,74,37,12,29,16,5,-,-,0,-,-,20141107170000
214,"Bearing Factory, Dandong",,40.068929,124.345703,-,-,-,-,-,-,-,-,0,-,-,20141107170000
215,"Financial school, Dandong",,40.158723,124.432593,-,-,-,-,-,-,-,-,0,-,-,20141107170000
216,"Yuanbaoshan water, Dandong",,40.149431,124.391698,119,59,17,11,29,12,3,-9,1028,25,2,20141107170000
217,"Experimental Primary School, Dandong",,39.887343,124.158056,134,67,13,14,22,14,3,-9,1028,25,2,20141107170000
218,Dandong,,40.002046,124.360479,139,67,17,22,29,14,3,-9,1028,25,2,20141107170000
1106,"minzhu bridge, Dandong , Dandong",,40.112974,124.373604,134,67,13,14,22,14,3,-9,1028,25,2,20141107170000
1107,"yuanbaoshan, Dandong , Dandong",,40.146298,124.399081,119,59,17,11,29,12,3,-9,1028,25,2,20141107170000
1108,"linjiang houjie, Dandong , Dandong",,40.152757,124.431745,139,63,10,22,25,11,3,-9,1028,25,2,20141107170000
219,"BDA, Panjin",,41.157144,122.06645,167,79,6,34,18,20,0,-13,0,35,1,20141107170000
220,"Xinglongtai, Panjin",,41.140948,122.111343,171,86,2,29,14,14,0,-13,0,35,1,20141107170000
221,"Dingxiang, Panjin",,41.16139,121.928781,132,53,15,15,5,8,0,-13,0,35,1,20141107170000
222,Panjin,,41.122089,122.076206,171,86,15,34,18,20,0,-13,0,35,1,20141107170000
223,"No.3 water company, Yingkou",,40.682052,122.385352,157,83,12,39,33,10,0,-9,1030,40,2,20141107170000
224,"Yingkou University, Yingkou",,40.683689,122.388285,177,90,10,44,53,13,0,-9,1030,40,2,20141107170000
225,"Botanical garden, Yingkou",,40.711674,122.281568,151,60,6,47,52,24,0,-9,1030,40,2,20141107170000
226,Yingkou,,40.668578,122.24059,177,90,12,47,53,24,0,-9,1030,40,2,20141107170000
1109,"jinghu west street, Yingkou , Yingkou",,40.653831,122.221943,157,83,12,39,33,10,0,-9,1030,40,2,20141107170000
1110,"Daqing Road , Yingkou , Yingkou",,40.709181,122.28243,151,60,6,47,52,24,0,-9,1030,40,2,20141107170000
227,"Xishanpo, Huludao",,40.724078,120.921974,127,72,12,28,34,14,,,0,,,20141107170000
228,"Huagong hospital, Huludao",,40.755662,120.848435,154,86,6,18,26,14,,,0,,,20141107170000
229,"New district park, Huludao",,40.723415,120.853801,162,98,6,27,32,10,,,0,,,20141107170000
230,"Lianshan district governement, Huludao",,40.775488,120.872292,142,77,4,21,18,19,,,0,,,20141107170000
231,Huludao,,40.712501,120.842107,162,98,6,27,32,19,,,0,,,20141107170000
1111,"Dongcheng District , Huludao , Huludao",,40.775362,120.871706,142,77,4,21,18,19,,,0,,,20141107170000
1112,"huagong street, Huludao , Huludao",,40.758901,120.842935,154,86,6,18,26,14,,,0,,,20141107170000
232,Anshan,,41.110466,123.000147,196,132,12,28,48,19,-3,-12,1030,51,2,20141107170000
233,"Qianshan Park, Anshan",,41.033486,123.143897,162,70,20,12,10,4,-4,-12,1030,54,2,20141107170000
234,"Tiexi, Anshan",,41.121636,122.97506,196,132,5,26,44,14,-4,-12,1030,54,2,20141107170000
235,"Taiping Station, Anshan",,41.153322,123.052433,164,78,8,12,48,19,-4,-12,1030,54,2,20141107170000
236,"Central Station, Anshan",,41.106731,123.002736,166,75,18,21,18,12,-4,-12,1030,54,2,20141107170000
237,"Shengou Temple, Anshan",,41.137157,123.031901,164,75,11,19,14,11,-4,-12,1029,54,1,20141107170000
1113,"Qianshan , Anshan , Anshan",,41.014521,123.122538,162,70,20,12,10,4,-4,-12,1029,54,1,20141107170000
1114,"Tiexi Sandao jie, Anshan",,41.103264,122.978613,196,132,5,26,44,14,-4,-12,1029,54,1,20141107170000
1115,"Taiyang, Anshan",,41.094946,123.019037,166,75,18,21,18,11,-4,-12,1029,54,1,20141107170000
238,Fushun,,41.883028,123.962984,160,133,13,34,32,19,-4,-12,1029,54,1,20141107170000
239,"Shenfu new town, Fushun",,41.804638,123.631684,160,133,8,30,23,11,-4,-12,1029,54,1,20141107170000
240,"Reservoir, Fushun",,41.8464,123.802857,117,64,14,30,9,9,-4,-12,1029,54,1,20141107170000
241,"Train Station, Fushun",,41.89726,124.017604,154,100,9,21,20,15,-4,-12,1029,54,1,20141107170000
242,"Dongzhou, Fushun",,41.855578,124.044738,117,94,14,25,18,8,-4,-12,1029,54,1,20141107170000
243,"Xinhua, Fushun",,41.888598,123.932932,159,121,6,28,9,19,-4,-12,1029,54,1,20141107170000
244,"Wanghua, Fushun",,41.888825,123.093723,139,151,5,34,32,16,-4,-12,1029,54,1,20141107170000
245,Benxi,,41.296267,123.772371,164,104,39,34,55,30,-3,-12,1030,51,2,20141107170000
246,"Weining, Benxi",,41.349663,123.826071,161,97,39,34,2,16,-4,-12,1029,54,1,20141107170000
247,"Occupational disease hospital, Benxi",,41.305432,123.74645,142,62,6,27,14,7,-4,-12,1030,54,2,20141107170000
248,"Dongming, Benxi",,41.292369,123.765058,163,63,4,28,55,28,-4,-12,1029,54,1,20141107170000
249,"Caitun, Benxi",,41.301591,123.746039,164,104,4,28,19,30,-4,-12,1029,54,1,20141107170000
250,"Xihu, Benxi",,41.331332,123.773537,-,-,-,-,-,-,-,-,0,-,-,20141107170000
251,"Dayu, Benxi",,41.308091,123.818442,155,55,12,18,17,10,-4,-12,1029,54,1,20141107170000
1116,"Xinlitun , Benxi , Benxi",,41.264104,123.811523,142,62,6,27,14,7,-4,-12,1029,54,1,20141107170000
252,Jinzhou,,41.097169,121.132647,206,160,7,41,54,30,1,-9,1030,31,0,20141107170000
253,"Beihu Park, Jinzhou",,41.141447,121.137339,206,160,4,27,54,21,1,-9,1030,31,0,20141107170000
254,"Monitoring station, Jinzhou",,41.113441,121.140911,180,135,5,37,53,13,1,-9,1030,31,0,20141107170000
255,"Nanshan, Jinzhou",,41.570689,122.046753,198,142,7,27,34,28,1,-9,1030,31,0,20141107170000
1118,"BDA, Jinzhou",,40.853915,121.061756,147,63,3,41,34,18,1,-9,1030,31,0,20141107170000
1119,"tianan street, Jinzhou , Jinzhou",,41.124468,121.126119,162,134,4,29,39,14,1,-9,1030,31,0,20141107170000
1120,"baigu street, Jinzhou, Jinzhou",,41.12214,121.21027,158,93,7,16,8,30,1,-9,1030,31,0,20141107170000
1121,Chaoyang,,41.576022,120.456053,157,70,7,24,10,22,-,-,0,-,-,20141107170000
472,"Fukang road, Tianjin",,39.098136,117.157621,102,43,9,22,9,10,7,0,1030,61,1,20141107170000
1122,"Agricultural Area, Chaoyang",,43.93968,125.247371,102,58,6,12,3,16,-1,-14,1030,24,2,20141107170000
1123,Tieling,,42.225197,123.732174,172,81,23,14,9,15,-,-,0,-,-,20141107170000
260,"Waterpark, Tieling",,42.297031,123.880748,164,127,11,17,12,10,-4,-12,1029,54,1,20141107170000
1124,"Huigong Street West , Tieling , Tieling",,42.311115,123.845614,164,185,7,14,9,15,-4,-12,1030,54,2,20141107170000
1125,Liaoyang,,41.269312,123.24268,164,86,5,26,22,20,-,-,0,-,-,20141107170000
1126,"Riverside Road , Liaoyang , Liaoyang",,41.176884,123.419859,164,86,5,22,22,15,-4,-12,1030,54,2,20141107170000
1127,Fuxin,,42.02373,121.675733,176,114,1,19,35,18,-,-,0,-,-,20141107170000
266,"Agricultural Area, Fuxin",,42.071291,121.696445,153,67,1,17,28,4,-2,-19,0,24,2,20141107170000
267,"Industrial Area, Fuxin",,42.041052,121.715554,122,108,7,22,12,15,-2,-19,0,24,2,20141107170000
1128,"Yulong Metro , Fuxin , Fuxin",,42.035091,121.666531,154,146,3,13,22,22,-2,-19,0,24,2,20141107170000
1129,"Dongyuan , Fuxin , Fuxin",,42.029119,121.681553,171,162,9,26,54,16,-2,-19,0,24,2,20141107170000
268,"City Monitoring Station, Jinan",,36.662614,117.054645,159,92,3,33,48,8,7,0,1030,54,2,20141107170000
269,"Shandong Institute of Economics, Jinan",,36.63819,117.074975,153,73,7,26,22,4,7,0,1030,54,2,20141107170000
270,"Quancheng Plaza, Jinan",,36.661711,117.027043,155,91,6,26,46,9,7,0,1030,54,2,20141107170000
271,"Kegansuo, Jinan",,36.611582,116.99384,137,75,4,33,32,6,7,0,1030,54,2,20141107170000
272,"Agriculture Science Institute, Jinan",,36.663115,116.95063,142,85,5,36,40,11,7,0,1030,54,2,20141107170000
273,"Lanxiang technical school, Jinan",,36.700421,116.95342,154,79,12,33,35,7,7,0,1030,54,2,20141107170000
274,"Chemical factory, Jinan",,36.687463,116.994406,165,100,7,28,55,8,7,0,1030,54,2,20141107170000
275,"Provincial Seed Warehouse, Jinan",,36.685706,117.066348,155,93,3,33,51,9,7,0,1030,54,2,20141107170000
276,"Shandong Architecture University, Jinan",,36.681732,117.191868,165,120,7,21,23,8,7,0,1030,54,2,20141107170000
277,"Baosheng cable company, Jinan",,36.724638,117.130855,155,84,2,36,46,7,7,0,1030,54,2,20141107170000
278,"Paomaling, Jinan",,36.47869,117.219027,151,66,20,11,33,8,7,0,1030,54,2,20141107170000
279,"Changqing District Communist Party School, Jinan",,36.548797,116.770859,157,107,8,44,31,8,7,0,1030,54,2,20141107170000
280,"BDA, Jinan",,36.685835,117.130851,151,79,14,31,33,7,7,0,1030,54,2,20141107170000
281,Jinan,,36.651426,117.126625,159,92,7,36,48,11,7,0,1030,54,2,20141107170000
282,"Shinan district No. 1, Qingdao",,36.065534,120.40839,70,24,9,6,6,15,6,-2,1030,57,2,20141107170000
283,"Shibei district No. 1, Qingdao",,36.069919,120.341264,78,56,11,12,10,9,6,-2,1030,57,2,20141107170000
284,"Shibei district No. 2, Qingdao",,36.104146,120.36637,59,36,9,17,5,5,6,-2,1030,57,2,20141107170000
285,"Huangdao District No. 1, Qingdao",,35.958935,120.191041,95,75,12,27,17,6,6,-2,1030,57,2,20141107170000
286,"Huangdao District No. 2, Qingdao",,35.970487,120.160339,153,54,12,29,10,4,6,-2,1030,57,2,20141107170000
287,"Laoshan District No. 1, Qingdao",,36.085881,120.451839,91,34,13,22,23,6,6,-2,1030,57,2,20141107170000
288,"Laoshan District No. 2, Qingdao",,36.091075,120.490388,34,15,30,10,10,2,6,-2,1030,57,2,20141107170000
289,"Licang District No. 1, Qingdao",,36.184872,120.38533,25,48,13,9,6,10,6,-2,1030,57,2,20141107170000
290,"Licang District No. 2, Qingdao",,36.154369,120.432287,76,43,15,13,4,3,6,-2,1030,57,2,20141107170000
291,"Chengyang District No. 1, Qingdao",,36.308502,120.40008,122,74,12,22,16,4,6,-2,1030,57,2,20141107170000
292,"Chengyang District No. 2, Qingdao",,36.308429,120.465806,65,33,23,7,6,6,6,-2,1030,57,2,20141107170000
293,Qingdao,,36.067358,120.387773,70,24,10,14,6,15,6,-2,1030,57,2,20141107170000
294,"Zichuan Meteo. Stations, Zibo",,36.637916,117.960222,-,-,-,-,-,-,-,-,0,-,-,20141107170000
295,"Dongfeng Chemical factory, Zibo",,36.838576,118.050785,119,47,5,14,30,15,5,0,0,70,2,20141107170000
296,"Boshan shuangshan, Zibo",,36.497278,117.853581,155,72,1,28,39,16,5,0,0,70,2,20141107170000
297,"Linzi Putian Park, Zibo",,36.820171,118.315022,99,57,12,24,30,8,5,0,0,70,2,20141107170000
298,"Qilu Petrochemical, Zibo",,36.765907,118.254967,76,56,5,22,23,9,5,0,0,70,2,20141107170000
299,"Zhoucun sanjin Group, Zibo",,36.8044,117.85694,160,73,12,24,9,14,5,0,0,70,2,20141107170000
300,"Vocational College, Zibo",,36.825208,117.926305,149,70,3,30,23,18,5,0,0,70,2,20141107170000
301,"BDA, Zibo",,36.905214,118.021824,156,72,4,24,19,10,5,0,0,70,2,20141107170000
302,Zibo,,36.813618,118.060948,179,113,7,40,67,17,5,0,0,70,2,20141107170000
303,"Shizhong District Government, Zaozhuang",,34.850397,117.569545,151,111,18,29,59,6,10,1,1030,40,2,20141107170000
304,"Sewage treatment plant, Zaozhuang",,34.818951,117.595345,155,82,12,32,33,11,10,1,1030,40,2,20141107170000
305,"Xuecheng EPA, Zaozhuang",,34.790214,117.272455,147,77,13,28,39,7,10,1,1030,40,2,20141107170000
306,"Yicheng District government, Zaozhuang",,34.772806,117.57647,109,84,17,25,37,3,10,1,1030,40,2,20141107170000
307,"Taierzhuang EPA, Zaozhuang",,34.579462,117.741067,109,59,11,19,15,8,10,1,1030,40,2,20141107170000
308,"Shanting EPA, Zaozhuang",,35.070373,117.457691,93,60,24,13,12,8,10,1,1030,40,2,20141107170000
309,"City EPA, Zaozhuang",,34.809466,117.320608,149,84,14,19,33,5,10,1,1030,40,2,20141107170000
310,"High-tech zone, Zaozhuang",,34.821779,117.363495,109,24,15,21,52,8,10,1,1030,40,2,20141107170000
311,Zaozhuang,,34.809693,117.329634,151,111,18,29,59,6,10,1,1030,40,2,20141107170000
312,"City EPA, Dongying",,37.432052,118.672871,104,50,16,14,5,11,8,2,0,62,1,20141107170000
313,"Vocational College, Dongying",,37.438653,118.630567,112,52,13,23,17,8,8,2,0,62,1,20141107170000
314,"Xianhe Oil Production Plant, Dongying",,37.442419,118.510222,80,53,15,19,8,8,8,2,0,62,1,20141107170000
315,"Gengjin village, Dongying",,37.445072,118.55839,97,55,10,28,7,6,8,2,0,62,1,20141107170000
316,"City environmental company, Dongying",,37.466599,118.508012,74,34,10,26,8,7,8,2,0,62,1,20141107170000
317,"Hekou  district, Dongying",,37.883786,118.522171,59,24,20,8,7,5,8,2,0,62,1,20141107170000
318,"BDA, Dongying",,37.435162,118.701827,59,27,26,9,4,9,8,2,0,62,1,20141107170000
319,Dongying,,37.435429,118.680434,104,50,16,14,5,11,8,2,0,62,1,20141107170000
320,"Bearing Factory, Yantai",,37.544126,121.376956,65,43,16,19,12,7,,,0,,,20141107170000
321,"Xijiao Chemical Station, Yantai",,37.547148,121.323695,65,20,23,17,21,8,,,0,,,20141107170000
322,"Fushan Monitoring Stations, Yantai",,37.472245,121.260116,70,30,21,10,10,6,,,0,,,20141107170000
323,"Mouping EPA, Yantai",,37.376681,121.586509,42,20,23,4,3,8,,,0,,,20141107170000
324,"Laishan EPA, Yantai",,37.478422,121.44829,25,10,29,6,4,3,,,0,,,20141107170000
325,"Laishan Shengquan Industrial Park, Yantai",,37.4271,121.408386,59,32,23,12,9,1,,,0,,,20141107170000
326,"China Agricultural University, Yantai",,37.423568,121.511838,53,28,29,6,5,4,,,0,,,20141107170000
327,"BDA EPA, Yantai",,37.560827,121.257954,13,7,21,2,5,5,,,0,,,20141107170000
329,"Dajijia, Yantai",,37.673849,121.071465,70,24,25,7,6,6,,,0,,,20141107170000
330,Yantai,,37.464793,121.453142,65,43,24,21,25,8,,,0,,,20141107170000
331,"BDA, Weifang",,36.720022,119.054064,151,68,10,36,13,4,,,0,,,20141107170000
332,"Business School, Weifang",,36.682442,119.105909,129,66,12,28,9,3,,,0,,,20141107170000
333,"Hanting District, Weifang",,36.773484,119.199705,109,56,22,14,14,4,,,0,,,20141107170000
334,"Gongda Company, Weifang",,36.657635,119.167266,99,56,20,20,14,4,,,0,,,20141107170000
335,"City EPA, Weifang",,36.701272,119.16838,102,56,21,28,14,4,,,0,,,20141107170000
336,"City Arbitration Committee, Weifang",,36.702422,119.145927,97,51,24,31,21,6,,,0,,,20141107170000
337,"Xinhui Group, Weifang",,36.641581,119.11679,158,72,16,33,13,5,,,0,,,20141107170000
338,"Jincheng Middle School, Weifang",,36.773611,119.115539,127,72,28,28,9,3,,,0,,,20141107170000
339,Weifang,,36.707217,119.167638,156,73,13,36,19,8,,,0,,,20141107170000
340,"City Monitoring Station, Jining",,35.408443,116.623917,160,102,5,29,30,12,7,4,1029,75,0,20141107170000
1090,"Shengdi Hollidays Resort, Jining",,35.424746,116.699093,156,93,5,37,28,9,7,4,1029,75,0,20141107170000
341,"Sewage treatment plant, Jining",,35.364286,116.609177,195,127,6,29,14,11,7,4,1029,75,0,20141107170000
342,"Electrochemical Factory, Jining",,35.390473,116.552956,168,141,5,33,37,14,7,4,1029,75,0,20141107170000
343,"Rencheng BDA, Jining",,35.390484,116.662995,188,109,12,26,9,14,7,4,1029,75,0,20141107170000
344,"Agricultural School, Jining",,35.44235,116.601682,179,130,9,30,32,7,7,4,1029,75,0,20141107170000
345,"BDA Huojucheng, Jining",,35.436377,116.642953,159,97,6,31,40,12,7,4,1029,75,0,20141107170000
346,Jining,,35.414473,116.59239,160,102,5,29,30,12,7,4,1029,75,0,20141107170000
347,"Taishan monitoring station, Taian",,36.194362,117.159648,153,74,4,19,40,17,0,-4,0,66,3,20141107170000
348,"Shandong Electric Power School, Taian",,36.176071,117.12413,157,68,5,30,46,18,0,-4,0,66,3,20141107170000
349,"Population Education school, Taian",,36.194417,117.104131,144,68,7,12,23,15,0,-4,0,66,3,20141107170000
350,"Houfeng company, Taian",,36.204863,117.19015,152,87,3,19,23,25,0,-4,0,66,3,20141107170000
351,"Nongda new campus, Taian",,36.170179,117.165191,161,88,2,43,43,29,0,-4,0,66,3,20141107170000
352,"Transportation technical school, Taian",,36.202126,117.047068,151,72,4,25,11,20,0,-4,0,66,3,20141107170000
353,"ICT Technology, Taian",,36.116621,117.107458,160,84,7,29,43,18,0,-4,0,66,3,20141107170000
354,Taian,,36.200502,117.093682,153,74,4,19,40,17,0,-4,0,66,3,20141107170000
355,"City Environmental Monitoring Station, Weihai",,37.513939,122.067058,57,26,23,10,10,4,9,2,0,59,5,20141107170000
356,"Woodworking Factory, Weihai",,37.325455,122.160777,74,30,18,12,11,2,9,2,0,59,5,20141107170000
357,"Lantian Hotel, Weihai",,37.514641,122.146276,34,25,24,9,8,4,9,2,0,59,5,20141107170000
358,"Zhang village government, Weihai",,37.485561,122.049436,13,20,19,6,9,4,9,2,0,59,5,20141107170000
359,"Gao District Bank, Weihai",,37.534919,122.056294,59,24,23,6,6,3,9,2,0,59,5,20141107170000
360,"Huxia technical school, Weihai",,37.427951,122.130811,63,42,21,10,12,3,9,2,0,59,5,20141107170000
361,Weihai,,37.5141,122.125477,57,26,23,10,10,4,9,2,0,59,5,20141107170000
362,"City governement square, Rizhao",,35.4075,119.526008,95,50,16,10,9,4,8,-1,1030,41,1,20141107170000
363,"Port Authority, Rizhao",,35.381297,119.55396,-,-,-,-,-,-,-,-,0,-,-,20141107170000
364,"City Monitoring Station, Rizhao",,35.388683,119.496405,112,59,9,16,10,6,8,-1,1030,41,1,20141107170000
365,"Professor Garden, Rizhao",,35.462161,119.574193,102,63,24,15,9,7,8,-1,1030,41,1,20141107170000
366,"Vocational and Technical College, Rizhao",,35.441939,119.538187,109,57,22,12,10,6,8,-1,1030,41,1,20141107170000
367,"Lanshan EPA branch, Rizhao",,35.293405,119.345716,99,54,9,17,12,5,8,-1,1030,41,1,20141107170000
368,"Jinma Industrial Park, Rizhao",,35.373339,119.514108,117,58,14,17,13,4,8,-1,1030,41,1,20141107170000
369,Rizhao,,35.416089,119.532316,95,50,16,10,9,4,8,-1,1030,41,1,20141107170000
370,"Vegetable oil factory, Laiwu",,36.205028,117.700917,112,42,9,26,15,14,6,0,1031,59,0,20141107170000
371,"Nursing home, Laiwu",,36.266067,117.652769,160,63,4,19,15,13,6,0,1031,59,0,20141107170000
372,"Xinyi middle school, Laiwu",,36.245086,117.739025,91,43,5,15,15,15,6,0,1031,59,0,20141107170000
373,"Risheng International School, Laiwu",,36.208125,117.730959,104,47,5,15,13,8,6,0,1031,59,0,20141107170000
374,"Gangcheng EPA, Laiwu",,36.066836,117.871823,152,69,5,14,18,9,6,0,1031,59,0,20141107170000
375,"City EPA, Laiwu",,36.228913,117.694797,122,55,3,2,15,15,6,0,1031,59,0,20141107170000
376,Laiwu,,36.213688,117.682612,112,42,9,26,15,14,-,-,0,-,-,20141107170000
377,"Lunan Pharmaceutical Factory, Linyi",,35.061671,118.299527,95,46,13,25,14,2,7,0,0,55,2,20141107170000
378,"Yihe compound, Linyi",,35.056752,118.34739,93,58,7,23,27,9,7,0,0,55,2,20141107170000
379,"Linyi University, Linyi",,35.114777,118.293414,104,60,6,22,44,11,7,0,0,55,2,20141107170000
380,City EPA,Nanfang,35.104871,118.353518,95,60,9,25,17,8,7,0,0,55,2,20141107170000
381,"Xinguang woolen factory, Linyi",,34.981004,118.282,93,60,25,17,16,8,7,0,0,55,2,20141107170000
382,"Hongfu Baijiu Factory, Linyi",,34.998788,118.257275,93,59,7,23,21,10,7,0,0,55,2,20141107170000
384,"Hedong insurance company, Linyi",,35.089354,118.40812,109,52,6,21,15,6,7,0,0,55,2,20141107170000
385,"Jianghua vehicule center, Linyi",,35.010082,118.435749,112,62,5,20,14,11,7,0,0,55,2,20141107170000
386,Linyi,,35.10428,118.362202,95,46,13,25,94,2,7,0,0,55,2,20141107170000
387,"Heima group, Dezhou",,37.466063,116.314134,142,61,13,19,9,10,10,-1,1030,33,1,20141107170000
388,"Monitoring station, Dezhou",,37.433107,116.377312,147,65,8,29,18,9,10,-1,1030,33,1,20141107170000
389,"Supervision Station, Dezhou",,37.449689,116.324709,161,74,12,31,26,11,10,-1,1030,33,1,20141107170000
428,"Beidaihe, Qinhuangdao",,39.829209,119.53194,122,83,4,37,51,33,,,0,,,20141107180000
390,"Huayu technical school, Dezhou",,37.462809,116.357559,215,60,7,30,16,6,10,-1,1030,33,1,20141107170000
391,"Shuangyi group, Dezhou",,37.478848,116.316362,157,62,5,27,19,9,10,-1,1030,33,1,20141107170000
392,Dezhou,,37.434959,116.363366,142,61,13,19,31,10,10,-1,1030,33,1,20141107170000
393,"Dongchang District Government, Liaocheng",,36.444473,115.971733,158,60,3,34,33,19,9,2,1030,49,1,20141107170000
394,"Light Machinery Factory No. 2, Liaocheng",,36.456788,116.002383,153,69,5,28,34,14,9,2,1030,49,1,20141107170000
395,"City committee communist party school, Liaocheng",,36.479537,115.989288,142,69,6,27,23,14,9,2,1030,49,1,20141107170000
396,"Customs, Liaocheng",,36.431933,115.956974,149,72,8,24,26,16,9,2,1030,49,1,20141107170000
397,"Hongshun Garden, Liaocheng",,36.471124,115.960319,119,69,3,33,27,17,9,2,1030,49,1,20141107170000
398,"BDA, Liaocheng",,36.459407,116.043621,155,58,4,26,33,16,9,2,1030,49,1,20141107170000
399,Liaocheng,,36.456792,115.991051,158,60,3,34,33,19,9,2,1030,49,1,20141107170000
400,"City EPA, Binzhou",,37.38024,118.026895,68,27,14,6,7,3,8,0,1031,49,2,20141107170000
401,"Beizhong new school, Binzhou",,37.38374,117.988996,59,34,20,12,10,7,8,0,1031,49,2,20141107170000
402,"No.2 water factory, Binzhou",,37.36155,118.002648,78,40,7,12,7,14,8,0,1031,49,2,20141107170000
403,"Keling Chemical factory, Binzhou",,37.396138,117.943609,65,18,8,9,13,13,8,0,1031,49,2,20141107170000
404,"Yinhe logistics company, Binzhou",,37.356122,117.943326,87,41,9,9,14,10,8,0,1031,49,2,20141107170000
405,"Bilin compond, Binzhou",,37.36815,117.978964,97,31,10,17,2,12,8,0,1031,49,2,20141107170000
406,Binzhou,,37.382639,117.976606,68,27,14,6,7,3,8,0,1031,49,2,20141107170000
407,"Bureau of Meteorology, Heze",,35.248625,115.428775,215,142,6,24,11,16,7,0,0,58,2,20141107170000
408,"Sewage treatment plant, Heze",,35.222517,115.531511,198,310,6,35,22,13,7,0,0,58,2,20141107170000
409,"Municipal CPPCC, Heze",,35.237125,115.480591,187,129,5,32,23,15,7,0,0,58,2,20141107170000
410,"Huarun Pharmaceutical Company, Heze",,35.261463,115.524873,201,164,3,22,15,17,7,0,0,58,2,20141107170000
411,"Heze University, Heze",,35.269706,115.460934,205,142,7,26,22,13,7,0,0,58,2,20141107170000
412,Heze,,35.233354,115.486503,215,142,6,24,11,16,7,0,0,58,2,20141107170000
413,"Shiji Park, Shijiazhuang",,38.03155,114.547873,114,52,7,8,3,7,6,3,1030,81,1,20141107170000
414,"Xinan College, Shijiazhuang",,38.012764,114.473163,161,52,4,12,6,5,6,3,1030,81,1,20141107180000
415,"Chemical College, Shijiazhuang",,38.055503,114.569816,119,53,6,9,2,5,6,3,1030,81,1,20141107180000
416,"Worker hospital, Shijiazhuang",,38.051784,114.461209,95,56,5,22,8,8,6,3,1030,81,1,20141107180000
417,"Northwest Water Company, Shijiazhuang",,38.140638,114.508038,147,54,14,12,3,3,6,3,1030,81,1,20141107180000
418,"High-tech zone, Shijiazhuang",,38.040482,114.610775,112,62,9,25,4,4,6,3,1030,81,1,20141107180000
419,"Fenglong Montain, Shijiazhuang",,37.910829,114.360264,161,59,17,13,11,5,6,3,1030,81,1,20141107180000
1130,"Zhengding Unicom, Shijiazhuang",,38.159458,114.59879,155,67,9,19,4,6,6,3,1030,81,1,20141107180000
1131,"Luancheng Communications, Shijiazhuang",,37.906534,114.638785,144,65,10,14,10,5,6,3,1030,81,1,20141107180000
1132,"Gaocheng Experimental School, Shijiazhuang",,38.039518,114.867812,144,66,8,15,5,6,6,3,1030,81,1,20141107180000
1133,"Wuji EPA, Shijiazhuang",,38.17862,114.997012,152,69,14,11,3,5,6,3,1030,81,1,20141107180000
1134,"Shenze Power Supply Bureau, Shijiazhuang",,38.197674,115.219126,154,62,13,16,15,6,6,3,1030,81,1,20141107180000
1135,"Zhaoxian EPA, Shijiazhuang",,37.77171,114.775957,132,57,8,14,7,5,6,3,1030,81,1,20141107180000
1136,"Gaoyi County City Hall, Shijiazhuang",,37.623535,114.612729,152,66,9,17,1,5,6,3,1030,81,1,20141107180000
1137,"Zanhuang County City Hall, Shijiazhuang",,37.672898,114.398269,127,56,13,16,6,3,6,3,1031,81,1,20141107180000
1138,"Jingxing Bureau of Meteorology, Shijiazhuang",,38.038788,114.158406,157,63,3,23,4,7,6,3,1030,81,1,20141107180000
1139,"Pingshan Ye River, Shijiazhuang",,38.266657,114.210275,132,55,11,13,3,5,6,3,1030,81,1,20141107180000
420,Shijiazhuang,,38.042926,114.520834,104,50,6,12,7,3,6,3,1030,81,1,20141107180000
421,"No. 12 middle school, Tangshan",,39.659306,118.190271,,,,,,,-,-,0,-,-,20141107180000
422,"Ceramics Company, Tangshan",,39.669255,118.225185,99,58,8,13,8,11,7,0,1030,61,1,20141107180000
423,"Commodities Bureau, Tangshan",,39.642301,118.191265,102,54,8,11,12,10,7,0,1030,61,1,20141107180000
424,"Leidazhanzi Station, Tangshan",,39.644375,118.150383,93,47,7,14,7,12,7,0,1030,61,1,20141107180000
425,"Supply and marketing cooperatives, Tangshan",,39.632334,118.17232,137,57,9,17,8,12,7,0,1030,61,1,20141107180000
1140,"Guye District City Hall, Tangshan",,39.741379,118.460246,153,76,4,26,10,16,7,0,1030,61,1,20141107180000
1141,"Kaiping Stations, Tangshan",,39.675246,118.275149,117,53,6,13,11,12,7,0,1030,61,1,20141107180000
1142,"Fengnan District City Hall, Tangshan",,39.5834,118.097454,149,75,8,20,5,10,7,0,1030,61,1,20141107180000
1143,"Fengrun City Hall, Tangshan",,39.840355,118.175338,153,82,8,15,9,16,7,0,1030,61,1,20141107180000
1144,"Qianxi EPA, Tangshan",,40.153339,118.317265,97,64,12,20,11,15,7,0,1030,61,1,20141107180000
1145,"Caofeidian Xinli  Primary School, Tangshan",,39.291232,118.462182,142,72,6,28,7,4,7,0,1030,61,1,20141107180000
1146,"Zunhua EPA, Tangshan",,40.206249,117.997315,164,118,7,27,11,15,7,0,1030,61,1,20141107180000
1147,"Qianan No.1 middle school, Tangshan",,40.004248,118.717055,165,86,9,29,21,24,7,0,1030,61,1,20141107180000
1266,"Luannan County , Tangshan",,39.511132,118.686928,139,70,6,28,17,13,7,0,1030,61,1,20141107180000
1267,"Yutian County , Tangshan",,39.908249,117.751417,153,69,8,21,8,14,7,0,1030,61,1,20141107180000
426,Tangshan,,39.632175,118.186472,102,54,8,11,12,10,-,-,0,-,-,20141107180000
427,"City Monitoring Station, Qinhuangdao",,39.958109,119.607773,155,93,4,39,50,20,,,0,,,20141107180000
429,"Shanhai Pass, Qinhuangdao",,40.019298,119.767898,134,102,12,44,38,24,,,0,,,20141107180000
430,"Contruction Plazz, Qinhuangdao",,39.943187,119.542912,139,127,15,28,27,4,,,0,,,20141107180000
431,"City government, Qinhuangdao",,39.93711,119.612769,168,99,3,25,34,18,,,0,,,20141107180000
1148,"Qinglong EPA, Qinhuangdao",,40.419223,118.958002,119,58,10,12,28,16,,,0,,,20141107180000
1149,"Changli EPA, Qinhuangdao",,39.714369,119.173237,168,110,15,38,38,32,,,0,,,20141107180000
1268,"Lulong County Bureau of Meteorology , Qinhuangdao",,39.901091,118.904857,164,97,6,1,38,25,,,0,,,20141107180000
432,Qinhuangdao,,39.936485,119.606263,168,99,3,25,34,18,,,0,,,20141107180000
433,"CongTai Park, Handan",,36.620197,114.501891,134,80,2,12,39,4,,,0,,,20141107180000
434,"City EPA, Handan",,36.618145,114.518822,168,81,7,20,25,14,,,0,,,20141107180000
435,"East Sewage Factory, Handan",,36.616064,114.548714,147,75,2,33,21,5,,,0,,,20141107180000
436,"Mine Hospital, Handan",,36.578149,114.509854,137,67,4,23,16,6,,,0,,,20141107180000
1150,"Fengfeng mine Inland Revenue Department, Handan",,36.423085,114.245994,129,62,3,20,51,1,,,0,,,20141107180000
1151,"Shexian EPA, Handan",,36.589084,113.692341,139,57,5,30,50,45,,,0,,,20141107180000
1152,"Ci County Vocational Education Center, Handan",,36.380247,114.390119,161,75,3,18,51,7,,,0,,,20141107180000
1153,"Yongnian government guesthouse, Handan",,36.783297,114.502905,122,67,1,30,12,5,,,0,,,20141107180000
1154,"Wuan BDA, Handan",,36.686223,114.269009,134,83,2,24,33,3,,,0,,,20141107180000
1085,Handan,,36.625683,114.544812,147,75,2,33,21,5,,,0,,,20141107180000
437,"Road and Bridge Corporation, Xingtai",,37.096415,114.538799,127,76,3,25,12,5,8,1,1031,49,2,20141107180000
438,"Dahuo fontain, Xingtai",,37.097563,114.488001,158,78,3,21,19,6,8,1,1031,49,2,20141107180000
439,"Xingtai Normal College, Xingtai",,37.053404,114.531819,137,91,4,30,19,4,8,1,1031,49,2,20141107180000
440,"Environment protection office, Xingtai",,37.06253,114.490985,137,88,4,22,18,8,8,1,1031,49,2,20141107180000
1155,"Cultural centers within the mound, Xingtai",,37.293569,114.524873,147,65,6,19,2,18,8,1,1031,49,2,20141107180000
383,Xingtai,,37.071066,114.510749,137,88,4,22,18,8,8,1,1031,49,2,20141107180000
441,"City Monitoring Station, Baoding",,38.871737,115.527103,142,51,16,17,5,0,6,2,1032,63,0,20141107180000
442,"Surface water Company, Baoding",,38.842891,115.467326,167,62,10,19,8,10,6,2,1032,63,0,20141107180000
443,"Huadian II, Baoding",,38.896748,115.528102,162,60,16,14,20,6,6,2,1032,63,0,20141107180000
444,"Reception Center, Baoding",,38.911905,115.477301,117,61,10,13,11,5,6,2,1032,63,0,20141107180000
445,"Film Factory, Baoding",,38.876949,115.448383,134,65,15,17,4,6,6,2,1032,63,0,20141107180000
446,"Natatorium, Baoding",,38.863815,115.499212,151,63,25,17,17,5,6,2,1032,63,0,20141107180000
1156,"Qingyuan City Hall, Baoding",,38.771758,115.502189,154,66,8,17,3,6,6,2,1032,63,0,20141107180000
1157,"Xushui EPA, Baoding",,39.025781,115.668023,127,57,11,17,3,6,6,2,1032,63,0,20141107180000
1158,"Zhouzhou Monitoring Stations, Baoding",,39.493241,116.040187,161,60,12,16,9,6,6,2,1032,63,0,20141107180000
1159,"Gaobeidian EPA, Baoding",,39.3329,115.885891,163,82,10,22,37,7,6,2,1032,63,0,20141107180000
447,Baoding,,38.874791,115.471124,134,65,15,17,4,6,6,2,1032,63,0,20141107180000
448,"Century Compound, Zhangjiakou",,40.770279,114.909106,85,87,8,18,3,16,-2,-4,1032,87,1,20141107180000
449,"North Pumping Station, Zhangjiakou",,40.874362,114.910119,114,21,5,7,3,10,-2,-4,1032,87,1,20141107180000
450,"Hardware Warehouse, Zhangjiakou",,40.81232,114.887119,160,63,27,11,22,21,-2,-4,1032,87,1,20141107180000
451,"Tanji Chang, Zhangjiakou",,40.796301,114.89811,78,22,5,9,15,9,-2,-4,1032,87,1,20141107180000
1160,"Xiahuayuan EPA, Zhangjiakou",,40.509345,115.302442,155,68,3,16,35,7,-2,-4,1032,87,1,20141107180000
1161,"Huaian EPA, Zhangjiakou",,40.68157,114.398646,119,52,3,38,6,12,-2,-4,1032,87,1,20141107180000
1162,"Huailai Fuqian Primary School, Zhangjiakou",,40.422204,115.530285,153,72,3,22,1,16,-2,-4,1032,87,1,20141107180000
1269,"Zhangbei EPA , Zhangjiakou",,41.166775,114.732369,154,52,11,10,6,8,-2,-4,1032,87,1,20141107180000
1270,"Kangbao County Environmental Protection Agency , Zhangjiakou",,41.837866,114.591246,70,23,21,1,9,3,-2,-4,1032,87,1,20141107180000
1271,"Guyuan County welfare , Zhangjiakou",,41.669984,115.687401,162,84,10,21,10,13,-2,-4,1032,87,1,20141107180000
1272,"Shangyi County Environmental Protection Bureau , Zhangjiakou",,41.086638,113.984688,99,41,20,8,12,8,-2,-4,1032,87,1,20141107180000
1273,"Yuxian Secondary School , Zhangjiakou",,39.84699,114.601986,179,116,10,32,36,15,-2,-4,1032,87,1,20141107180000
1274,"Yang County Vocational Education Center , Zhangjiakou",,40.106343,114.134732,161,80,9,18,13,16,-2,-4,1032,87,1,20141107180000
1275,"Wan county Environmental Protection Agency , Zhangjiakou",,40.770459,114.75033,129,48,8,11,2,9,-2,-4,1032,87,1,20141107180000
473,"Nankou road, Tianjin",,39.174022,117.199688,109,54,10,19,11,9,7,0,1030,61,0,20141107180000
1276,"Zhuolu County Environmental Protection Agency , Zhangjiakou",,40.374273,115.221393,132,57,4,1,9,15,-2,-4,1032,87,1,20141107180000
452,Zhangjiakou,,40.825744,114.893659,80,18,5,4,12,9,-2,-4,1032,87,1,20141107180000
453,"Railway, Chengde",,40.917557,117.972331,161,82,1,22,16,14,4,-8,1031,27,1,20141107180000
454,"Cultural Center, Chengde",,40.974625,117.824437,137,61,14,22,8,12,4,-8,1031,27,1,20141107180000
455,"Bank of China, Chengde",,40.985582,117.958304,80,62,13,22,13,11,4,-8,1031,27,1,20141107180000
456,"BDA, Chengde",,40.937567,117.969325,154,95,4,23,19,17,4,-8,1031,27,1,20141107180000
457,"Ligong, Chengde",,41.012579,117.94428,127,50,20,13,8,10,4,-8,1031,27,1,20141107180000
1163,"Chengde County EPA, Chengde",,40.776643,118.17646,139,82,1,24,11,20,4,-8,1031,27,1,20141107180000
1164,"Xinglong County City Hall, Chengde",,40.424301,117.513488,95,56,15,18,12,15,4,-8,1031,27,1,20141107180000
1165,"Luanping EPA, Chengde",,40.950792,117.350715,-,-,-,-,-,-,-,-,0,-,-,20141107180000
1166,"Fengning County City Hall, Chengde",,41.216739,116.658037,82,61,8,18,13,26,4,-8,1031,27,1,20141107180000
1277,"Longhua EPA , Chengde",,41.311956,117.739605,158,65,6,26,16,17,4,-8,1031,27,1,20141107180000
458,Chengde,,40.955652,117.968737,154,95,4,23,19,17,4,-8,1031,27,1,20141107180000
459,"Municipal EPB, Cangzhou",,38.323507,116.876746,154,70,10,27,6,7,7,0,1030,61,0,20141107180000
460,"Cangxian Urban Construction Bureau, Cangzhou",,38.299495,116.890734,139,56,5,22,13,5,7,0,1030,61,0,20141107180000
461,"TV Broadcast Station, Cangzhou",,38.325525,116.863761,147,63,9,12,11,7,7,0,1030,61,0,20141107180000
1167,"Qing County City Hall, Cangzhou",,38.589643,116.815876,154,36,5,23,32,10,7,0,1030,61,0,20141107180000
1168,"Poyoushi City Hall, Cangzhou",,38.089516,116.590575,169,61,7,18,6,8,7,0,1030,61,0,20141107180000
1169,"Huanghua Finance Bureau Training Center, Cangzhou",,38.377793,117.343356,154,71,-,23,8,4,7,0,1030,61,0,20141107180000
462,Cangzhou,,38.305035,116.844625,147,63,9,12,11,7,7,0,1030,61,0,20141107180000
463,"Environmental Monitoring Supervision Center, Langfang",,39.558157,116.720995,154,71,12,29,7,6,7,0,1030,61,1,20141107180000
464,"TCM Medical Material Company, Langfang",,39.519096,116.689914,117,60,9,28,6,6,7,0,1030,61,1,20141107180000
465,"BDA, Langfang",,39.576175,116.779041,99,72,10,24,9,8,7,0,1030,61,1,20141107180000
466,"North China Institute of Aerospace, Langfang",,39.53517,116.743027,91,55,12,24,4,7,7,0,1030,61,1,20141107180000
1170,"Guan Party School, Langfang",,39.446185,116.311026,154,63,9,28,5,6,7,0,1030,61,1,20141107180000
1171,"Xianghe EPA, Langfang",,39.76725,117.015252,170,96,12,22,8,10,7,0,1030,61,1,20141107180000
1172,"Wenan County EPA, Langfang",,38.880927,116.47001,167,78,12,17,8,6,7,0,1030,61,1,20141107180000
1173,"Three Rivers Department of Transportation, Langfang",,39.989419,117.091528,179,132,7,21,6,13,7,0,1030,61,1,20141107180000
1278,"Yongqing EPA , Langfang",,39.329071,116.510917,167,82,10,22,4,5,7,0,1030,61,1,20141107180000
1279,"Dacheng EPA, Langfang",,38.712628,116.665751,144,64,14,35,11,7,7,0,1030,61,1,20141107180000
467,Langfang,,39.539148,116.689668,117,60,9,28,6,6,7,0,1030,61,1,20141107180000
468,"Hengshui City EPB, Hengshui",,37.739679,115.695929,142,72,9,29,9,7,8,0,0,50,1,20141107180000
469,"Environmental Monitoring Station, Hengshui",,37.738593,115.648837,147,62,12,30,7,8,8,0,0,50,1,20141107180000
470,"Electrical Machine North Factory, Hengshui",,37.758686,115.70094,159,65,11,21,8,5,8,0,0,50,1,20141107180000
1174,"Anping EPA, Hengshui",,38.238559,115.537988,154,70,13,20,3,6,8,0,0,50,1,20141107180000
1175,"Jizhou EPA, Hengshui",,37.548552,115.58679,142,57,8,23,6,6,8,0,0,50,1,20141107180000
1280,"Zaoqiang EPA, Hengshui",,37.520698,115.714936,139,62,36,20,6,6,8,0,0,50,1,20141107180000
1281,"Wuyi EPA, Hengshui",,37.801554,115.898697,147,67,7,19,13,5,8,0,0,50,1,20141107180000
1282,"Wuqiang EPA , Hengshui",,38.03557,115.959767,153,65,10,1,10,6,8,0,0,50,1,20141107180000
1283,"Raoyang EPA , Hengshui",,38.230652,115.741041,155,72,9,1,7,6,8,0,0,50,1,20141107180000
1284,"Gucheng County , Hengshui",,37.347569,115.966707,151,56,12,23,5,6,8,0,0,50,1,20141107180000
471,Hengshui,,37.739562,115.676066,159,65,11,21,8,5,8,0,0,50,1,20141107180000
1176,"Xinji City Hall, Xinji",,37.949711,115.230084,153,68,8,9,1,5,8,0,0,50,1,20141107180000
474,"Qinjian street, Tianjin",,39.166588,117.15104,114,52,8,25,9,9,7,0,1030,61,0,20141107180000
475,"Nanjing Road, Tianjin",,39.120958,117.195112,104,44,9,17,9,9,7,0,1030,61,0,20141107180000
476,"Dazhigu No.8 road, Tianjin",,39.111811,117.25147,97,36,9,16,9,12,7,0,1030,61,0,20141107180000
477,"Qianjin street, Tianjin",,39.09371,117.207981,109,48,11,21,11,8,7,0,1030,61,0,20141107180000
478,"Huaihe street, Tianjin",,39.227167,117.191293,142,52,7,33,8,5,7,0,1030,61,0,20141107180000
479,"Xiangshan street, Tianjin",,39.134752,117.275125,93,33,7,23,8,11,7,0,1030,61,0,20141107180000
480,"Yuejin Road, Tianjin",,39.088177,117.320884,107,66,6,33,10,13,7,0,1030,61,0,20141107180000
481,"Zhujiang street, Tianjin",,39.064463,117.231268,-,-,-,-,-,-,-,-,0,-,-,20141107180000
482,"No.4 street, Tianjin",,39.035228,117.713424,109,57,7,19,8,10,7,0,1030,61,0,20141107180000
483,"Yongming road, Tianjin",,38.840392,117.463805,114,53,5,22,9,12,7,0,1030,61,0,20141107180000
484,"Xinhua street, Tianjin",,39.138671,117.010083,112,66,8,13,10,5,7,0,1030,61,0,20141107180000
485,"Jingu Road, Tianjin",,38.985659,117.381254,119,54,4,31,9,9,7,0,1030,61,0,20141107180000
486,"Tanggu Yingkou street, Tianjin",,39.021768,117.656454,97,42,5,19,2,6,7,0,1030,61,0,20141107180000
487,"Hexi Yijing road, Tianjin",,39.248392,117.798043,89,32,5,23,8,10,7,0,1030,61,0,20141107180000
488,"Jianshe Road, Tianjin",,39.720075,117.310588,89,51,12,15,5,9,7,0,1030,61,0,20141107180000
489,"Quanzhou South road, Tianjin",,39.373857,117.050329,95,38,11,10,10,16,7,0,1030,61,0,20141107180000
490,"Donghuan road, Tianjin",,40.043144,117.451062,155,77,3,28,4,27,7,0,1030,61,0,20141107180000
491,"Tuanpowa, Tianjin",,38.920418,117.16299,119,59,14,11,9,8,7,0,1030,61,0,20141107180000
493,"Beiwei No.2 road, Tianjin",,38.943857,116.920624,139,51,8,24,9,8,7,0,1030,61,0,20141107180000
494,"Haitai fazhan No.2 road, Tianjin",,39.079608,117.096583,122,61,10,31,13,12,7,0,1030,61,0,20141107180000
495,"Hangtian road, Tianjin",,39.152244,117.381309,107,52,6,24,17,10,7,0,1030,61,0,20141107180000
496,"Hanbei road, Tianjin",,39.159768,117.770477,127,54,8,18,6,10,7,0,1030,61,0,20141107180000
497,"Baobai highway, Tianjin",,39.51757,117.349635,144,54,16,5,7,9,7,0,1030,61,0,20141107180000
498,Tianjin,,39.085164,117.207281,109,48,11,21,11,8,7,0,1030,61,0,20141107180000
499,"Wolong bridge, Hangzhou",,30.24371,120.132762,107,66,24,20,5,5,14,9,1025,72,4,20141107180000
500,"Hemu primary school, Hangzhou",,30.309669,120.124507,117,55,21,25,14,8,14,9,1025,72,4,20141107180000
501,"Zhejiang Agricultural University, Hangzhou",,30.265601,120.197583,107,64,24,22,10,6,14,9,1025,72,4,20141107180000
502,"Xiasha, Hangzhou",,30.303516,120.352618,99,59,20,30,6,4,14,9,1025,72,4,20141107180000
503,"Yunqi, Hangzhou",,30.178555,120.093142,99,63,25,19,6,5,14,9,1025,72,4,20141107180000
504,"Xixi, Hangzhou",,30.272425,120.068144,99,57,23,23,7,6,14,9,1025,72,4,20141107180000
505,"Chengxiang town, Hangzhou",,30.179493,120.274184,82,57,23,22,10,5,14,9,1025,72,4,20141107180000
506,"Qiandao lake, Hangzhou",,29.638139,119.031092,124,50,34,10,9,5,13,9,1025,77,5,20141107180000
507,"Linping town, Hangzhou",,30.415948,120.305059,107,43,24,17,10,6,13,9,1025,77,5,20141107180000
509,"No.2 Middle School, Hangzhou",,30.044303,119.956356,87,55,21,10,4,6,13,9,1025,77,5,20141107180000
510,"City Hall, Hangzhou",,30.234185,119.723503,117,66,35,12,7,7,14,9,1025,72,4,20141107180000
511,"No. 4 middle school, Hangzhou",,30.229428,119.699591,114,0,10,17,9,11,13,9,1025,77,5,20141107180000
512,Hangzhou,,30.271756,120.159765,104,61,23,23,4,7,14,9,1025,72,4,20141107180000
513,"City Station, Wenzhou",,28.009715,120.679129,122,60,36,12,4,7,14,13,0,92,3,20141107180000
514,"Ouhai, Wenzhou",,28.001846,120.641982,151,64,36,38,3,10,14,13,0,92,3,20141107180000
515,"Longwan, Wenzhou",,27.968122,120.768393,107,52,41,30,3,6,14,13,0,92,3,20141107180000
516,"Nanpu, Wenzhou",,27.981763,120.683685,122,59,34,19,4,11,14,13,0,92,3,20141107180000
517,Wenzhou,,27.990985,120.703425,122,59,34,19,4,11,14,13,0,92,3,20141107180000
518,"Monitoring station, Jiaxing",,30.75437,120.767373,85,46,30,14,9,6,14,9,1025,72,5,20141107180000
519,"Jiaxing University, Jiaxing",,30.745099,120.735004,87,46,21,12,9,6,14,9,1026,72,5,20141107180000
520,"Qinghe Primary School, Jiaxing",,30.775685,120.747969,91,43,21,12,11,7,14,9,1026,72,5,20141107180000
521,Jiaxing,,30.751627,120.762862,85,46,30,14,9,6,14,9,1025,72,5,20141107180000
522,"Chengbei water plant, Huzhou",,30.891155,120.096593,87,38,23,12,4,4,14,9,1025,72,6,20141107180000
523,"Jishan new village, Huzhou",,30.859939,120.120168,109,40,23,17,7,8,14,9,1025,72,6,20141107180000
524,"Town west water plant, Huzhou",,30.862371,120.084577,80,45,24,14,5,6,14,9,1025,72,6,20141107180000
525,Huzhou,,30.892304,120.091694,87,38,23,12,4,4,14,9,1025,72,6,20141107180000
526,"Donghu middle school, Shaoxing",,29.990447,120.647547,55,29,31,13,9,5,13,9,1025,77,5,20141107180000
527,"City EPA station, Shaoxing",,30.001695,120.584318,80,53,26,15,8,3,13,9,1025,77,5,20141107180000
528,"Chengdong BDA committee, Shaoxing",,29.986643,120.613578,63,27,28,8,8,5,13,9,1025,77,5,20141107180000
529,"Paojiang station, Shaoxing",,30.07574,120.62154,109,55,35,26,27,7,13,9,1025,77,5,20141107180000
530,"Shaoxing technical school, Shaoxing",,29.930983,120.577131,63,32,36,9,9,6,13,9,1025,77,5,20141107180000
531,"Library, Shaoxing",,29.706266,120.253183,99,53,27,9,6,8,13,9,1025,77,5,20141107180000
532,"Transporation management station, Shaoxing",,29.726405,120.221602,124,56,28,6,9,8,13,9,1025,77,5,20141107180000
533,"Dongpu Town Governement, Shaoxing",,30.049601,120.539893,82,47,32,12,11,2,13,9,1025,77,5,20141107180000
534,Shaoxing,,29.993122,120.590182,80,53,26,15,8,3,-,-,0,-,-,20141107180000
535,"City Monitoring Station, Jinhua",,29.100031,119.690373,109,61,25,17,14,8,12,12,0,96,3,20141107180000
536,"No.15 middle school, Jinhua",,29.074022,119.652121,117,64,24,20,9,6,12,12,0,96,3,20141107180000
537,"No.4 middle school, Jinhua",,29.110109,119.653654,132,59,24,13,10,7,12,12,0,96,3,20141107180000
538,"Beiyuan, Jinhua",,29.332898,120.083351,132,63,20,9,3,14,12,12,0,96,3,20141107180000
539,"Jiangdong, Jinhua",,29.302486,120.095291,139,57,21,11,9,12,12,12,0,96,3,20141107180000
540,Jinhua,,29.076083,119.65215,117,64,24,20,9,6,12,12,0,96,3,20141107180000
541,"EPA building, Quzhou",,28.937291,118.876081,102,59,29,7,6,9,14,13,1024,89,4,20141107180000
542,"Experimental school, Quzhou",,28.961502,118.880916,119,54,29,7,5,8,14,13,1024,89,4,20141107180000
543,"Quzhou University, Quzhou",,28.971452,118.860052,142,60,17,15,7,10,14,13,1024,89,4,20141107180000
544,Quzhou,,28.966994,118.864252,142,60,17,15,7,10,14,13,1024,89,4,20141107180000
545,"Putuo east port, Zhoushan",,29.951412,122.317679,50,25,41,1,2,3,15,12,1024,82,1,20141107180000
546,"Dinghai tanfeng, Zhoushan",,30.018014,122.126566,53,28,41,4,1,3,15,12,1024,82,2,20141107180000
547,Zhoushan,,29.983049,122.210763,59,30,34,6,2,4,15,12,1024,82,1,20141107180000
548,"Taizhou EPA building, Taizhou",,28.651216,121.42331,78,33,38,6,2,4,14,13,0,92,2,20141107180000
549,"Luqiao Tian Yang Wang, Taizhou",,28.574364,121.381194,107,53,29,10,3,7,14,13,0,92,2,20141107180000
550,"Huangyan EPA building, Taizhou",,28.656151,121.285064,139,54,13,20,2,8,14,13,0,92,2,20141107180000
551,"Yu Zhuang Qian, Lishui",,28.419638,119.883884,177,79,25,23,5,9,16,13,1024,71,1,20141107180000
552,"Monitoring station building, Lishui",,28.444379,119.923103,168,76,26,16,4,9,16,13,1024,71,1,20141107180000
553,"Liandu primary school, Lishui",,28.450912,119.939332,180,96,31,14,3,10,16,13,1024,71,1,20141107180000
554,Lishui,,28.464224,119.927201,168,76,26,16,4,9,16,13,1024,71,1,20141107180000
1248,Jingningxian,,27.977454,119.634837,132,51,5,10,2,6,,,,,,20141107180000
555,Taigu Primary School,,29.864178,121.60022,82,51,21,38,6,4,15,12,1024,82,1,20141107180000
556,Qianhu shuihan,,29.862459,121.5328,95,62,16,31,12,6,15,12,1024,82,1,20141107180000
557,Sanjiang secondary schools,,29.891563,121.568427,102,61,15,41,6,6,15,12,1024,82,1,20141107180000
558,Longsai Hospital,,29.957301,121.726734,59,26,32,11,7,4,15,12,1024,82,1,20141107180000
559,Beilun District EPB,,29.911633,121.850773,55,32,28,14,4,5,15,12,1024,82,1,20141107180000
560,Wanli University,,29.821314,121.574364,70,41,25,27,5,5,15,12,1024,82,1,20141107180000
561,Qianhu water plant,,29.774416,121.648136,151,57,31,18,5,5,15,12,1024,82,1,20141107180000
562,Municipal management station,,29.899182,121.626691,76,56,20,31,4,6,15,12,1024,82,1,20141107180000
1177,Daxie Literary Museum,,29.9027,121.986447,61,29,31,9,4,3,15,12,1024,82,1,20141107180000
1178,Cixi EPB,,30.165807,121.248991,89,32,30,24,5,6,15,12,1024,82,1,20141107180000
1179,Cixi Experimently Primary School,,30.179808,121.268672,87,45,34,27,4,5,15,12,1024,82,1,20141107180000
1180,"Yongsan Park, Yuyao",,30.050842,121.162477,97,38,31,10,4,6,15,12,1024,82,1,20141107180000
1181,"Qilupu Water Company, Yuyao",,30.039112,121.133416,99,49,29,18,7,6,15,12,1024,82,1,20141107180000
1182,Fenghua EPB,,29.666557,121.42069,85,41,14,22,6,7,15,12,1024,82,1,20141107180000
1183,"Yuelong station, Ninghai",,29.296505,121.445872,89,53,16,18,7,5,15,12,1024,82,1,20141107180000
1184,"Wenfeng Primary School, Xiangshan",,29.470908,121.889544,55,31,36,7,4,4,15,12,1024,82,1,20141107180000
1185,"Chengnan Primary School, Ninghai",,29.293812,121.43666,104,54,20,14,8,7,15,12,1024,82,1,20141107180000
1186,"Xingang Primary School, Xiangshan",,29.203878,121.952514,42,9,41,6,3,4,15,12,1024,82,1,20141107180000
1356,Haishu City Monitoring Center,,29.86835,121.539341,95,62,15,31,12,6,15,12,1024,82,1,20141107180000
1357,Fenghua Xikou government,,29.693164,121.29331,89,43,24,28,4,6,15,12,1024,82,1,20141107180000
1294,Ningbo,,29.865766,121.548164,76,56,20,31,4,6,15,12,1024,82,1,20141107180000
1187,Fuyang,,30.046157,119.96468,87,55,21,10,4,6,-,-,0,-,-,20141107180000
1188,Yiwu,,29.304353,120.079794,139,63,21,11,9,14,-,-,0,-,-,20141107180000
1189,Zhuji,,29.711185,120.240748,124,56,28,9,9,8,13,9,1025,77,5,20141107180000
563,"Shanxi Road , Nanjing",,32.06795,118.779216,119,66,15,28,10,0,10,10,1027,100,3,20141107180000
564,"Ruijin Road , Nanjing",,32.029321,118.80817,129,63,9,22,9,0,10,10,1027,100,3,20141107180000
565,"Xuanwu Lake, Nanjing",,32.075423,118.800188,99,56,12,31,7,0,10,10,1027,100,3,20141107180000
566,"Olympic Center, Nanjing",,32.007171,118.742217,114,63,16,11,3,0,10,10,1027,100,3,20141107180000
567,"Xianlin University Town , Nanjing",,32.106958,118.919882,112,63,20,19,9,0,10,10,1027,100,3,20141107180000
568,Nanjing,,32.058179,118.802061,89,59,15,22,5,0,10,10,1027,100,3,20141107180000
569,"Shangfang hill , Suzhou",,31.24502,120.565211,82,30,22,16,9,0,14,9,1026,72,5,20141107180000
570,"Wuzhong District , Suzhou",,31.268105,120.61717,99,37,26,18,5,0,15,8,1026,63,5,20141107180000
571,"Suzhou New District , Suzhou",,31.297277,120.547262,78,35,19,19,19,0,14,9,1026,72,5,20141107180000
572,"Suzhou Industrial Area, Suzhou",,31.307603,120.673257,87,35,24,12,9,0,14,9,1026,72,5,20141107180000
573,"Xiangcheng district, Suzhou",,31.368674,120.645209,99,32,24,12,17,0,14,9,1026,72,5,20141107180000
574,Suzhou,,31.296701,120.589493,99,39,24,19,19,0,14,9,1026,72,5,20141107180000
575,"South suburb , Nantong",,31.957836,120.917218,127,51,31,9,7,0,13,10,0,82,4,20141107180000
576,"Xinghu park, Nantong",,31.927873,120.944254,157,76,31,13,20,0,13,10,0,82,4,20141107180000
577,"Zilang school, Nantong",,32.039638,120.814358,119,51,31,11,6,0,13,10,0,82,4,20141107180000
578,Nantong,,31.978005,120.898555,157,76,31,17,20,0,13,10,0,82,4,20141107180000
579,Lianyungang,,34.595509,119.226814,152,84,21,27,10,7,8,8,1016,96,0,20141107180000
580,"Hongmen police substation, Lianyungang",,34.588692,119.146693,107,77,10,23,15,0,8,0,1030,48,2,20141107180000
581,"Xugou Nuclear Expert Village , Lianyungang",,34.749957,119.373707,-,-,-,-,-,-,-,-,0,-,-,20141107180000
582,"Hengrui pharmaceutical company, BDA, Lianyungang",,34.697574,119.353668,82,53,18,25,8,0,8,0,1030,48,2,20141107180000
583,"City Monitoring Station, Lianyungang",,34.586791,119.186929,102,65,12,26,22,0,8,0,1030,48,2,20141107180000
584,"Yellow river new village , Xuzhou",,34.271542,117.177241,155,82,5,19,15,0,10,1,1030,40,2,20141107180000
585,"Tongshan Veterinary Hospital , Xuzhou",,34.307086,117.197766,127,94,4,28,4,0,10,1,1030,40,2,20141107180000
586,"New Town , Xuzhou",,34.213992,117.261718,160,105,10,24,14,0,10,1,1030,40,2,20141107180000
587,"Taoyuan road, Xuzhou",,34.289822,117.249721,175,95,8,22,15,0,10,1,1030,40,2,20141107180000
588,"Agricultural Science Academy , Xuzhou",,34.27655,117.299079,185,101,5,10,21,0,10,1,1030,40,2,20141107180000
589,"Tongshan EPA, Xuzhou",,34.179384,117.171798,162,102,5,14,13,0,10,1,1030,40,2,20141107180000
590,Xuzhou,,34.20346,117.289825,199,126,12,29,25,0,10,1,1030,40,2,20141107180000
591,Yangzhou,,32.39233,119.418446,159,69,10,19,10,5,11,9,0,90,6,20141107180000
592,"Hanjiang Monitoring Station, Yangzhou",,32.374218,119.394484,70,41,23,15,9,0,11,8,0,79,3,20141107180000
593,"No. 4 Hospital, Yangzhou",,32.401394,119.44444,82,50,29,5,12,0,11,8,0,79,3,20141107180000
594,"City Monitoring Station, Yangzhou",,32.406588,119.41591,82,54,27,3,18,0,11,8,0,79,3,20141107180000
595,"University Town , Wuxi",,31.484752,120.273571,107,53,25,9,13,0,14,9,1026,72,5,20141107180000
596,"Shibei High School , Wuxi",,31.619969,120.279584,124,54,17,23,20,0,14,9,1026,72,5,20141107180000
597,"Yuhong Elementary School , Wuxi",,31.561155,120.249588,97,54,19,14,12,0,14,9,1026,72,5,20141107180000
598,Wuxi,,31.488746,120.31575,147,63,25,23,20,0,-,-,0,-,-,20141107180000
599,Changzhou,,31.808037,119.979205,172,86,6,22,36,13,11,9,0,88,5,20141107180000
600,"Chengjian School, Changzhou",,31.776476,119.937681,95,43,25,14,8,0,12,10,0,84,4,20141107180000
601,"Changzhou Engineering Institute , Changzhou",,31.806828,119.966724,82,52,29,11,8,0,12,10,0,84,4,20141107180000
602,"Wujin Monitoring Station, Changzhou",,31.701788,119.939676,112,58,26,10,10,0,13,9,0,78,4,20141107180000
603,"City Monitoring Station, Changzhou",,31.777201,119.979426,109,49,23,15,7,0,12,10,0,84,4,20141107180000
604,Zhenjiang,,32.18597,119.431281,170,79,4,39,15,13,9,8,0,93,5,20141107180000
605,"New District Administrative office , Zhenjiang",,32.186174,119.685021,76,43,35,9,6,0,10,9,1026,94,4,20141107180000
606,"Vocational Education Center , Zhenjiang",,32.212973,119.496253,74,53,30,19,3,0,10,9,1026,94,4,20141107180000
607,"Dantu Monitoring Station , Zhenjiang",,32.130026,119.435432,78,67,27,14,8,0,10,9,1026,94,4,20141107180000
608,"City Monitoring Station, Zhenjiang",,32.202178,119.439766,91,43,24,16,6,0,10,9,1026,94,4,20141107180000
609,"Gaogang Adminstrative office , Taizhoushi",,32.300768,119.886757,117,66,26,9,11,0,11,8,0,79,3,20141107180000
610,"Students Innovation Park , Taizhoushi",,32.461672,119.892761,112,-,28,6,15,0,11,8,0,79,3,20141107180000
611,Taizhoushi,,32.453555,119.927852,151,66,28,16,15,0,11,8,0,79,3,20141107180000
612,"Yancheng power station , Yancheng",,33.400859,120.123067,85,51,21,14,9,0,,,0,,,20141107180000
613,Yancheng,,33.345939,120.168504,144,52,30,5,3,7,11,10,1016,95,4,20141107180000
614,"Wenfeng Middle School , Yancheng",,33.370531,120.134041,93,50,30,13,25,0,,,0,,,20141107180000
615,"BDA Management Committe, Yancheng",,33.393191,120.22978,63,54,22,14,7,0,,,0,,,20141107180000
616,"City Monitoring Station, Yancheng",,33.390623,120.164423,89,45,21,22,8,0,,,0,,,20141107180000
617,Suqian,,33.960666,118.281004,160,87,24,7,5,7,11,10,0,91,6,20141107180000
618,"Suqian College , Suqian",,33.951472,118.298523,63,47,15,20,4,0,9,4,0,68,2,20141107180000
619,"Suqian Middle School , Suqian",,33.95784,118.249505,74,52,11,27,12,0,9,4,0,68,2,20141107180000
620,"Suyu District Environmental Protection Agency , Suqian",,33.94932,118.326569,93,47,16,13,6,0,9,4,0,68,2,20141107180000
621,"City Monitoring Station, Suqian",,33.956982,118.277022,107,45,8,12,3,0,9,4,0,68,2,20141107180000
622,Taizhou,,28.653436,121.425185,78,33,38,6,2,4,14,13,0,92,2,20141107180000
623,Donghu Liyuan,,30.572324,114.377844,157,50,20,11,2,9,11,11,1026,100,2,20141107180000
624,Yuehu Lake,,30.554662,114.256937,129,51,14,17,1,8,11,11,1026,100,2,20141107180000
625,Hankou Huaqiao ,,30.61724,114.287652,154,42,15,12,4,11,11,11,1026,100,2,20141107180000
626,Wuchang Ziyang ,,30.530801,114.309438,151,54,14,14,5,8,11,11,1026,100,2,20141107180000
627,Qingshan Ganghua,,30.622435,114.375599,159,48,17,12,10,9,11,11,1026,100,2,20141107180000
628,Dunkou Xinou,,30.480091,114.162176,157,57,13,21,4,10,11,11,1026,100,2,20141107180000
629,Donghu Gaoxin,,30.48095,114.40724,155,52,14,15,6,13,11,11,1026,100,2,20141107180000
630,Wujianshan,,30.63114,114.135907,159,52,15,12,2,10,11,11,1026,100,2,20141107180000
631,Yuanshun Road,,30.297142,113.858587,153,62,21,7,6,8,11,11,1026,100,2,20141107180000
632,Wuhan,,30.590689,114.310838,132,52,14,6,5,9,11,11,1026,100,2,20141107180000
1190,"Silingsan Factory, Yichang",,30.713288,111.306585,63,21,13,6,4,3,9,8,1027,96,1,20141107180000
633,Yichang,,30.689528,111.292131,85,37,20,9,10,9,9,8,1027,96,1,20141107180000
633,Yichang,,30.689528,111.292131,85,37,20,9,10,9,9,8,1027,96,1,20141107180000
1191,"City Library , Jingzhou",,30.31494,112.260844,178,89,13,16,11,11,11,9,1027,85,2,20141107180000
1192,"City committee communist party school, Jingzhou",,30.35054,112.20743,173,95,15,11,11,12,11,9,1027,85,2,20141107180000
1193,"kerong EPA, Jingzhou",,30.302965,112.29443,175,88,21,14,12,14,11,9,1027,85,2,20141107180000
634,Jingzhou,,30.332608,112.245451,178,95,21,16,12,14,11,9,1027,85,2,20141107180000
634,Jingzhou,,30.332608,112.245451,178,95,21,16,12,14,11,9,1027,85,2,20141107180000
635,Huangshi,,30.19723,115.043908,155,78,15,7,2,22,12,,1028,100,4,20141107180000
635,Huangshi,,30.19723,115.043908,155,78,15,7,2,22,12,,1028,100,4,20141107180000
1194,"Chenjiaying, Huangshi",,30.232823,115.067923,153,76,13,4,1,22,12,,1028,100,4,20141107180000
1195,"Chenjiawan , Huangshi",,30.200422,115.082138,160,90,11,15,4,22,12,,1028,100,4,20141107180000
1196,"Xinxialu, Huangshi",,30.17332,114.954357,142,65,17,8,1,22,12,,1028,100,4,20141107180000
1197,"Tie montian, Huangshi",,30.203885,114.906439,155,60,17,9,1,18,12,,1028,100,4,20141107180000
1198,"BDA, Huangshi",,30.207491,115.031739,158,97,19,1,1,25,12,,1028,100,4,20141107180000
636,Shiyan,,32.627208,110.803311,184,99,9,16,14,10,1,,960,91,1,20141107180000
636,Shiyan,,32.627208,110.803311,184,99,9,16,14,10,1,,960,91,1,20141107180000
1199,"Wudang Mountain , Shiyan",,32.392921,111.047655,169,78,26,5,5,11,1,,0,91,1,20141107180000
1200,"Riverside Village , Shiyan",,32.647286,110.785335,180,95,11,20,14,10,1,,960,91,1,20141107180000
1201,"Liujiagou , Shiyan",,32.636732,110.731129,193,105,6,18,22,10,1,,960,91,1,20141107180000
637,Xiangyang,,32.007029,112.128496,212,113,5,17,6,14,10,,1029,96,2,20141107180000
637,Xiangyang,,32.007029,112.128496,212,113,5,17,6,14,10,,1029,96,2,20141107180000
638,Ezhou,,30.389244,114.899884,158,73,23,6,3,9,12,,1036,100,4,20141107180000
638,Ezhou,,30.389244,114.899884,158,73,23,6,3,9,12,,1036,100,4,20141107180000
1203,"City government, Ezhou",,30.391836,114.892822,154,57,27,10,5,10,12,,1036,100,4,20141107180000
1204,"Zhaojiaba, Ezhou",,30.368966,114.90365,154,73,22,2,1,8,12,,1036,100,4,20141107180000
1205,"Fankou BDA, Ezhou",,30.410759,114.818225,166,89,21,7,1,10,12,,1036,100,4,20141107180000
639,Jingmen,,31.033208,112.205093,219,110,10,20,18,10,10,,1021,98,2,20141107180000
639,Jingmen,,31.033208,112.205093,219,110,10,20,18,10,10,,1021,98,2,20141107180000
640,Xiaogan,,30.922089,113.922387,153,73,17,5,2,10,12,,1036,99,4,20141107180000
640,Xiaogan,,30.922089,113.922387,153,73,17,5,2,10,12,,1036,99,4,20141107180000
1206,"wenhua street, Shenyang , Xiaogan",,30.925856,113.92104,154,76,16,8,3,14,12,,1036,99,4,20141107180000
1207,"Dongcheng District , Huludao , Xiaogan",,30.917963,113.943904,151,70,18,1,1,7,12,,1036,99,4,20141107180000
641,Huanggang,,30.45124,114.877378,157,65,27,11,2,18,12,,1036,100,4,20141107180000
641,Huanggang,,30.45124,114.877378,157,65,27,11,2,18,12,,1036,100,4,20141107180000
1208,"Dazhou Island, Huanggang",,30.446205,114.900323,156,66,25,17,1,16,12,,1036,100,4,20141107190000
1209,"Workers Center , Huanggang",,30.469244,114.912504,157,63,30,5,2,19,12,,1036,100,4,20141107190000
642,Xianning,,29.838978,114.327898,161,74,16,6,20,28,11,,998,100,1,20141107190000
642,Xianning,,29.838978,114.327898,161,74,16,6,20,28,11,,998,100,1,20141107190000
1210,"Municipal Development and Reform Commission , Xianning",,29.818645,114.328461,163,72,20,7,54,27,11,,998,100,1,20141107190000
1211,"Xianan District Governement, Xianning",,29.51107,114.181864,164,76,5,5,4,29,11,,1008,100,2,20141107190000
1212,"Yangtze River Industrial Park , Xianning",,29.883098,114.32909,161,73,24,6,7,30,11,,998,100,1,20141107190000
1213,"Qianshan Park, Xianning",,29.815351,114.328689,158,74,17,7,7,26,11,,998,100,1,20141107190000
643,Suizhou,,31.688342,113.388675,155,69,12,3,5,20,9,,1023,96,3,20141107190000
643,Suizhou,,31.688342,113.388675,155,69,12,3,5,20,9,,1023,96,3,20141107190000
1338,"City committee communist party school, Suizhou",,31.725316,113.3648,161,77,8,3,1,12,9,,1023,96,3,20141107190000
1339,"Forestry Bureau, Suizhou",,31.690065,113.383157,153,59,16,2,4,18,9,,1023,96,3,20141107190000
645,Xiantao,,30.360228,113.460616,166,115,14,6,4,20,12,,1036,99,4,20141107190000
645,Xiantao,,30.360228,113.460616,166,115,14,6,4,20,12,,1036,99,4,20141107190000
1088,Shennongjia,,31.741307,110.685554,87,32,33,3,1,3,4,,,100,1,20141107190000
1088,Shennongjia,,31.741307,110.685554,87,32,33,3,1,3,4,,,100,1,20141107190000
1214,"Xiangcheng Yundong Street, Xiangfan",,32.017716,112.16102,211,111,3,20,4,9,10,,1029,96,2,20141107190000
1359,"Fancheng Xinhua Road , Xiangfan",,32.0544,112.145224,212,115,6,15,7,17,10,,1029,96,2,20141107190000
655,"City Environmental Monitoring Station, Baotou",,40.657201,109.886738,59,35,15,9,5,7,,,0,,,20141107190000
656,"Donghe EPB, Baotou",,40.586213,110.002224,87,69,3,28,22,22,,,0,,,20141107190000
657,"Baotou shopping mall, Baotou",,40.508334,109.819085,59,50,13,11,7,13,,,0,,,20141107190000
658,"Huilong logistics, Baotou",,40.633436,109.879821,65,34,16,9,5,9,,,0,,,20141107190000
659,Baotou,,40.658597,109.846051,161,102,19,33,22,27,,,0,,,20141107190000
660,"Huatai Automobile Mall, Eerduosi",,39.837048,109.972209,102,59,37,18,6,7,0,-4,1028,66,0,20141107190000
661,"Olympus Garden, Eerduosi",,39.789171,109.987742,114,62,29,30,6,12,0,-4,1028,66,0,20141107190000
662,Eerduosi,,39.609284,109.78704,114,62,37,37,37,12,0,-4,1028,66,0,20141107190000
663,"Tianyi Road, Chifeng",,42.275552,118.88507,119,66,23,14,11,15,-3,-17,1032,21,1,20141107190000
664,"Songshan No.1 Middle School, Chifeng",,42.329307,118.793045,155,87,19,12,46,19,-3,-17,1032,21,1,20141107190000
665,"Hada Street, Chifeng",,42.280714,118.988235,152,83,12,12,17,14,-3,-17,1032,21,1,20141107190000
666,"Songshan Road, Chifeng",,42.171487,118.89501,154,91,36,9,41,17,-3,-17,1032,21,1,20141107190000
667,Chifeng,,42.259752,118.893027,155,91,36,14,46,19,-3,-17,1032,21,1,20141107190000
674,Fuzhou,,26.071406,119.301294,93,46,32,11,1,6,19,16,1020,83,3,20141107190000
675,"Xidong, Xiamen",,24.815345,118.161848,78,33,33,3,3,5,21,16,1019,73,3,20141107190000
676,"Hongwen, Xiamen",,24.473969,118.156281,87,40,32,12,3,5,21,16,1019,73,3,20141107190000
677,"Gulangyu, Xiamen",,24.443168,118.068571,78,34,34,8,2,5,21,16,1019,73,3,20141107190000
678,"Huli, Xiamen",,24.51235,118.099146,87,38,42,4,2,4,21,16,1019,73,3,20141107190000
679,Xiamen,,24.477187,118.094402,87,38,42,4,2,4,-,-,0,-,-,20141107190000
680,"Qingyuan Montain, Quanzhou",,24.939503,118.598337,72,31,28,3,3,4,21,16,1019,73,3,20141107190000
681,"Tushan Street, Quanzhou",,24.90867,118.586397,80,39,43,7,2,4,21,16,1019,73,3,20141107190000
682,"Wanan, Quanzhou",,24.304154,118.070903,70,29,31,5,2,5,21,16,1019,73,3,20141107190000
683,Quanzhou,,24.87179,118.68001,80,39,43,10,5,5,21,16,1019,73,3,20141107190000
687,"Jiancaoping, Taiyuan",,37.887889,112.528383,168,86,1,19,65,17,4,2,1027,87,1,20141107190000
688,"Jianhe, Taiyuan",,37.910779,112.579258,177,108,2,9,55,14,4,2,1027,87,0,20141107190000
689,"Shanglan, Taiyuan",,38.011589,112.440679,170,73,3,37,60,15,4,2,1027,87,1,20141107190000
690,"Jinyuan, Taiyuan",,37.713164,112.475552,199,106,5,16,51,14,4,2,1027,87,0,20141107190000
691,"Xiaodian, Taiyuan",,37.782137,112.483533,158,68,12,15,60,17,4,2,1027,87,0,20141107190000
692,"Taoyuan, Taiyuan",,37.869752,112.543332,174,89,1,28,68,18,4,2,1027,87,0,20141107190000
693,"Wucheng, Taiyuan",,37.819998,112.576252,170,91,2,18,65,10,4,2,1027,87,1,20141107190000
694,"Nanzhai, Taiyuan",,37.985902,112.555312,179,84,3,17,47,8,4,2,1027,87,1,20141107190000
695,"Jinsheng, Taiyuan",,37.781205,112.494494,172,89,2,12,52,17,4,2,1027,87,1,20141107190000
696,Taiyuan,,37.871115,112.555178,174,89,1,28,68,18,-,-,0,-,-,20141107190000
697,"Monitoring station, Changzhi",,36.194062,113.10389,129,61,16,19,29,21,,,0,,,20141107190000
698,"Auditing bureau, Changzhi",,36.212787,113.095221,109,59,15,30,11,20,,,0,,,20141107190000
699,"Qinghua station, Changzhi",,36.154328,113.116385,95,57,18,26,16,20,,,0,,,20141107190000
700,"No.8 middle school, Changzhi",,36.185451,113.099481,102,52,12,22,47,14,,,0,,,20141107190000
701,Changzhi,,36.195553,113.12292,129,61,18,30,47,23,,,0,,,20141107190000
702,"Yungang Hotel, Datong",,40.076997,113.278079,109,59,11,4,10,17,-2,-4,1031,84,1,20141107190000
703,"college of education, Datong",,40.085608,113.27808,117,50,6,3,11,12,-2,-4,1031,84,1,20141107190000
704,Datong,,40.078016,113.307143,117,66,11,12,11,17,-2,-4,1031,84,1,20141107190000
705,"Technical Schools, Linfen",,36.07131,111.509046,163,33,8,30,12,21,5,2,0,81,2,20141107190000
706,"Municipal party committee, Linfen",,36.087425,111.508771,155,39,10,16,16,20,5,2,0,81,2,20141107190000
1073,"City Monitoring Station, Linfen",,36.097676,111.518739,159,66,7,18,23,14,5,2,0,82,2,20141107190000
707,"South Airport, Linfen",,36.041614,111.497968,152,32,22,30,43,10,5,2,0,81,2,20141107190000
708,Linfen,,36.087944,111.525098,163,39,23,42,32,21,5,2,0,81,2,20141107190000
709,"City center, Yangquan",,37.848012,113.578636,154,70,2,11,14,12,4,2,1027,87,0,20141107190000
710,Yangquan,,37.857475,113.586921,154,70,10,104,34,22,4,2,1027,87,0,20141107190000
711,"Water Company, Jincheng",,35.504787,112.857245,155,59,6,13,17,9,6,1,1029,58,2,20141107190000
712,"Baiyun shopping mall, Jincheng",,35.492858,112.841566,144,65,6,27,21,11,6,1,1029,58,2,20141107190000
713,"City EPA, Jincheng",,35.488422,112.858528,142,68,7,38,53,15,6,1,1029,58,2,20141107190000
714,"Institute of Technology, Jincheng",,35.484844,112.878073,157,78,7,11,25,7,6,1,1029,58,2,20141107190000
715,"No.1 middle school, Jincheng",,35.478725,112.838636,158,70,7,14,22,9,6,1,1029,58,2,20141107190000
716,Jincheng,,35.490287,112.85794,158,78,7,38,53,15,6,1,1029,58,2,20141107190000
718,"District Government, Shuozhou",,39.320857,112.430641,152,69,6,25,36,13,1,-3,1030,66,2,20141107190000
719,"City EPA, Shuozhou",,39.331495,112.407997,-,60,-,22,20,-,1,-3,1030,66,2,20141107190000
720,"No.2 middle school, Shuozhou",,39.377963,112.432877,139,57,19,26,37,13,1,-3,1030,66,2,20141107190000
721,Shuozhou,,39.332756,112.439672,152,88,6,25,36,13,1,-3,1030,66,2,20141107190000
722,"Jinlun compound, Jinzhong",,37.697891,112.771017,144,53,5,7,18,21,4,2,1027,87,1,20141107190000
723,"Hydraulic Component Factory, Jinzhong",,37.688355,112.725844,157,73,8,28,22,18,4,2,1027,87,0,20141107190000
724,"Nandu compound, Jinzhong",,37.713148,112.732036,114,91,3,4,15,15,4,2,1027,87,0,20141107190000
725,"Yuci district government, Jinzhong",,37.698228,112.714167,159,67,3,1,23,17,4,2,1027,87,0,20141107190000
726,Jinzhong,,37.687705,112.759187,159,91,8,28,26,21,4,2,1027,87,0,20141107190000
727,"Yuncheng Middle School, Yuncheng",,35.012345,111.003215,171,117,24,11,20,13,10,4,1027,54,3,20141107190000
728,"Yudou BDA, Yuncheng",,35.05065,111.029571,177,113,17,5,15,13,10,4,1027,54,3,20141107190000
730,"Regional Technical School, Yuncheng",,35.028727,110.974076,170,92,18,5,8,18,10,4,1027,54,3,20141107190000
731,"Airport new district, Yuncheng",,35.084515,111.05339,152,84,19,8,20,21,10,4,1027,54,3,20141107190000
732,Yuncheng,,35.025675,111.013344,177,117,24,11,20,21,-,-,0,-,-,20141107190000
733,"Jiyin, Xinzhou",,38.413292,112.742432,171,112,10,22,31,15,4,2,1027,87,0,20141107190000
734,"BDA, Xinzhou",,38.450069,112.736723,119,71,3,7,27,15,4,2,1027,87,1,20141107190000
735,"Convention Center, Xinzhou",,38.492043,112.709772,161,68,9,21,17,27,4,2,1027,87,0,20141107190000
736,Xinzhou,,38.417244,112.740742,171,112,10,22,31,15,4,2,1027,87,0,20141107190000
737,"City EPA, Luliang",,37.522189,111.144365,162,61,1,20,53,35,11,10,0,82,2,20141107190000
738,"Soybean factory, Luliang",,37.51689,111.135101,161,73,1,19,57,42,11,10,0,82,2,20141107190000
739,"Water Company, Luliang",,37.53394,111.138834,163,83,8,16,32,38,12,10,0,79,1,20141107190000
740,Luliang,,25.027007,103.668566,163,83,1,16,32,38,12,10,0,79,1,20141107190000
741,"City government, Sanmenxia",,34.776251,111.198781,180,142,6,25,21,14,10,4,1026,58,4,20141107190000
743,"BDA, Sanmenxia",,34.800434,111.204332,192,128,11,30,37,14,10,4,1026,58,4,20141107190000
744,Sanmenxia,,34.771506,111.206129,192,142,11,30,37,16,10,4,1026,58,4,20141107190000
745,"Food Factory, Changchun",,43.919094,125.329521,155,70,4,24,44,7,-5,-14,1028,50,4,20141107190000
746,"Bus Factory, Changchun",,43.912337,125.293431,144,68,9,19,13,9,-5,-14,1028,50,4,20141107190000
747,"Institute of Posts and Telecommunications, Changchun",,43.842368,125.285005,157,66,4,11,28,8,-5,-14,1028,50,4,20141107190000
748,"Laodong Park, Changchun",,43.877293,125.371519,160,104,8,20,12,9,-5,-14,1028,50,4,20141107190000
749,"Forest area, Changchun",,43.871825,125.331519,160,85,4,24,23,17,-5,-14,1028,50,4,20141107190000
750,"Jinyuetan, Changchun",,43.79031,125.460561,162,72,28,9,5,13,-5,-14,1028,50,4,20141107190000
751,"Shuaiwanzi, Changchun",,43.552321,125.639086,162,83,16,8,3,8,-5,-14,1028,50,4,20141107190000
752,"Economic Development Zone Sanitation Department, Changchun",,43.869221,125.42365,163,100,18,16,5,4,-5,-14,1028,50,4,20141107190000
753,"High-tech Zone Administrative Committee, Changchun",,43.819064,125.256375,155,98,14,14,7,18,-5,-14,1028,50,4,20141107190000
754,"Daishan Park, Changchun",,43.852365,125.223399,161,91,10,17,11,8,-5,-14,1028,50,4,20141107190000
755,Changchun,,43.819415,125.329977,157,66,4,11,28,8,-,-,0,-,-,20141107190000
756,"Hadawan, Jilin",,43.888081,126.545727,164,84,10,27,29,25,-4,-15,0,41,3,20141107190000
757,"Fengman, Jilin",,43.768169,126.678802,157,64,31,5,3,4,-4,-15,0,41,3,20141107190000
758,"Electric Power College, Jilin",,43.827403,126.502281,155,65,10,20,11,10,-4,-15,0,41,3,20141107190000
759,"Jiangnan Park, Jilin",,43.83531,126.556519,168,69,10,26,16,10,-4,-15,0,41,3,20141107190000
760,"Dongjuzi, Jilin",,43.838597,126.590068,163,83,15,23,6,7,-4,-15,0,41,3,20141107190000
763,Jilin,,43.840137,126.555262,168,84,31,27,29,25,-4,-15,0,41,3,20141107190000
764,"Lingbei, Haerbin",,45.756979,126.548008,185,94,27,29,34,15,-4,-12,1025,54,4,20141107190000
931,"Zhongzhai Port, Haikou",,19.948477,110.579698,38,20,16,2,2,8,22,21,1014,94,0,20141107190000
765,"Songbei Commercial University, Haerbin",,45.818624,126.566963,187,98,31,19,23,16,-4,-12,1025,54,4,20141107190000
766,"Acheng huining, Haerbin",,45.544286,126.985183,192,95,27,12,-,7,-4,-12,1025,54,4,20141107190000
767,"Nangang College Street, Haerbin",,45.724121,126.604906,181,102,31,17,14,11,-4,-12,1025,54,4,20141107190000
768,"Taiping Hongwei Park, Haerbin",,45.775332,126.695101,189,98,29,27,44,10,-4,-12,1025,54,4,20141107190000
769,"Daowai Chengde Square, Haerbin",,45.768637,126.640955,184,104,28,27,33,11,-4,-12,1025,54,4,20141107190000
770,"Xiangfang Hongqi Street, Haerbin",,45.733936,126.691083,193,118,26,12,27,11,-4,-12,1025,54,4,20141107190000
771,"Dongli Heping Road, Haerbin",,45.727765,126.651974,194,114,25,27,22,7,-4,-12,1025,54,4,20141107190000
772,"Daoli Jianguo Road, Haerbin",,45.749715,126.59891,185,101,29,35,44,9,-4,-12,1025,54,4,20141107190000
773,"Pingfang Light Factory, Haerbin",,45.611951,126.620898,203,138,5,28,49,7,-4,-12,1024,54,4,20141107190000
774,"Hulan Normal College, Haerbin",,45.983745,126.616553,219,133,24,30,15,10,-4,-12,1025,54,4,20141107190000
775,"Provincial Academy of Agricultural Sciences, Haerbin",,45.686141,126.626517,198,118,20,22,33,7,-4,-12,1025,54,4,20141107190000
776,Haerbin,,45.805757,126.541007,187,98,31,19,23,16,-,-,0,-,-,20141107190000
777,"Anju Compound, Qiqihaer",,47.365672,123.937016,264,132,47,21,7,19,-4,-10,1023,47,1,20141107190000
778,"Farming Vehicule Factory, Qiqihaer",,47.326793,123.961427,217,36,27,24,3,14,-4,-10,1023,47,1,20141107190000
779,"Fuqu EPA, Qiqihaer",,47.1853,123.62322,436,243,35,,23,28,-4,-10,1023,47,1,20141107190000
780,"City Center Square, Qiqihaer",,47.343096,123.96192,196,111,31,6,61,14,-4,-10,1023,47,1,20141107190000
1217,"City Environmental Monitoring Station, Qiqihaer",,47.303639,123.957551,321,175,28,19,19,16,-4,-10,1023,47,1,20141107190000
781,Qiqihaer,,47.356387,123.924736,436,175,47,24,61,28,-4,-10,1023,47,1,20141107190000
782,"Saertu District, Daqing",,46.582368,125.152904,70,36,25,3,14,4,-4,-11,1024,48,2,20141107190000
783,"Datong District, Daqing",,46.036786,124.842115,46,17,27,3,9,7,-4,-11,1024,48,2,20141107190000
784,"Honggang District, Daqing",,46.418381,124.88973,63,30,48,8,6,5,-4,-11,1024,48,2,20141107190000
786,"Ranghulu District, Daqing",,46.635123,124.85648,68,35,30,8,7,4,-4,-11,1024,48,2,20141107190000
787,Daqing,,46.591414,125.110838,70,36,48,13,14,9,-4,-11,1024,48,2,20141107190000
788,"Locomotive Factory, Mudanjiang",,44.610589,129.652672,164,88,29,14,7,16,-3,-11,1029,42,2,20141107190000
789,"No. 1 hospital, Mudanjiang",,44.567775,129.617043,165,80,29,17,5,12,-3,-11,1029,42,2,20141107190000
1220,"EPA building, Mudanjiang",,44.567777,129.620658,171,89,10,9,7,7,-3,-11,1029,42,2,20141107190000
1221,"Cultural Square, Mudanjiang",,44.586388,129.623164,159,70,5,16,8,8,-3,-11,1029,42,2,20141107190000
790,Mudanjiang,,44.553619,129.640246,171,89,30,17,13,16,-3,-11,1029,42,2,20141107190000
791,"Mingzhu Plaza, Hefei",,31.782847,117.201512,78,30,33,12,12,8,10,9,1027,94,4,20141107190000
792,"Sanli Street, Hefei",,31.874637,117.312573,91,40,25,10,5,5,10,9,1027,94,4,20141107190000
793,"Hupo Compound, Hefei",,31.868583,117.264491,99,52,25,4,11,5,10,9,1027,94,4,20141107190000
794,"Dongpu Reservoir, Hefei",,31.90319,117.165584,114,63,33,2,4,4,10,9,1027,94,4,20141107190000
795,"Changjiang middle road, Hefei",,31.855185,117.255484,104,45,5,6,3,8,10,9,1027,94,4,20141107190000
796,"Luyang District, Hefei",,31.941771,117.271504,117,40,12,1,15,5,10,9,1027,94,4,20141107190000
797,"Yaohai District, Hefei",,31.856595,117.341644,91,30,56,18,11,10,10,9,1027,94,4,20141107190000
798,"Baohe District, Hefei",,31.793644,117.307554,107,52,5,3,9,12,10,9,1027,94,4,20141107190000
799,"Lake district, Hefei",,31.736619,117.283501,93,30,16,4,2,5,10,9,1027,94,4,20141107190000
800,"High-tech zone, Hefei",,31.849755,117.129624,109,49,9,6,6,4,10,9,1027,94,4,20141107190000
801,Hefei,,31.819449,117.232753,104,30,5,6,3,8,-,-,0,-,-,20141107190000
802,"Hudong Road No.4 Elementary School, Maanshan",,31.684121,118.511017,87,32,27,7,4,5,10,9,1026,94,4,20141107190000
803,"Tianping Garment Factory, Maanshan",,31.64197,118.488043,104,66,43,7,9,11,10,9,1026,94,4,20141107190000
804,"City education base, Maanshan",,31.711216,118.648913,63,15,6,1,2,3,10,9,1026,94,4,20141107190000
805,"Cihu No.2 elementary school, Maanshan",,31.748546,118.515729,95,30,32,7,5,8,10,9,1026,94,4,20141107190000
806,"Maanshan steel factory power plant, Maanshan",,31.690864,118.48528,78,44,16,7,14,5,10,9,1026,94,4,20141107190000
807,Maanshan,,31.668461,118.511939,104,44,43,7,14,11,10,9,1026,94,4,20141107190000
808,"Science Innovation Center, Wuhu",,31.417056,118.375406,63,22,13,6,2,12,10,9,1026,94,4,20141107190000
809,"No.4 Water Plant, Wuhu",,31.315914,118.376231,76,31,25,14,5,12,10,9,1026,94,4,20141107190000
810,"Monitoring station, Wuhu",,31.348955,118.358154,38,23,8,12,13,10,10,9,1026,94,4,20141107190000
811,"Wuqierling Factory, Wuhu",,31.382068,118.407639,61,24,32,4,3,3,10,9,1026,94,4,20141107190000
812,Wuhu,,31.351007,118.438322,76,23,32,14,13,12,10,9,1026,94,4,20141107190000
813,"Jiangxi Foreign Affairs Office, Nanchang",,28.678027,115.903436,153,75,8,1,2,19,13,12,1023,91,3,20141107190000
814,"Provincial forestry company, Nanchang",,28.69065,115.898546,139,67,9,1,1,9,13,12,1023,91,3,20141107190000
815,"Institute of Forestry, Nanchang",,28.731518,115.82478,70,49,12,1,1,10,13,12,1023,91,3,20141107190000
816,"Jingdong town government, Nanchang",,28.680659,115.972736,114,58,12,1,2,7,13,12,1023,91,3,20141107190000
817,"Contruction Industry College, Nanchang",,28.684018,115.865891,74,37,11,13,5,11,13,12,1023,91,3,20141107190000
818,"Xianghu, Nanchang",,28.637831,115.9033,152,73,16,12,5,11,13,12,1023,91,3,20141107190000
819,"Martial Arts School, Nanchang",,28.794538,115.752876,50,19,12,9,6,7,13,12,1023,91,3,20141107190000
820,"Petrifaction Company, Nanchang",,28.608634,115.912999,158,82,12,4,2,10,13,12,1023,91,3,20141107190000
821,"Provincial Station, Nanchang",,28.677155,115.941896,95,37,13,1,1,9,13,12,1023,91,3,20141107190000
822,Nanchang,,28.679883,115.863022,158,82,16,13,6,19,13,12,1023,91,3,20141107190000
939,Sanya,,18.251142,109.515993,57,38,17,5,1,7,25,23,1014,89,2,20141107190000
823,"Lushan Mountain Observatory, Jiujiang",,29.5751,115.998926,30,6,22,17,4,11,6,6,1025,100,5,20141107190000
824,"Shili, Jiujiang",,29.668119,115.992381,87,13,20,9,3,6,6,6,1025,100,5,20141107190000
825,"Maoshantou, Jiujiang",,29.700819,115.967192,85,19,13,14,2,6,6,6,1025,100,5,20141107190000
826,"Xiyuan, Jiujiang",,29.723929,115.998206,87,16,17,14,3,4,6,6,1025,100,5,20141107190000
827,"Wuqierling Factory, Jiujiang",,29.640802,116.022713,87,24,21,12,9,10,6,6,1025,100,5,20141107190000
828,"Water Scientific Research Institute, Jiujiang",,29.679179,116.068081,80,22,16,15,9,3,6,6,1025,100,5,20141107190000
829,"Zonghe Industrial Park, Jiujiang",,29.592047,115.916335,82,21,17,23,2,5,6,6,1025,100,5,20141107190000
830,"Petrochemical General Plant, Jiujiang",,29.738832,116.09463,80,19,17,17,4,8,6,6,1025,100,5,20141107190000
831,Jiujiang,,29.70254,116.007025,87,24,22,23,9,11,6,6,1025,100,5,20141107190000
1332,"Feiyu, Xinyu",,27.844697,115.000136,139,59,28,4,4,,14,,1024,89,1,20141107190000
1333,"Beigang, Xinyu",,27.932491,115.103767,109,47,26,4,3,,13,,1023,97,5,20141107190000
1334,"No.2 water factory, Xinyu",,27.839577,114.933915,109,51,12,5,2,,13,,1023,97,5,20141107190000
1335,"Bureau of Meteorology, Xinyu",,27.81048,114.936507,97,51,20,6,6,,13,,1023,97,5,20141107190000
1336,Xinyu,,27.814351,114.922194,109,51,26,7,6,,13,,1023,97,5,20141107190000
832,"Tobacco Factory, Zhengzhou",,34.753419,113.687131,160,68,12,29,17,32,5,3,1029,87,2,20141107190000
833,"Textile Machinery Factory, Zhengzhou",,34.773366,113.647067,164,90,7,22,21,27,5,3,1029,87,2,20141107190000
834,"Banking College, Zhengzhou",,34.800856,113.681126,164,89,3,19,19,13,5,3,1029,87,2,20141107190000
835,"Water Supply Company, Zhengzhou",,34.807188,113.571089,176,78,5,28,28,10,5,3,1029,87,2,20141107190000
836,"Economic Development Zone Management Committee, Zhengzhou",,34.717652,113.733182,165,66,3,13,16,16,5,3,1029,87,2,20141107190000
837,"No. 47 middle school, Zhengzhou",,34.772211,113.74009,170,66,5,23,14,13,5,3,1029,87,2,20141107190000
838,"City Monitoring Station, Zhengzhou",,34.748404,113.60514,164,65,29,31,11,36,5,3,1029,87,2,20141107190000
839,"Henan Medical University, Zhengzhou",,34.752637,113.641658,168,87,15,24,8,10,5,3,1029,87,2,20141107190000
840,"Gangli Reservoir, Zhengzhou",,34.952652,113.64248,164,78,4,15,11,14,5,3,1029,87,2,20141107190000
841,Zhengzhou,,34.745417,113.631415,168,87,15,24,8,10,-,-,0,-,-,20141107190000
842,"Henan University No.1 Hospital, Kaifeng",,34.799302,114.352706,159,94,3,22,10,11,5,3,1029,87,2,20141107190000
843,"Maternity And Child Hospital, Kaifeng",,34.795803,114.386103,177,86,10,28,12,12,5,3,1029,87,2,20141107190000
844,"Cancer Hospital, Kaifeng",,34.775428,114.350292,175,101,6,22,14,12,5,3,1029,87,1,20141107190000
845,"Yellow River Conservancy Institute, Kaifeng",,34.826066,114.324772,132,78,28,9,29,8,8,4,1029,76,2,20141107190000
846,"Shijixing Kindergarden, Kaifeng",,34.793606,114.302744,154,89,2,20,13,7,5,3,1029,87,2,20141107190000
847,Kaifeng,,34.796346,114.313426,159,94,3,22,10,11,5,3,1029,87,2,20141107190000
852,Jiaozuo,,35.215381,113.248188,142,78,6,31,42,12,5,3,1029,87,2,20141107190000
853,"Cotton Research Institute, Anyang",,36.081435,114.486451,119,69,3,23,25,7,8,-3,1030,35,2,20141107190000
854,"Hongmiao Street, Anyang",,36.086733,114.326,13,6,,,,,8,-3,1030,35,2,20141107190000
855,"Yinxing Compound, Anyang",,36.056519,114.36495,155,76,3,25,32,11,8,-3,1030,35,2,20141107190000
856,"Tiefo Temple, Anyang",,36.110041,114.309309,151,88,2,29,53,9,8,-3,1030,35,2,20141107190000
857,Anyang,,36.097767,114.398846,155,88,4,31,53,12,8,-3,1030,35,2,20141107190000
858,"City Monitoring Station, Luoyang",,34.669055,112.439633,179,71,6,28,24,24,7,,1029,79,3,20141107190000
859,"BDA Management Committee, Luoyang",,34.622084,112.390759,163,78,10,52,26,23,7,,1029,79,3,20141107190000
860,"New municipal office, Luoyang",,34.623745,112.432973,191,91,11,29,24,16,7,,1029,79,3,20141107190000
861,"City committee communist party school, Luoyang",,34.650169,112.400212,183,99,5,17,23,10,7,,1029,79,3,20141107190000
862,"Henan Forestry College, Luoyang",,34.685566,112.509429,180,96,8,28,37,24,7,,1029,79,3,20141107190000
863,"CITIC No.2 Elementary School, Luoyang",,34.668212,112.36907,181,83,5,24,25,18,7,,1029,79,3,20141107190000
864,"Yuxi Hotel, Luoyang",,34.685949,112.472611,185,114,4,16,27,21,7,,1029,79,3,20141107190000
865,Luoyang,,34.617424,112.46054,191,114,11,52,37,24,7,,1029,79,3,20141107190000
866,"City Planning Design Institute, Pingdingshan",,33.7352,113.297916,164,94,8,25,40,13,5,3,1029,87,2,20141107190000
867,"Xinhua Hotel, Pingdingshan",,33.737754,113.328814,165,94,8,28,21,15,5,3,1029,87,2,20141107190000
868,"Engineering College, Pingdingshan",,33.772474,113.188235,167,89,5,32,32,12,5,3,1029,87,2,20141107190000
869,"High Voltage Switchgear Factory, Pingdingshan",,33.719941,113.312665,167,92,7,27,41,14,5,3,1029,87,2,20141107190000
870,Pingdingshan,,33.764754,113.199082,167,94,8,32,41,15,5,3,1029,87,2,20141107190000
1303,"City Monitoring Station, Hebi",,35.748411,114.313927,158,90,14,26,41,17,6,,1036,72,2,20141107190000
1306,"BDA, Xuchang",,33.998574,113.802968,117,68,9,28,8,13,9,,1029,70,3,20141107190000
1307,"Monitoring station, Xuchang",,34.011362,113.838373,137,75,14,22,18,11,9,,1029,70,3,20141107190000
1308,"Environment protection office, Xuchang",,34.032831,113.827116,170,91,1,28,17,12,9,,1029,70,3,20141107190000
