locationid,stationname,chinesename,latitude,longitude,pm25,pm10,o3,no2,so2,co,temperature,dewpoint,pressure,humidity,wind,est_time
167,Panzhihua,,26.578779,101.720211,117,77,35,21,53,16,6,-1,0,50,1,20141228170000
1,Dongcheng Dongsi,,39.9304,116.423239,-,-,-,-,-,-,-,-,0,-,-,20141228170000
2,"Temple of Heaven, Dongcheng",,39.887403,116.41324,184,183,6,40,18,53,-4,-9,1022,69,1,20141228170000
3,West Park officials,,39.930333,116.345162,341,188,4,86,44,50,-3,-9,1023,64,1,20141228170000
4,West Wanshou Nishinomiya,,39.879354,116.358183,163,80,5,44,31,45,-4,-9,1022,69,1,20141228170000
5,Chaoyang Olympic Sports Center,,39.983406,116.403253,160,103,19,30,19,8,-8,-15,1029,58,1,20141228170000
6,Chaoyang Agricultural Exhibition Hall,,39.938331,116.46715,209,118,5,49,35,57,-4,-9,1022,69,1,20141228170000
7,Haidian Wanliu,,39.988245,116.293062,168,97,1,42,31,42,-4,-9,1022,69,1,20141228170000
8,The Haidian northern New Area,,40.091313,116.180194,152,59,2,28,24,66,-3,-9,1022,64,3,20141228170000
9,Haidian Beijing Botanical Garden,,40.003252,116.213097,291,-,6,71,27,36,-6,-9,1025,80,0,20141228170000
10,Fengtai garden,,39.86423,116.285037,379,326,1,90,37,60,-3,-9,1023,64,1,20141228170000
11,Fengtai Yungang,,39.82535,116.152237,200,110,11,42,26,28,8,-13,1017,22,7,20141228170000
12,Shijingshan city,,39.915286,116.190144,193,103,8,50,26,52,-5,-9,1024,74,1,20141228170000
13,"Fangshan, Liangxiang",,39.743357,116.14225,231,331,9,46,28,60,7,-12,1020,25,3,20141228170000
14,"Huangcunzhen, Daxing",,39.719389,116.410219,691,698,33,100,73,86,5,-11,1021,31,3,20141228170000
15,BDA,,39.796197,116.51197,385,440,3,69,52,63,-4,-9,1022,69,2,20141228170000
16,Tongzhou New Town,,39.887113,116.6689,153,87,14,35,26,14,6,-13,1018,25,5,20141228170000
17,Shunyi New Town ,,40.128111,116.660908,116,75,21,36,18,7,6,-13,1018,25,4,20141228170000
18,Changping Town,,40.218245,116.236084,128,79,22,38,20,8,3,-13,1017,30,1,20141228170000
19,"Mentougou, Longquan Town",,39.938397,116.112323,91,58,14,9,14,16,-4,-9,1022,69,1,20141228170000
20,Pinggu town,,40.144433,117.106563,49,58,10,5,5,45,7,-12,1020,25,3,20141228170000
21,Huairou town,,40.329104,116.63387,177,85,9,38,19,23,-4,-9,1022,69,1,20141228170000
22,The town of Miyun,,40.371186,116.838053,161,84,2,26,17,27,3,-9,1021,41,3,20141228170000
23,Yanqing town,,40.454217,115.978106,233,100,17,29,17,20,-6,-9,1025,80,0,20141228170000
24,Changping Dingling,,40.293269,116.226108,155,136,20,15,19,26,-3,-9,1023,64,3,20141228170000
25,Badaling Northwest,,40.36623,115.994146,104,88,25,12,24,20,7,-12,1020,25,3,20141228170000
26,Miyun Reservoir,,40.500157,116.91701,133,67,6,10,10,14,3,-9,1021,41,3,20141228170000
27,"Donggaocun Zhen, Pinggu",,40.10142,117.126556,139,58,4,77,15,28,3,-9,1021,41,3,20141228170000
28,"Yongledianzhen, Tongzhou",,39.713192,116.78905,313,163,8,61,27,13,3,-13,1017,30,1,20141228170000
29,"Yufazhen, Daxing",,39.521203,116.306026,471,170,3,65,32,43,4,-13,1018,28,1,20141228170000
30,"Liulihezhen, Fangshan",,39.581169,116.006089,570,-,4,53,35,145,3,-9,1021,41,3,20141228170000
31,"Qianmen E St, Dongcheng",,39.900402,116.401242,185,255,2,42,27,43,-4,-9,1022,69,1,20141228170000
32,Yongdingmen Inner St,,39.877401,116.400238,204,328,1,48,41,67,-4,-9,1022,69,2,20141228170000
33,Xizhimen N St,,39.955352,116.355187,387,244,8,67,61,24,-2,-11,1017,51,1,20141228170000
34,South Ring Road,,39.857377,116.37421,158,351,1,40,31,55,5,-11,1021,31,3,20141228170000
35,East Fourth Ring Road,,39.940273,116.489075,385,182,13,63,43,13,5,-9,1017,36,2,20141228170000
36,Beijing,,39.955906,116.474246,225,143,18,58,30,12,3,-13,1017,30,1,20141228170000
37,Putuo,,31.232979,121.415378,167,112,27,57,15,8,7,2,1021,71,1,20141228170000
38,Yangpu Sipiao,,31.263795,121.540311,59,28,38,18,5,5,6,1,1028,70,1,20141228170000
39,Shanghai Normal College Primary Division,,31.199031,121.487719,72,22,27,21,7,8,7,1,1029,66,1,20141228170000
40,Dianshan Lake,,31.091338,120.982293,173,77,26,48,19,9,10,1,1021,54,4,20141228170000
41,Hongkou Liangcheng,,31.298906,121.47155,179,94,30,42,21,9,11,2,1021,54,4,20141228170000
42,Jingan,,31.224251,121.429637,70,28,26,26,9,7,7,1,1029,66,1,20141228170000
43,Shanghai Normal University,,31.163531,121.416643,144,66,27,34,10,11,6,3,1026,81,0,20141228170000
44,Chuansha,,31.188626,121.707342,53,25,29,19,7,4,6,1,1028,70,1,20141228170000
45,Zhangjiang,,31.204896,121.581215,169,87,31,39,18,9,10,1,1021,54,4,20141228170000
46,Lingshan Road,,31.226286,121.537317,119,59,26,33,16,6,8,2,1026,66,1,20141228170000
1080,City average,,31.228451,121.478227,171,89,18,41,19,9,10,1,1021,54,4,20141228170000
47,Shanghai,,31.202842,121.453493,169,82,18,49,17,9,8,1,1021,62,2,20141228170000
48,Guangzhou,,23.138517,113.263701,139,56,11,13,6,16,12,6,1024,67,3,20141228170000
49,"Huadu town, Guangzhou",,23.389121,113.220062,114,46,27,20,11,17,12,11,1025,94,4,20141228170000
50,"Luogang Zhenlong, Guangzhou",,23.308027,113.567032,112,40,33,12,3,13,11,6,1024,71,4,20141228170000
51,"LuHu, Guangzhou",,23.151743,113.281842,91,34,17,15,6,13,13,8,1025,72,5,20141228170000
52,"Tianhu, Guangzhou",,23.647433,113.629715,99,35,28,7,3,11,11,10,1024,94,4,20141228170000
53,"Zhudong, Guangzhou",,23.418406,113.078552,167,89,46,20,26,12,17,12,1021,72,2,20141228170000
54,"Modiesha station, Guangzhou",,23.103814,113.338238,107,40,7,27,3,11,12,11,1025,94,4,20141228170000
55,Zhuhai,,22.2677,113.581765,142,64,23,16,7,14,13,8,1022,72,10,20141228170000
1075,"Huicai technical school, Foshan",,23.039667,113.105492,172,102,25,40,22,11,19,10,1018,56,5,20141228170000
56,"Sanshuiyun donghai, Foshan",,23.185788,112.865368,166,78,19,19,19,10,16,9,1022,63,3,20141228170000
57,"Nanhai Bureau of Meteorology, Foshan",,23.046836,113.145764,166,69,28,11,6,15,13,12,1021,94,2,20141228170000
58,"Sanshui Monitoring Station, Foshan",,23.163551,112.890843,107,53,19,25,9,10,13,12,1023,94,3,20141228170000
1087,Foshan,,23.018995,113.126899,147,52,18,14,6,17,12,11,1025,94,4,20141228170000
59,"Ronggui street committee, Shunde",,22.762729,113.258356,127,48,8,14,10,15,14,8,1024,67,5,20141228170000
60,Shunde,,22.80246,113.298701,102,40,14,26,5,13,-,-,0,-,-,20141228170000
61,"Donghu, Jiangmen",,22.590411,113.087351,112,45,28,24,7,10,16,14,1023,88,5,20141228170000
62,"Taoyuan Atmosphere Premier Station, Jiangmen",,22.72489,112.93404,171,100,7,39,15,12,17,15,1020,88,4,20141228170000
63,Jiangmen,,22.576047,113.087351,80,37,10,22,11,21,14,13,1022,94,8,20141228170000
64,"Kengkouzi station, Zhaoqing",,23.158865,112.570287,38,20,36,8,5,9,11,6,1024,71,4,20141228170000
65,"Mugangzi station, Zhaoqing",,23.067961,112.431934,30,21,27,15,4,10,14,12,1024,88,5,20141228170000
67,Zhaoqing,,23.044571,112.470346,21,10,22,6,4,12,11,9,1024,88,4,20141228170000
68,"Jinguo Bay, Huizhou",,22.937223,114.385567,147,64,18,13,4,10,15,13,1023,88,5,20141228170000
1091,"Xiabu, Huizhou",,23.077493,114.410275,46,24,30,17,3,11,14,13,1022,94,4,20141228170000
69,"Xijiao, Huizhou",,23.338178,114.112867,156,49,26,8,12,7,15,14,1021,94,3,20141228170000
70,"Jiangbei, Huizhou",,23.111706,114.415274,85,29,26,6,4,13,12,11,1023,94,4,20141228170000
71,"Huiyang chuanhu, Huizhou",,22.814485,114.329292,82,40,13,8,5,12,13,10,1025,82,5,20141228170000
72,"Daya bay management committee, Huizhou",,22.739283,114.53631,76,28,37,17,6,8,16,13,1022,82,3,20141228170000
73,Huizhou,,23.109349,114.421164,104,41,29,9,5,13,13,12,1023,94,5,20141228170000
74,"Guancheng No.2 water plant, Dongguan",,23.057294,113.753254,142,40,23,12,9,13,13,12,1023,94,5,20141228170000
75,"Dongcheng Shijing, Dongguan",,23.010039,113.799529,87,44,33,29,5,14,15,13,1022,88,4,20141228170000
76,"Nancheng Xiping, Dongguan",,22.963051,113.743494,117,58,27,25,5,12,14,13,1024,94,3,20141228170000
77,"Nancheng Yuanling, Dongguan",,23.025058,113.751308,152,73,42,17,7,11,15,12,1022,82,5,20141228170000
78,Dongguan,,23.017813,113.756958,112,56,32,14,5,10,11,6,1023,71,5,20141228170000
79,"Zimaling, Zhongshan",,22.505112,113.407183,119,52,17,4,9,15,14,8,1022,67,9,20141228170000
80,"Yangtze River tourist area, Zhongshan",,22.48589,113.439054,153,61,13,25,5,15,15,14,1020,94,7,20141228170000
81,"Huabai Park, Zhongshan",,22.51839,113.374362,104,45,11,10,8,14,15,9,1021,67,8,20141228170000
82,Zhongshan,,22.513997,113.398277,97,31,6,20,7,15,14,13,1022,94,7,20141228170000
83,"No.8 middle school, Shaoguan",,24.767777,113.583537,76,39,42,15,26,6,12,4,1025,49,2,20141228170000
83,"No.8 middle school, Shaoguan",,24.767777,113.583537,76,39,42,15,26,6,12,4,1025,49,2,20141228170000
84,"Forest area, Shaoguan",,24.796107,113.612131,85,45,45,15,16,7,12,4,1025,49,2,20141228170000
84,"Forest area, Shaoguan",,24.796106,113.612131,85,45,45,15,16,7,12,4,1025,49,2,20141228170000
86,"Shaoguan University, Shaoguan",,24.790864,113.646598,149,59,49,12,19,8,12,4,1025,49,2,20141228170000
86,"Shaoguan University, Shaoguan",,24.790864,113.646599,149,59,49,12,19,8,12,4,1025,49,2,20141228170000
88,"Qujiang Monitoring Station, Shaoguan",,24.683042,113.60157,25,15,22,22,25,12,9,6,1028,75,4,20141228170000
88,"Qujiang Monitoring Station, Shaoguan",,24.683042,113.60157,25,15,22,22,25,12,9,6,1028,75,4,20141228170000
89,Shaoguan,,24.807342,113.602712,72,31,30,13,10,9,9,2,1027,52,2,20141228170000
90,"Chaonanzi Station, Shantou",,23.251174,116.406606,99,39,25,12,4,10,14,14,1023,100,0,20141228170000
90,"Chaonanzi Station, Shantou",,23.251213,116.406762,99,39,25,12,4,10,14,14,1023,100,0,20141228170000
91,Shantou,,23.350642,116.686306,91,40,24,13,17,11,14,14,1022,100,1,20141228170000
92,"City Environmental Monitoring Station, Zhanjiang",,21.220431,110.397317,95,55,24,17,6,18,16,14,1020,85,6,20141228170000
93,"EPB Dormitory, Zhanjiang",,21.197376,110.406487,114,52,32,1,4,11,16,15,1019,88,6,20141228170000
94,"Xiashan Swimming Park, Zhanjiang",,21.200431,110.415655,89,40,33,12,11,18,16,15,1019,88,6,20141228170000
95,"Zhanjiang Theatre, Zhanjiang",,21.268177,110.366445,151,70,11,3,4,23,13,12,1023,91,5,20141228170000
96,"Mazhang EPA, Zhanjiang",,21.265486,110.335993,149,69,19,12,8,17,17,16,1018,90,3,20141228170000
97,"Potou District EPB, Zhanjiang",,21.247604,110.454508,122,52,36,19,4,18,16,15,1019,88,6,20141228170000
98,Zhanjiang,,21.26832,110.363883,162,67,30,8,8,22,16,9,1021,52,3,20141228170000
99,"Maogang sub-office EPB, Maoming",,21.466435,111.033462,46,10,21,3,2,7,15,13,0,87,4,20141228170000
100,"Petrochemical No. 7 elementaty school, Maoming",,21.648905,110.937861,159,54,23,12,12,10,17,14,0,84,4,20141228170000
101,"Jiankang road, Maoming",,21.662211,110.909482,159,78,21,12,14,11,17,14,0,84,4,20141228170000
102,"Gaoling, Maoming",,21.690558,110.871146,30,1,14,6,9,14,15,13,0,87,4,20141228170000
1094,Maoming,,21.660223,110.929968,46,17,16,6,5,17,15,13,0,87,4,20141228170000
103,"Jiaying University, Meizhou",,24.325415,116.12816,154,74,32,10,8,8,15,13,1024,88,3,20141228170000
104,"Mexian new town, Meizhou",,24.269283,116.084546,134,46,31,13,5,13,18,12,1020,68,4,20141228170000
105,"Environmental Monitoring Center, Meizhou",,24.262778,116.129621,149,58,27,16,10,9,15,13,1024,88,3,20141228170000
1095,Meizhou,,24.285988,116.127065,107,54,21,8,4,12,14,14,1022,100,1,20141228170000
106,"City EPA, Shanwei",,22.772349,115.370227,144,59,32,9,6,8,15,12,1021,79,1,20141228170000
107,"City government, Shanwei",,22.787161,115.375536,82,25,34,7,7,9,16,13,1023,81,2,20141228170000
108,"Xincheng Middle School, Shanwei",,22.789851,115.367124,76,22,29,6,4,8,16,13,1023,81,2,20141228170000
1099,Shanwei,,22.783576,115.38022,65,19,19,5,4,11,14,13,1022,95,1,20141228170000
109,"No.3 elementary school, Heyuan",,23.755946,114.699091,168,88,38,18,18,10,12,7,1023,59,2,20141228170000
109,"No.3 elementary school, Heyuan",,23.75435,114.703514,168,88,38,18,18,10,12,7,1023,59,2,20141228170000
111,"City water company, Heyuan",,23.754246,114.682459,180,82,47,14,6,11,12,10,1022,88,1,20141228170000
251,"Dayu, Benxi",,41.308091,123.818442,74,36,33,23,55,19,0,-12,1017,41,1,20141228170000
111,"City water company, Heyuan",,23.688709,114.954652,180,82,47,14,6,11,12,10,1022,88,1,20141228170000
113,"Heyuan high school, Heyuan",,23.720037,114.699563,99,40,46,13,5,11,11,10,1024,93,2,20141228170000
113,"Heyuan high school, Heyuan",,23.720666,114.693879,99,40,46,13,5,11,11,10,1024,93,2,20141228170000
115,Heyuan,,23.740888,114.705147,144,46,23,9,5,12,11,9,1025,83,1,20141228170000
116,"Yuanyang Lake, Yangjiang",,21.855869,111.983676,74,35,19,20,1,12,13,13,1023,99,3,20141228170000
1100,Yangjiang,,21.855227,111.987308,74,35,19,20,1,12,13,13,1023,99,3,20141228170000
118,"Town governement, Qingyuan",,23.708005,113.026215,34,11,30,15,5,16,13,12,1023,94,3,20141228170000
119,"Fupin district, Qingyuan",,23.624781,113.067713,57,14,20,12,5,16,11,10,1024,94,4,20141228170000
121,"Environment protection office, Qingyuan",,23.691109,113.047948,30,18,25,14,5,15,12,11,1025,94,4,20141228170000
121,"Environment protection office, Qingyuan",,23.685931,113.053239,30,18,25,14,5,15,12,11,1025,94,4,20141228170000
123,"Fengcheng Subdistrict, Qingyuan",,23.695447,113.068189,34,12,36,16,5,13,14,12,1024,88,4,20141228170000
124,Qingyuan,,23.679304,113.061513,25,24,20,9,7,13,13,8,1025,72,6,20141228170000
125,"Xiyuan Road, Chaozhou",,23.668654,116.638272,169,99,42,14,4,11,15,13,1024,88,3,20141228170000
126,"Archives Bureau, Chaozhou",,23.667881,116.649104,139,58,42,17,5,11,15,13,1024,88,3,20141228170000
127,"Municipal Corporation, Chaozhou",,23.65035,116.621859,93,49,23,15,4,15,14,14,1023,100,0,20141228170000
1101,Chaozhou,,23.654204,116.626969,99,38,23,14,5,15,14,14,1023,100,0,20141228170000
128,"Donghu Park, Jieyang",,23.532877,116.374427,91,29,29,9,8,8,14,14,1022,100,1,20141228170000
129,"Yuhu Middle School, Jieyang",,23.52682,116.414123,97,20,35,20,10,4,16,14,1022,88,3,20141228170000
130,"Experimental Primary School, Jieyang",,23.571473,116.364137,91,44,13,13,13,11,14,12,1024,88,2,20141228170000
1102,Jieyang,,23.547596,116.37754,89,35,29,8,3,10,14,12,1024,88,2,20141228170000
131,"City Environmental Monitoring Station, Yunfu",,22.936779,112.042248,167,73,29,13,14,13,16,9,1022,63,3,20141228170000
132,"The new city government headquarters, Yunfu",,22.914275,112.044475,82,67,30,16,9,10,16,9,1022,63,3,20141228170000
133,"Muyang police sub-station, Yunfu",,22.951267,112.05923,59,62,31,17,11,12,16,10,1022,68,1,20141228170000
1103,Yunfu,,22.912436,112.049811,50,40,20,10,6,11,10,6,1024,76,3,20141228170000
134,Yantian,,22.587949,114.266899,139,67,19,12,7,14,12,6,1023,67,6,20141228170000
135,Kwai Chung,,22.354168,114.134558,142,49,27,16,2,16,15,9,1021,67,6,20141228170000
135,Kwai Chung,,22.572837,113.867166,142,49,27,16,2,16,15,9,1021,67,6,20141228170000
137,Nanyou,,22.513802,113.928051,124,47,29,14,4,10,11,6,1023,71,6,20141228170000
138,Meisha,,22.59611,114.318345,114,17,31,10,2,13,16,13,1021,82,5,20141228170000
139,Xi xiang,,22.717524,114.252304,158,60,26,17,3,10,15,13,1023,88,5,20141228170000
140,Liyuan,,22.54732,114.101205,95,34,30,23,5,12,16,13,1022,82,3,20141228170000
1072,Kwai Chung,,22.627947,114.428875,97,45,36,13,2,11,16,13,1022,82,3,20141228170000
1072,Kwai Chung,,22.354168,114.134558,97,45,36,13,2,11,16,13,1022,82,3,20141228170000
141,OCT,,22.539549,113.992458,97,43,6,14,2,19,13,10,1025,82,5,20141228170000
142,Honghu,,22.559647,114.121976,139,44,14,21,2,13,13,10,1025,82,5,20141228170000
143,Mission Hills,,22.694131,114.050496,112,42,23,7,9,12,13,10,1024,82,5,20141228170000
144,Shenzhen,,22.540382,114.062982,134,57,34,28,8,18,-,-,0,-,-,20141228170000
145,Chengdu,,30.622581,104.069564,191,115,28,38,8,20,7,4,1033,81,0,20141228170000
146,"Jinquan lianghe, Chengdu",,30.710359,103.974209,152,70,29,38,9,21,12,2,1031,51,2,20141228170000
147,"Shilidian, Chengdu",,30.684718,104.17845,161,88,21,22,14,11,12,2,1031,51,2,20141228170000
148,"Sanwayao, Chengdu",,30.568159,104.081524,178,110,25,12,10,16,4,3,1032,93,1,20141228170000
149,"Shahepu, Chengdu",,30.633685,104.120536,216,137,14,24,9,13,8,5,1024,81,0,20141228170000
150,"Liang Lane, Chengdu",,30.682601,104.076522,186,98,8,37,14,5,10,5,1030,71,2,20141228170000
151,"Caotang Temple, Chengdu",,30.651891,104.0284,127,62,29,21,8,19,12,2,1031,51,2,20141228170000
152,"Lingyansi, Chengdu",,31.025729,103.615022,102,57,39,12,5,6,15,-1,1026,34,2,20141228170000
153,"Fuleshan, Mianyang",,31.472493,104.7806,117,45,30,9,6,8,7,6,1025,85,0,20141228170000
154,"High-tech Zone Water Company, Mianyang",,31.463309,104.674293,129,44,18,17,4,8,7,6,1025,85,0,20141228170000
155,"No.3 water company, Mianyang",,31.505002,104.731054,-,-,-,-,-,-,-,-,0,-,-,20141228170000
156,Mianyang,,31.465174,104.681731,177,95,25,14,6,16,5,4,1033,83,0,20141228170000
157,"Dongshan Park, Deyang",,31.118648,104.424587,159,61,8,37,6,13,4,2,1032,87,0,20141228170000
158,"Xixiaoqu, Deyang",,31.131159,104.390972,163,59,6,33,22,17,9,5,1031,76,2,20141228170000
159,"City Procuratorate, Deyang",,31.114554,104.407986,157,65,56,36,8,11,10,2,1024,58,2,20141228170000
160,"Refractory Factory, Deyang",,31.108606,104.356506,93,49,23,14,9,11,15,-1,1026,34,2,20141228170000
161,Deyang,,31.124715,104.400703,153,59,25,46,6,17,6,1,1027,70,0,20141228170000
162,"Nongnongping, Panzhihua",,26.566698,101.695438,137,69,28,14,53,35,10,3,0,51,2,20141228170000
163,"Hemenkou, Panzhihua",,26.589072,101.578312,171,110,32,16,43,16,1,-1,0,83,0,20141228170000
164,"Bingcaogang, Panzhihua",,26.58143,101.718473,172,108,25,39,58,19,1,-1,0,83,0,20141228170000
165,"Renhe, Panzhihua",,26.498166,101.746887,152,94,31,22,21,14,1,-1,0,83,0,20141228170000
166,"Jinjina, Panzhihua",,26.553226,101.84862,68,49,17,12,20,8,15,0,0,24,3,20141228170000
168,"Shima Middle School, Yibin",,28.815979,104.599199,162,68,13,17,7,12,9,7,1034,87,1,20141228170000
169,"Municipal party committee, Yibin",,28.762654,104.624834,253,129,24,21,24,15,8,6,1024,82,0,20141228170000
170,"No. 4 middle school, Yibin",,28.783257,104.608407,300,156,33,22,17,12,8,6,1024,82,0,20141228170000
171,"City government, Yibin",,28.760477,104.644079,227,137,39,28,16,13,8,6,1024,81,0,20141228170000
172,"Huangjinzui, Yibin",,28.712319,104.578389,274,157,46,25,27,13,8,6,1024,82,0,20141228170000
173,"Shaping Middle School, Yibin",,28.795569,104.681393,241,121,8,22,9,14,9,7,1030,90,1,20141228170000
174,Yibin,,28.748384,104.645766,169,34,14,15,12,17,8,6,1033,79,1,20141228170000
175,"Datang Hill, Zigong",,29.359969,104.757388,203,167,40,12,55,21,9,2,0,62,1,20141228170000
176,"Yanma Road, Zigong",,29.355752,104.724036,255,141,28,17,6,13,9,6,0,77,1,20141228170000
177,"Tanmulin Street, Zigong",,29.353555,104.777397,164,73,21,18,11,8,10,5,0,66,1,20141228170000
178,"Chunhua Road, Zigong",,29.33825,104.771895,162,81,34,10,15,18,7,3,0,78,2,20141228170000
179,Zigong,,29.33617,104.781138,220,125,45,15,9,23,6,3,0,79,2,20141228170000
180,"Jiushi Hill, Luzhou",,28.955347,105.434207,195,110,45,18,13,9,9,6,0,78,1,20141228170000
181,"Xiaoshishang Port, Luzhou",,28.899583,105.447192,189,121,34,21,13,12,9,6,0,78,1,20141228170000
182,"Lantianxian Bridge, Luzhou",,28.852766,105.4358,181,123,32,25,17,7,9,6,0,78,1,20141228170000
183,"City Environment Monitoring Station, Luzhou",,28.895898,105.435802,192,111,3,21,27,5,10,4,1001,65,1,20141228170000
184,Luzhou,,28.868782,105.445938,184,96,14,19,23,12,6,4,0,87,1,20141228170000
185,"City Committee, Nanchong",,30.799993,106.082906,173,88,31,12,12,10,8,8,1024,98,1,20141228170000
186,"Refinery Factory, Nanchong",,30.819412,106.10712,267,173,9,26,12,9,8,7,1031,94,1,20141228170000
187,"Gaoping District Monitoring Station, Nanchong",,30.783291,106.110417,208,121,8,19,10,13,8,8,1026,100,2,20141228170000
188,"Jialing District EPB, Nanchong",,30.761255,106.06818,175,89,18,26,5,12,8,8,1024,98,1,20141228170000
189,"City Environmental Monitoring Station, Nanchong",,30.836519,106.11272,193,99,7,16,18,14,6,6,1033,100,1,20141228170000
190,Nanchong,,30.835511,106.114717,270,181,40,50,11,13,9,7,1030,85,1,20141228170000
1249,"City Monitoring Station, Neijiang",,29.592673,105.036234,230,132,3,26,25,7,9,6,0,77,1,20141228170000
1250,"Dongxing District Government , Neijiang",,29.592148,105.074966,192,101,8,29,11,3,9,4,0,72,1,20141228170000
1251,"No 2 middle school, Neijiang",,29.579135,105.068548,264,141,11,18,13,11,10,6,0,73,1,20141228170000
1252,Neijiang,,29.577653,105.06166,208,115,24,12,18,12,8,2,0,65,1,20141228170000
1253,"City Monitoring Station, Suining",,30.517431,105.564623,180,112,6,16,2,7,9,5,0,72,2,20141228170000
1254,"Administrative center , Suining",,30.530907,105.593309,173,93,12,32,10,8,10,2,0,56,1,20141228170000
1255,Suining,,30.530053,105.596307,169,93,13,19,10,10,8,4,0,73,1,20141228170000
1256,"City Monitoring Station, Leshan",,29.560651,103.759211,221,121,10,20,14,8,9,4,0,71,2,20141228170000
1257,"Leshan Giant Buddha Scenic Area , Leshan",,29.543938,103.772706,97,55,2,12,3,14,6,-2,0,49,2,20141228170000
1258,Leshan,,29.54935,103.767777,170,97,31,37,23,12,7,-1,0,51,1,20141228170000
1259,"Heilongtan , Meishan",,30.047726,103.900649,197,121,17,11,3,8,8,5,1024,81,0,20141228170000
1260,"Bureau of Meteorology, Meishan",,30.084591,103.843715,198,116,3,25,13,10,8,5,1024,81,0,20141228170000
1261,"Xuguang Community , Meishan",,30.066277,103.8516,195,129,3,30,13,15,8,5,1024,81,0,20141228170000
1262,"City Monitoring Station, Meishan",,30.059205,103.836229,185,105,12,35,15,11,7,3,1032,76,0,20141228170000
1263,Meishan,,30.072618,103.85064,174,85,39,20,8,12,6,1,1027,70,0,20141228170000
1264,"Ziyang middle school, Ziyang",,30.147763,104.638024,197,120,11,6,34,9,10,6,0,73,1,20141228170000
1265,Ziyang,,30.126054,104.63004,192,118,9,10,27,20,7,3,0,78,2,20141228170000
1377,"Dazhou Technical College, Dazhou",,31.277414,107.531672,166,78,4,20,8,7,7,,1024,88,3,20141228170000
1378,"City Environmental Monitoring Station, Dazhou",,31.212692,107.529474,162,73,4,24,6,6,7,,1024,88,3,20141228170000
1379,"Civic Center, Dazhou",,31.203669,107.465774,159,60,7,23,6,9,7,,1025,92,1,20141228170000
191,Shenyang US Consulate,,41.785668,123.432865,179,84,,17,33,,-3,-7,1021,74,2,20141228170000
192,"Huishan, Shenyang",,41.835421,123.647773,163,73,29,16,24,10,2,-7,1024,52,2,20141228170000
193,"Hunnan, Shenyang",,41.758263,123.540809,304,192,25,29,52,17,-5,-6,1020,93,2,20141228170000
194,"Zhangshi, Shenyang",,41.771679,123.289859,188,115,11,33,73,22,-13,-16,1033,79,3,20141228170000
195,"Artillery College, Shenyang",,41.835749,123.547799,169,158,14,33,69,35,-9,-13,1032,73,3,20141228170000
196,"Beiling, Shenyang",,41.849633,123.434146,172,85,6,38,68,12,-2,-7,1023,69,3,20141228170000
197,"Wenyi Road, Shenyang",,41.767444,123.416144,157,70,19,42,37,10,-6,-13,1016,58,3,20141228170000
198,"Xiaoheyan, Shenyang",,41.779828,123.484015,165,85,15,48,77,15,-4,-11,1017,59,1,20141228170000
199,"Taiyuan Street, Shenyang",,41.799646,123.406146,243,163,8,39,86,14,-4,-5,1020,93,2,20141228170000
200,"Ermao, Shenyang",,41.783011,123.366679,291,177,23,51,130,25,-9,-13,1032,73,3,20141228170000
201,"Liaoning University, Shenyang",,41.830704,123.361071,215,100,16,27,38,14,-4,-5,1020,93,2,20141228170000
202,Shenyang,,41.808126,123.437611,215,142,8,37,78,12,-2,-5,1020,80,2,20141228170000
1104,"wenhua street, Shenyang , Shenyang",,41.774139,123.441839,266,161,10,33,61,16,-5,-6,1020,93,2,20141228170000
1105,"Tanglin Road , Shenyang , Shenyang",,41.823665,123.562317,137,88,5,25,51,13,-2,-6,1020,74,2,20141228170000
203,"Ganjingzi, Dalian",,38.9747,121.616893,199,128,7,41,47,14,1,-3,1024,75,2,20141228170000
204,"Zhoushuizi, Dalian",,38.951928,121.569981,429,417,11,35,55,28,3,0,1017,81,3,20141228170000
205,"Xinghai No 3 station, Dalian",,38.885779,121.568864,247,149,17,14,62,15,0,-2,1022,87,2,20141228170000
206,"Qingniwa Bridge, Dalian",,38.91274,121.638018,347,226,19,30,52,22,6,0,1016,66,3,20141228170000
207,"Fujiazhuang, Dalian",,38.864647,121.629947,337,282,6,91,40,18,6,0,1016,66,3,20141228170000
208,"Qixianling, Dalian",,38.856978,121.523169,237,142,26,77,50,14,-1,-3,1021,86,0,20141228170000
209,"Lushun, Dalian",,38.808946,121.264063,193,115,10,28,46,12,3,-5,1026,56,4,20141228170000
210,"Jinzhou, Dalian",,39.132192,121.753259,526,566,5,41,28,35,0,-1,1017,93,2,20141228170000
211,"BDA, Dalian",,39.05213,121.782022,520,579,13,105,58,35,5,1,1016,76,3,20141228170000
212,"D&D Port, Dalian",,39.064087,121.981874,263,146,8,22,55,14,-1,-2,1021,93,1,20141228170000
213,Dalian,,38.91478,121.619625,377,299,11,33,55,26,1,0,1017,93,1,20141228170000
214,"Bearing Factory, Dandong",,40.068929,124.345703,359,345,11,27,52,42,-4,-6,1018,89,0,20141228170000
215,"Financial school, Dandong",,40.158723,124.432593,277,173,9,31,43,28,-4,-6,1018,89,0,20141228170000
216,"Yuanbaoshan water, Dandong",,40.149431,124.391698,165,40,23,12,32,11,-4,-15,1032,28,4,20141228170000
217,"Experimental Primary School, Dandong",,39.887343,124.158056,249,172,20,38,90,23,-4,-6,1022,78,1,20141228170000
218,Dandong,,40.002046,124.360479,418,498,4,42,58,33,-2,-4,1018,78,1,20141228170000
1106,"minzhu bridge, Dandong , Dandong",,40.112974,124.373604,139,62,10,11,21,10,-1,-9,1029,39,2,20141228170000
1107,"yuanbaoshan, Dandong , Dandong",,40.146298,124.399081,80,74,11,6,18,16,-2,-14,1031,27,5,20141228170000
1108,"linjiang houjie, Dandong , Dandong",,40.152757,124.431745,132,56,4,11,24,13,-4,-11,1031,43,2,20141228170000
219,"BDA, Panjin",,41.157144,122.06645,78,35,14,4,19,15,-3,-15,0,39,3,20141228170000
220,"Xinglongtai, Panjin",,41.140948,122.111343,369,165,8,42,32,43,0,-16,0,25,1,20141228170000
221,"Dingxiang, Panjin",,41.16139,121.928781,169,111,31,24,16,15,0,-11,0,40,3,20141228170000
222,Panjin,,41.122089,122.076206,204,120,9,36,22,28,-2,-12,0,48,2,20141228170000
223,"No.3 water company, Yingkou",,40.682052,122.385352,178,96,28,44,56,9,3,-2,1026,55,8,20141228170000
224,"Yingkou University, Yingkou",,40.683689,122.388285,163,75,34,19,29,15,-6,-12,1033,47,3,20141228170000
225,"Botanical garden, Yingkou",,40.711674,122.281568,164,76,22,29,52,9,3,-2,1026,55,8,20141228170000
226,Yingkou,,40.668578,122.24059,212,125,26,35,35,15,1,-3,1023,67,4,20141228170000
1109,"jinghu west street, Yingkou , Yingkou",,40.653831,122.221943,609,739,10,57,29,53,-4,-4,1017,97,1,20141228170000
1110,"Daqing Road , Yingkou , Yingkou",,40.709181,122.28243,149,76,4,26,53,31,-6,-12,1033,47,3,20141228170000
227,"Xishanpo, Huludao",,40.724078,120.921974,336,421,20,36,100,17,,,0,,,20141228170000
228,"Huagong hospital, Huludao",,40.755662,120.848435,201,174,21,32,72,30,,,0,,,20141228170000
229,"New district park, Huludao",,40.723415,120.853801,154,82,20,21,34,16,,,0,,,20141228170000
230,"Lianshan district governement, Huludao",,40.775488,120.872292,280,220,23,37,66,15,,,0,,,20141228170000
231,Huludao,,40.712501,120.842107,269,243,3,43,49,58,,,0,,,20141228170000
1111,"Dongcheng District , Huludao , Huludao",,40.775362,120.871706,183,131,2,25,53,39,,,0,,,20141228170000
1112,"huagong street, Huludao , Huludao",,40.758901,120.842935,201,174,4,32,72,30,,,0,,,20141228170000
232,Anshan,,41.110466,123.000147,180,105,21,37,47,34,-9,-15,1016,62,2,20141228170000
233,"Qianshan Park, Anshan",,41.033486,123.143897,76,35,21,9,8,12,-9,-13,1032,73,3,20141228170000
234,"Tiexi, Anshan",,41.121636,122.97506,260,185,17,31,56,18,-15,-18,1032,78,0,20141228170000
235,"Taiping Station, Anshan",,41.153322,123.052433,142,61,16,14,52,14,-9,-13,1032,73,3,20141228170000
236,"Central Station, Anshan",,41.106731,123.002736,134,61,18,18,45,15,-9,-13,1032,73,3,20141228170000
237,"Shengou Temple, Anshan",,41.137157,123.031901,57,28,23,8,35,13,0,-14,1030,35,2,20141228170000
1113,"Qianshan , Anshan , Anshan",,41.014521,123.122538,119,53,15,23,51,7,-5,-12,1031,59,3,20141228170000
1114,"Tiexi Sandao jie, Anshan",,41.103264,122.978613,222,159,7,30,57,21,-16,-18,1033,85,1,20141228170000
1115,"Taiyang, Anshan",,41.094946,123.019037,320,193,5,42,58,25,-4,-5,1020,93,2,20141228170000
238,Fushun,,41.883028,123.962984,243,179,14,48,50,28,-7,-13,1017,63,3,20141228170000
239,"Shenfu new town, Fushun",,41.804638,123.631684,251,151,15,38,75,29,-9,-13,1032,73,3,20141228170000
240,"Reservoir, Fushun",,41.8464,123.802857,153,80,22,32,29,25,-15,-18,1032,78,0,20141228170000
241,"Train Station, Fushun",,41.89726,124.017604,175,81,16,30,48,19,-3,-4,1020,93,3,20141228170000
242,"Dongzhou, Fushun",,41.855578,124.044738,158,80,16,14,29,13,-9,-13,1032,73,3,20141228170000
243,"Xinhua, Fushun",,41.888598,123.932932,152,84,14,38,42,15,1,-14,1030,32,2,20141228170000
244,"Wanghua, Fushun",,41.888825,123.093723,184,104,12,31,51,16,-9,-13,1032,73,3,20141228170000
1367,"Dongzhou district, Fushun , Fushun",,41.864885,124.044353,158,80,5,14,29,13,-9,-13,1032,73,3,20141228170000
1368,"Wanghua district, Fushun , Fushun",,41.849112,123.815882,184,104,2,31,51,16,-9,-13,1032,73,3,20141228170000
245,Benxi,,41.296267,123.772371,139,70,40,44,30,43,-2,-10,1017,55,2,20141228170000
246,"Weining, Benxi",,41.349663,123.826071,185,57,38,42,4,4,-9,-13,1032,73,3,20141228170000
247,"Occupational disease hospital, Benxi",,41.305432,123.74645,99,43,15,9,22,24,2,-6,1025,56,3,20141228170000
248,"Dongming, Benxi",,41.292369,123.765058,152,50,13,31,25,34,-3,-8,1024,69,2,20141228170000
249,"Caitun, Benxi",,41.301591,123.746039,80,37,12,10,19,44,0,-12,1017,41,1,20141228170000
250,"Xihu, Benxi",,41.331332,123.773537,186,134,21,8,86,47,-9,-13,1032,73,3,20141228170000
1116,"Xinlitun , Benxi , Benxi",,41.264104,123.811523,200,113,2,30,57,32,-9,-13,1032,73,3,20141228170000
252,Jinzhou,,41.097169,121.132647,286,161,14,61,84,24,-1,-12,1017,32,2,20141228170000
253,"Beihu Park, Jinzhou",,41.141447,121.137339,17,5,19,8,57,8,4,-15,1031,12,6,20141228170000
254,"Monitoring station, Jinzhou",,41.113441,121.140911,206,158,15,57,143,35,-1,-9,1027,38,1,20141228170000
1369,"Baigu Water Plant, Jinzhou",,41.123847,121.206296,168,83,33,18,29,21,-8,-16,1033,38,1,20141228170000
255,"Nanshan, Jinzhou",,41.570689,122.046753,426,370,12,54,72,46,2,-8,1024,34,0,20141228170000
1118,"BDA, Jinzhou",,40.853915,121.061756,212,194,6,51,72,66,-5,-8,1022,71,2,20141228170000
1119,"tianan street, Jinzhou , Jinzhou",,41.124468,121.126119,170,97,5,33,63,13,-8,-16,1033,38,1,20141228170000
1120,"baigu street, Jinzhou, Jinzhou",,41.12214,121.21027,172,122,9,24,53,20,-8,-16,1033,38,1,20141228170000
1121,Chaoyang,,41.576022,120.456053,340,82,9,24,66,40,-,-,0,-,-,20141228170000
1122,"Agricultural Area, Chaoyang",,43.93968,125.247371,169,82,6,10,19,50,-1,-12,1027,29,4,20141228170000
1123,Tieling,,42.225197,123.732174,238,164,24,42,78,13,-,-,0,-,-,20141228170000
260,"Waterpark, Tieling",,42.297031,123.880748,252,139,6,24,58,12,-5,-6,1020,93,2,20141228170000
1124,"Huigong Street West , Tieling , Tieling",,42.311115,123.845614,171,110,2,30,67,15,-9,-13,1032,73,3,20141228170000
1125,Liaoyang,,41.269312,123.24268,178,87,14,27,26,21,-,-,0,-,-,20141228170000
1126,"Riverside Road , Liaoyang , Liaoyang",,41.176884,123.419859,144,66,18,14,30,21,2,-6,1025,56,3,20141228170000
1127,Fuxin,,42.02373,121.675733,165,153,5,31,88,37,-,-,0,-,-,20141228170000
266,"Agricultural Area, Fuxin",,42.071291,121.696445,173,126,4,22,68,22,-1,-15,0,35,3,20141228170000
267,"Industrial Area, Fuxin",,42.041052,121.715554,454,497,7,39,87,35,-4,-16,0,39,2,20141228170000
1128,"Yulong Metro , Fuxin , Fuxin",,42.035091,121.666531,177,412,2,22,75,31,0,-15,0,29,1,20141228170000
1129,"Dongyuan , Fuxin , Fuxin",,42.029119,121.681553,203,256,8,46,104,42,0,-15,0,29,1,20141228170000
268,"City Monitoring Station, Jinan",,36.662614,117.054645,181,101,29,10,22,3,4,-5,1027,41,2,20141228170000
269,"Shandong Institute of Economics, Jinan",,36.63819,117.074975,163,79,11,41,51,10,6,-12,1033,15,1,20141228170000
270,"Quancheng Plaza, Jinan",,36.661711,117.027043,165,91,15,25,43,12,6,-6,1029,28,3,20141228170000
271,"Kegansuo, Jinan",,36.611582,116.99384,181,109,32,15,31,0,3,-5,1023,40,4,20141228170000
272,"Agriculture Science Institute, Jinan",,36.663115,116.95063,178,162,25,38,55,25,-2,-11,1033,39,2,20141228170000
273,"Lanxiang technical school, Jinan",,36.700421,116.95342,274,197,5,54,62,17,6,-7,1020,27,2,20141228170000
274,"Chemical factory, Jinan",,36.687463,116.994406,190,169,8,59,62,35,-2,-11,1033,39,2,20141228170000
275,"Provincial Seed Warehouse, Jinan",,36.685706,117.066348,173,120,18,24,55,13,6,-6,1029,28,3,20141228170000
276,"Shandong Architecture University, Jinan",,36.681732,117.191868,155,74,24,13,32,10,5,-6,1028,32,3,20141228170000
277,"Baosheng cable company, Jinan",,36.724638,117.130855,185,145,5,5,53,27,6,-12,1031,14,3,20141228170000
278,"Paomaling, Jinan",,36.47869,117.219027,194,93,23,19,53,13,6,-5,1032,34,2,20141228170000
279,"Changqing District Communist Party School, Jinan",,36.548797,116.770859,-,-,-,-,-,-,-,-,0,-,-,20141228170000
280,"BDA, Jinan",,36.685835,117.130851,194,130,19,42,39,18,2,-7,1021,38,2,20141228170000
281,Jinan,,36.651426,117.126625,227,147,28,46,67,6,8,-9,1019,16,3,20141228170000
282,"Shinan district No. 1, Qingdao",,36.065534,120.40839,-,-,-,-,-,-,-,-,0,-,-,20141228170000
283,"Shibei district No. 1, Qingdao",,36.069919,120.341264,-,-,-,-,-,-,-,-,0,-,-,20141228170000
284,"Shibei district No. 2, Qingdao",,36.104146,120.36637,114,46,19,26,20,6,3,-3,1028,65,2,20141228170000
285,"Huangdao District No. 1, Qingdao",,35.958935,120.191041,-,-,-,-,-,-,-,-,0,-,-,20141228170000
286,"Huangdao District No. 2, Qingdao",,35.970487,120.160339,153,73,6,26,8,16,2,-6,1032,56,2,20141228170000
287,"Laoshan District No. 1, Qingdao",,36.085881,120.451839,-,-,-,-,-,-,-,-,0,-,-,20141228170000
288,"Laoshan District No. 2, Qingdao",,36.091075,120.490388,53,1,35,7,10,6,3,-3,1028,65,2,20141228170000
289,"Licang District No. 1, Qingdao",,36.184872,120.38533,187,134,26,44,22,34,7,-4,1018,46,2,20141228170000
290,"Licang District No. 2, Qingdao",,36.154369,120.432287,147,51,14,22,10,3,3,-3,1028,65,2,20141228170000
291,"Chengyang District No. 1, Qingdao",,36.308502,120.40008,-,-,-,-,-,-,-,-,0,-,-,20141228170000
292,"Chengyang District No. 2, Qingdao",,36.308429,120.465806,-,-,-,-,-,-,-,-,0,-,-,20141228170000
293,Qingdao,,36.067358,120.387773,-,-,-,-,-,-,-,-,0,-,-,20141228170000
294,"Zichuan Meteo. Stations, Zibo",,36.637916,117.960222,68,69,32,13,13,12,11,3,0,55,4,20141228170000
295,"Dongfeng Chemical factory, Zibo",,36.838576,118.050785,289,198,16,45,70,31,6,-6,0,37,2,20141228170000
296,"Boshan shuangshan, Zibo",,36.497278,117.853581,-,-,-,-,-,-,-,-,0,-,-,20141228170000
297,"Linzi Putian Park, Zibo",,36.820171,118.315022,183,140,18,32,54,19,0,-5,0,60,2,20141228170000
298,"Qilu Petrochemical, Zibo",,36.765907,118.254967,206,162,2,36,52,43,6,-7,0,39,2,20141228170000
299,"Zhoucun sanjin Group, Zibo",,36.8044,117.85694,380,411,18,62,71,24,6,-5,0,41,4,20141228170000
300,"Vocational College, Zibo",,36.825208,117.926305,-,-,-,-,-,-,-,-,0,-,-,20141228170000
301,"BDA, Zibo",,36.905214,118.021824,-,-,-,-,-,-,-,-,0,-,-,20141228170000
302,Zibo,,36.813618,118.060948,341,182,114,63,63,31,2,-5,0,57,3,20141228170000
303,"Shizhong District Government, Zaozhuang",,34.850397,117.569545,167,98,29,20,33,10,8,-2,1030,35,2,20141228170000
304,"Sewage treatment plant, Zaozhuang",,34.818951,117.595345,319,350,5,29,41,51,-3,-7,1034,69,1,20141228170000
305,"Xuecheng EPA, Zaozhuang",,34.790214,117.272455,184,115,23,25,54,10,-3,-7,1034,69,1,20141228170000
306,"Yicheng District government, Zaozhuang",,34.772806,117.57647,244,180,31,41,50,11,-3,-7,1034,69,1,20141228170000
307,"Taierzhuang EPA, Zaozhuang",,34.579462,117.741067,269,199,24,63,52,18,-3,-7,1034,69,1,20141228170000
308,"Shanting EPA, Zaozhuang",,35.070373,117.457691,395,415,33,99,58,12,8,-4,1020,30,1,20141228170000
309,"City EPA, Zaozhuang",,34.809466,117.320608,190,116,13,31,56,6,1,-7,1033,38,0,20141228170000
310,"High-tech zone, Zaozhuang",,34.821779,117.363495,153,67,31,10,24,11,6,-2,1029,46,0,20141228170000
311,Zaozhuang,,34.809693,117.329634,308,340,25,35,75,9,8,-4,1020,30,1,20141228170000
312,"City EPA, Dongying",,37.432052,118.672871,149,62,24,27,14,17,1,-4,0,64,0,20141228170000
313,"Vocational College, Dongying",,37.438653,118.630567,239,168,11,44,74,25,3,-5,0,51,4,20141228170000
314,"Xianhe Oil Production Plant, Dongying",,37.442419,118.510222,422,442,5,45,59,31,3,-3,0,60,4,20141228170000
315,"Gengjin village, Dongying",,37.445072,118.55839,206,121,26,33,47,14,3,-5,0,51,3,20141228170000
316,"City environmental company, Dongying",,37.466599,118.508012,163,80,21,19,53,17,4,-6,0,45,2,20141228170000
317,"Hekou  district, Dongying",,37.883786,118.522171,175,88,11,27,56,10,3,-5,0,51,3,20141228170000
318,"BDA, Dongying",,37.435162,118.701827,256,168,12,41,75,31,4,-5,0,48,4,20141228170000
319,Dongying,,37.435429,118.680434,352,286,16,54,63,15,4,-3,0,59,4,20141228170000
320,"Bearing Factory, Yantai",,37.544126,121.376956,277,139,12,38,60,5,,,0,,,20141228170000
321,"Xijiao Chemical Station, Yantai",,37.547148,121.323695,159,53,26,23,43,10,,,0,,,20141228170000
322,"Fushan Monitoring Stations, Yantai",,37.472245,121.260116,167,75,2,31,32,15,,,0,,,20141228170000
323,"Mouping EPA, Yantai",,37.376681,121.586509,171,193,5,29,34,22,,,0,,,20141228170000
324,"Laishan EPA, Yantai",,37.478422,121.44829,170,91,3,25,53,14,,,0,,,20141228170000
325,"Laishan Shengquan Industrial Park, Yantai",,37.4271,121.408386,142,78,10,15,23,13,,,0,,,20141228170000
326,"China Agricultural University, Yantai",,37.423568,121.511838,104,61,21,15,21,8,,,0,,,20141228170000
327,"BDA EPA, Yantai",,37.560827,121.257954,95,35,10,29,27,11,,,0,,,20141228170000
329,"Dajijia, Yantai",,37.673849,121.071465,85,58,19,21,21,4,,,0,,,20141228170000
330,Yantai,,37.464793,121.453142,318,163,10,51,59,12,,,0,,,20141228170000
331,"BDA, Weifang",,36.720022,119.054064,335,327,16,62,71,21,,,0,,,20141228170000
332,"Business School, Weifang",,36.682442,119.105909,223,140,4,20,53,21,,,0,,,20141228170000
333,"Hanting District, Weifang",,36.773484,119.199705,168,107,17,22,32,35,,,0,,,20141228170000
334,"Gongda Company, Weifang",,36.657635,119.167266,192,134,32,32,37,28,,,0,,,20141228170000
335,"City EPA, Weifang",,36.701272,119.16838,175,116,5,36,56,25,,,0,,,20141228170000
336,"City Arbitration Committee, Weifang",,36.702422,119.145927,112,59,29,27,19,7,,,0,,,20141228170000
337,"Xinhui Group, Weifang",,36.641581,119.11679,241,173,21,54,62,14,,,0,,,20141228170000
338,"Jincheng Middle School, Weifang",,36.773611,119.115539,203,133,11,30,65,28,,,0,,,20141228170000
339,Weifang,,36.707217,119.167638,261,151,28,51,67,7,,,0,,,20141228170000
340,"City Monitoring Station, Jining",,35.408443,116.623917,187,149,7,37,65,21,-6,-8,1034,86,1,20141228170000
1090,"Shengdi Hollidays Resort, Jining",,35.424746,116.699093,188,162,3,39,73,20,-6,-8,1034,86,1,20141228170000
341,"Sewage treatment plant, Jining",,35.364286,116.609177,180,142,2,25,63,21,-6,-8,1034,86,1,20141228170000
342,"Electrochemical Factory, Jining",,35.390473,116.552956,180,153,23,37,67,26,-6,-8,1034,86,1,20141228170000
343,"Rencheng BDA, Jining",,35.390484,116.662995,169,80,1,16,19,21,7,-3,1030,37,2,20141228170000
344,"Agricultural School, Jining",,35.44235,116.601682,160,382,2,33,63,28,-6,-8,1034,86,1,20141228170000
345,"BDA Huojucheng, Jining",,35.436377,116.642953,175,103,22,17,20,15,5,-2,1029,45,1,20141228170000
346,Jining,,35.414473,116.59239,215,173,9,52,63,23,-2,-4,1022,81,1,20141228170000
347,"Taishan monitoring station, Taian",,36.194362,117.159648,298,187,8,50,56,28,-5,-19,0,18,8,20141228170000
348,"Shandong Electric Power School, Taian",,36.176071,117.12413,122,359,107,58,42,34,-7,-14,0,48,6,20141228170000
349,"Population Education school, Taian",,36.194417,117.104131,207,141,18,24,38,3,-2,-14,0,27,7,20141228170000
350,"Houfeng company, Taian",,36.204863,117.19015,244,197,3,35,41,24,-7,-16,0,34,7,20141228170000
351,"Nongda new campus, Taian",,36.170179,117.165191,281,189,2,43,64,24,-7,-16,0,34,7,20141228170000
352,"Transportation technical school, Taian",,36.202126,117.047068,-,-,-,-,-,-,-,-,0,-,-,20141228170000
353,"ICT Technology, Taian",,36.116621,117.107458,207,138,2,32,74,23,-7,-16,0,34,7,20141228170000
354,Taian,,36.200502,117.093682,209,132,12,51,52,7,-2,-12,0,32,5,20141228170000
355,"City Environmental Monitoring Station, Weihai",,37.513939,122.067058,42,34,32,8,10,4,3,-4,0,53,2,20141228170000
356,"Woodworking Factory, Weihai",,37.325455,122.160777,212,131,28,28,46,7,7,-2,0,51,3,20141228170000
357,"Lantian Hotel, Weihai",,37.514641,122.146276,78,53,23,20,15,6,5,-3,0,53,3,20141228170000
358,"Zhang village government, Weihai",,37.485561,122.049436,291,135,17,43,47,22,5,0,0,60,4,20141228170000
359,"Gao District Bank, Weihai",,37.534919,122.056294,50,26,27,6,14,3,3,-4,0,53,2,20141228170000
360,"Huxia technical school, Weihai",,37.427951,122.130811,185,104,31,18,24,0,4,-1,0,63,4,20141228170000
361,Weihai,,37.5141,122.125477,258,156,29,49,51,21,6,-1,0,56,4,20141228170000
560,Wanli University,,29.821314,121.574364,144,65,24,16,10,4,12,2,1021,51,4,20141228170000
362,"City governement square, Rizhao",,35.4075,119.526008,237,155,13,53,30,15,6,1,1019,58,0,20141228170000
363,"Port Authority, Rizhao",,35.381297,119.55396,197,117,23,33,12,0,2,-2,1025,69,2,20141228170000
364,"City Monitoring Station, Rizhao",,35.388683,119.496405,-,-,-,-,-,-,-,-,0,-,-,20141228170000
365,"Professor Garden, Rizhao",,35.462161,119.574193,-,-,-,-,-,-,-,-,0,-,-,20141228170000
366,"Vocational and Technical College, Rizhao",,35.441939,119.538187,151,66,31,9,15,10,5,-1,1030,52,0,20141228170000
367,"Lanshan EPA branch, Rizhao",,35.293405,119.345716,119,60,6,24,26,9,0,-5,1034,56,1,20141228170000
368,"Jinma Industrial Park, Rizhao",,35.373339,119.514108,159,93,3,22,13,8,6,-2,1033,46,3,20141228170000
369,Rizhao,,35.416089,119.532316,307,191,5,55,43,14,4,-2,1020,60,1,20141228170000
370,"Vegetable oil factory, Laiwu",,36.205028,117.700917,250,147,20,45,74,0,2,-3,1023,58,0,20141228170000
371,"Nursing home, Laiwu",,36.266067,117.652769,230,135,3,35,55,34,-6,-10,1035,63,1,20141228170000
372,"Xinyi middle school, Laiwu",,36.245086,117.739025,199,104,1,37,60,18,-2,-9,1031,45,0,20141228170000
373,"Risheng International School, Laiwu",,36.208125,117.730959,-,-,-,-,-,-,-,-,0,-,-,20141228170000
374,"Gangcheng EPA, Laiwu",,36.066836,117.871823,222,121,6,19,54,21,2,-3,1023,58,0,20141228170000
375,"City EPA, Laiwu",,36.228913,117.694797,192,127,2,38,64,27,-6,-10,1035,63,1,20141228170000
376,Laiwu,,36.213688,117.682612,292,189,20,32,40,3,-,-,0,-,-,20141228170000
377,"Lunan Pharmaceutical Factory, Linyi",,35.061671,118.299527,200,144,25,39,52,18,4,-7,0,41,1,20141228170000
378,"Yihe compound, Linyi",,35.056752,118.34739,244,158,27,44,41,0,1,-2,0,80,2,20141228170000
379,"Linyi University, Linyi",,35.114777,118.293414,-,-,-,-,-,-,-,-,0,-,-,20141228170000
380,City EPA,Nanfang,35.104871,118.353518,176,124,3,36,50,27,4,-7,0,41,1,20141228170000
381,"Xinguang woolen factory, Linyi",,34.981004,118.282,245,212,29,53,57,25,4,-7,0,41,1,20141228170000
382,"Hongfu Baijiu Factory, Linyi",,34.998788,118.257275,229,172,23,28,29,24,5,-3,0,52,4,20141228170000
384,"Hedong insurance company, Linyi",,35.089354,118.40812,223,172,21,49,40,6,1,-2,0,77,2,20141228170000
385,"Jianghua vehicule center, Linyi",,35.010082,118.435749,163,89,7,26,40,26,3,-4,0,53,2,20141228170000
386,Linyi,,35.10428,118.362202,243,153,23,41,48,5,5,-3,0,52,4,20141228170000
387,"Heima group, Dezhou",,37.466063,116.314134,213,145,48,49,54,25,-4,-10,1033,50,0,20141228170000
388,"Monitoring station, Dezhou",,37.433107,116.377312,233,154,8,39,54,24,-4,-10,1033,50,0,20141228170000
389,"Supervision Station, Dezhou",,37.449689,116.324709,179,125,49,44,33,16,4,-12,1032,17,1,20141228170000
390,"Huayu technical school, Dezhou",,37.462809,116.357559,209,106,10,35,40,17,6,-7,1028,24,3,20141228170000
391,"Shuangyi group, Dezhou",,37.478848,116.316362,253,148,2,37,60,20,-4,-10,1033,50,0,20141228170000
392,Dezhou,,37.434959,116.363366,223,140,14,33,51,13,8,-8,1019,21,3,20141228170000
393,"Dongchang District Government, Liaocheng",,36.444473,115.971733,224,137,21,41,58,40,-3,-10,1033,46,2,20141228170000
394,"Light Machinery Factory No. 2, Liaocheng",,36.456788,116.002383,231,174,24,51,45,20,6,-8,1020,23,0,20141228170000
395,"City committee communist party school, Liaocheng",,36.479537,115.989288,203,133,8,40,51,30,-2,-6,1032,60,2,20141228170000
396,"Customs, Liaocheng",,36.431933,115.956974,194,122,16,23,36,13,5,-5,1028,36,2,20141228170000
397,"Hongshun Garden, Liaocheng",,36.471124,115.960319,191,126,8,25,35,18,7,-5,1029,29,3,20141228170000
398,"BDA, Liaocheng",,36.459407,116.043621,199,107,12,21,21,17,5,-5,1028,36,2,20141228170000
399,Liaocheng,,36.456792,115.991051,182,118,17,19,32,10,10,-6,1020,20,0,20141228170000
400,"City EPA, Binzhou",,37.38024,118.026895,347,265,34,98,113,5,-4,-8,1034,70,2,20141228170000
401,"Beizhong new school, Binzhou",,37.38374,117.988996,334,235,28,87,100,39,-4,-8,1034,70,2,20141228170000
402,"No.2 water factory, Binzhou",,37.36155,118.002648,373,377,12,102,100,24,-4,-8,1034,70,2,20141228170000
403,"Keling Chemical factory, Binzhou",,37.396138,117.943609,170,83,24,58,54,35,5,-5,1028,34,2,20141228170000
404,"Yinhe logistics company, Binzhou",,37.356122,117.943326,201,112,13,25,35,21,5,-5,1028,34,2,20141228170000
405,"Bilin compond, Binzhou",,37.36815,117.978964,179,115,12,42,48,22,-2,-10,1034,37,1,20141228170000
406,Binzhou,,37.382639,117.976606,411,322,28,57,54,16,5,-3,1019,42,2,20141228170000
407,"Bureau of Meteorology, Heze",,35.248625,115.428775,224,186,30,35,59,30,4,-10,0,32,3,20141228170000
408,"Sewage treatment plant, Heze",,35.222517,115.531511,211,177,3,47,64,26,4,-10,0,32,3,20141228170000
409,"Municipal CPPCC, Heze",,35.237125,115.480591,172,95,26,21,38,19,5,-6,0,43,3,20141228170000
410,"Huarun Pharmaceutical Company, Heze",,35.261463,115.524873,-,-,-,-,-,-,-,-,0,-,-,20141228170000
411,"Heze University, Heze",,35.269706,115.460934,208,166,32,44,59,19,4,-10,0,32,3,20141228170000
412,Heze,,35.233354,115.486503,199,136,28,23,29,4,2,-4,0,58,3,20141228170000
413,"Shiji Park, Shijiazhuang",,38.03155,114.547873,97,73,10,14,17,24,11,-11,1018,21,2,20141228170000
414,"Xinan College, Shijiazhuang",,38.012764,114.473163,65,72,11,6,12,8,11,-11,1018,21,2,20141228170000
415,"Chemical College, Shijiazhuang",,38.055503,114.569816,127,80,12,15,21,16,11,-11,1018,21,2,20141228170000
416,"Worker hospital, Shijiazhuang",,38.051784,114.461209,80,79,12,6,19,6,11,-11,1018,21,2,20141228170000
417,"Northwest Water Company, Shijiazhuang",,38.140638,114.508038,102,61,17,8,12,12,9,-10,1018,25,2,20141228170000
418,"High-tech zone, Shijiazhuang",,38.040482,114.610775,189,140,4,40,54,38,8,-9,1022,29,3,20141228170000
419,"Fenglong Montain, Shijiazhuang",,37.910829,114.360264,87,74,36,4,20,4,9,-10,1018,25,2,20141228170000
1130,"Zhengding Unicom, Shijiazhuang",,38.159458,114.59879,533,658,2,79,87,58,-5,-8,1026,80,2,20141228170000
1131,"Luancheng Communications, Shijiazhuang",,37.906534,114.638785,114,86,14,14,16,18,9,-10,1018,25,2,20141228170000
1132,"Gaocheng Experimental School, Shijiazhuang",,38.039518,114.867812,215,173,10,49,72,21,-2,-10,1018,55,2,20141228170000
1133,"Wuji EPA, Shijiazhuang",,38.17862,114.997012,290,220,16,49,71,17,-2,-10,1018,55,2,20141228170000
1134,"Shenze Power Supply Bureau, Shijiazhuang",,38.197674,115.219126,213,184,13,41,62,19,-2,-10,1018,55,2,20141228170000
1135,"Zhaoxian EPA, Shijiazhuang",,37.77171,114.775957,393,338,2,50,85,57,-5,-8,1026,80,2,20141228170000
1136,"Gaoyi County City Hall, Shijiazhuang",,37.623535,114.612729,462,350,2,84,121,78,-5,-8,1026,80,2,20141228170000
1137,"Zanhuang County City Hall, Shijiazhuang",,37.672898,114.398269,389,338,3,39,77,43,-5,-8,1026,80,2,20141228170000
1138,"Jingxing Bureau of Meteorology, Shijiazhuang",,38.038788,114.158406,78,77,12,13,52,9,10,-12,1020,20,2,20141228170000
1139,"Pingshan Ye River, Shijiazhuang",,38.266657,114.210275,82,65,17,6,18,7,9,-10,1018,25,2,20141228170000
420,Shijiazhuang,,38.042926,114.520834,161,104,4,32,53,19,7,-10,1022,29,3,20141228170000
421,"No. 12 middle school, Tangshan",,39.659306,118.190271,,,,,,,-,-,0,-,-,20141228170000
422,"Ceramics Company, Tangshan",,39.669255,118.225185,191,405,14,46,23,47,8,-12,1018,23,3,20141228170000
423,"Commodities Bureau, Tangshan",,39.642301,118.191265,413,404,6,38,59,40,7,-10,1019,29,4,20141228170000
424,"Leidazhanzi Station, Tangshan",,39.644375,118.150383,526,571,9,98,59,54,6,-11,1019,29,3,20141228170000
425,"Supply and marketing cooperatives, Tangshan",,39.632334,118.17232,171,106,12,45,21,47,6,-12,1018,27,2,20141228170000
1140,"Guye District City Hall, Tangshan",,39.741379,118.460246,363,275,2,75,55,41,-2,-6,1023,74,1,20141228170000
1141,"Kaiping Stations, Tangshan",,39.675246,118.275149,189,96,7,40,22,41,8,-12,1018,23,3,20141228170000
1142,"Fengnan District City Hall, Tangshan",,39.5834,118.097454,418,385,3,29,63,46,-2,-6,1023,74,1,20141228170000
1143,"Fengrun City Hall, Tangshan",,39.840355,118.175338,462,474,4,60,39,64,1,-5,1024,65,2,20141228170000
1144,"Qianxi EPA, Tangshan",,40.153339,118.317265,344,256,3,63,56,75,1,-5,1024,65,2,20141228170000
1145,"Caofeidian Xinli  Primary School, Tangshan",,39.291232,118.462182,345,302,3,68,62,22,1,-5,1024,65,2,20141228170000
1146,"Zunhua EPA, Tangshan",,40.206249,117.997315,357,263,3,50,56,60,-3,-6,1022,80,1,20141228170000
1147,"Qianan No.1 middle school, Tangshan",,40.004248,118.717055,195,125,23,43,38,16,3,-8,1018,45,1,20141228170000
1266,"Luannan County , Tangshan",,39.511132,118.686928,456,476,5,75,67,61,2,-4,1021,65,0,20141228170000
1267,"Yutian County , Tangshan",,39.908249,117.751417,448,468,4,60,52,72,-3,-6,1022,80,1,20141228170000
426,Tangshan,,39.632175,118.186472,187,137,6,28,53,35,-,-,0,-,-,20141228170000
427,"City Monitoring Station, Qinhuangdao",,39.958109,119.607773,342,286,7,92,61,72,,,0,,,20141228170000
428,"Beidaihe, Qinhuangdao",,39.829209,119.53194,376,232,5,81,82,66,,,0,,,20141228170000
429,"Shanhai Pass, Qinhuangdao",,40.019298,119.767898,222,177,16,48,55,63,,,0,,,20141228170000
430,"Contruction Plazz, Qinhuangdao",,39.943187,119.542912,307,368,1,71,56,55,,,0,,,20141228170000
431,"City government, Qinhuangdao",,39.93711,119.612769,195,119,7,22,21,35,,,0,,,20141228170000
1148,"Qinglong EPA, Qinhuangdao",,40.419223,118.958002,271,168,3,22,28,45,,,0,,,20141228170000
1149,"Changli EPA, Qinhuangdao",,39.714369,119.173237,414,430,-,90,59,65,,,0,,,20141228170000
1268,"Lulong County Bureau of Meteorology , Qinhuangdao",,39.901091,118.904857,440,405,6,68,65,51,,,0,,,20141228170000
432,Qinhuangdao,,39.936485,119.606263,248,191,22,28,24,7,,,0,,,20141228170000
433,"CongTai Park, Handan",,36.620197,114.501891,204,119,6,22,85,57,,,0,,,20141228170000
434,"City EPA, Handan",,36.618145,114.518822,178,114,34,35,65,20,,,0,,,20141228170000
435,"East Sewage Factory, Handan",,36.616064,114.548714,224,145,6,21,67,40,,,0,,,20141228170000
436,"Mine Hospital, Handan",,36.578149,114.509854,356,623,4,28,69,80,,,0,,,20141228170000
1150,"Fengfeng mine Inland Revenue Department, Handan",,36.423085,114.245994,201,125,4,29,74,33,,,0,,,20141228170000
1151,"Shexian EPA, Handan",,36.589084,113.692341,199,101,10,35,56,25,,,0,,,20141228170000
1152,"Ci County Vocational Education Center, Handan",,36.380247,114.390119,200,137,2,1,20,52,,,0,,,20141228170000
1153,"Yongnian government guesthouse, Handan",,36.783297,114.502905,405,372,1,39,77,68,,,0,,,20141228170000
1154,"Wuan BDA, Handan",,36.686223,114.269009,200,154,1,36,80,58,,,0,,,20141228170000
1085,Handan,,36.625683,114.544812,353,269,6,28,59,27,,,0,,,20141228170000
437,"Road and Bridge Corporation, Xingtai",,37.096415,114.538799,314,176,2,39,34,78,-1,-6,1023,61,0,20141228170000
438,"Dahuo fontain, Xingtai",,37.097563,114.488001,194,121,3,7,9,62,-1,-6,1023,61,0,20141228170000
439,"Xingtai Normal College, Xingtai",,37.053404,114.531819,211,135,3,31,34,72,-1,-6,1023,61,0,20141228170000
440,"Environment protection office, Xingtai",,37.06253,114.490985,-,-,-,-,-,-,-,-,0,-,-,20141228170000
1155,"Cultural centers within the mound, Xingtai",,37.293569,114.524873,189,143,17,33,61,17,6,-10,1020,17,2,20141228170000
801,Hefei,,31.819449,117.232753,194,96,4,21,15,11,3,1,1028,87,1,20141228170000
383,Xingtai,,37.071066,114.510749,119,73,5,19,20,53,10,-10,1022,13,1,20141228170000
441,"City Monitoring Station, Baoding",,38.871737,115.527103,800,999,24,106,197,88,2,-5,1022,51,2,20141228170000
442,"Surface water Company, Baoding",,38.842891,115.467326,510,622,2,58,69,56,-6,-8,1022,81,1,20141228170000
443,"Huadian II, Baoding",,38.896748,115.528102,750,859,22,91,117,91,2,-5,1022,51,2,20141228170000
444,"Reception Center, Baoding",,38.911905,115.477301,394,454,6,76,98,49,7,-11,1018,15,2,20141228170000
445,"Film Factory, Baoding",,38.876949,115.448383,773,880,4,102,67,68,2,-5,1022,51,2,20141228170000
446,"Natatorium, Baoding",,38.863815,115.499212,684,829,3,103,84,94,2,-5,1022,51,2,20141228170000
1156,"Qingyuan City Hall, Baoding",,38.771758,115.502189,446,479,3,50,68,50,0,-10,1018,31,1,20141228170000
1157,"Xushui EPA, Baoding",,39.025781,115.668023,554,547,3,77,116,93,7,-11,1018,15,2,20141228170000
1158,"Zhuozhou Monitoring Stations, Baoding",,39.493241,116.040187,439,478,2,2,126,68,0,-10,1018,31,1,20141228170000
1159,"Gaobeidian EPA, Baoding",,39.3329,115.885891,744,999,3,105,184,171,2,-5,1022,51,2,20141228170000
447,Baoding,,38.874791,115.471124,536,768,10,68,57,34,0,-10,1018,31,1,20141228170000
448,"Century Compound, Zhangjiakou",,40.770279,114.909106,172,131,26,61,84,10,-4,-15,1022,25,2,20141228170000
449,"North Pumping Station, Zhangjiakou",,40.874362,114.910119,61,74,19,4,16,13,-2,-14,1025,24,2,20141228170000
450,"Hardware Warehouse, Zhangjiakou",,40.81232,114.887119,87,84,30,6,23,23,2,-14,1022,16,5,20141228170000
451,"Tanji Chang, Zhangjiakou",,40.796301,114.89811,95,88,29,7,15,6,2,-14,1022,16,5,20141228170000
1160,"Xiahuayuan EPA, Zhangjiakou",,40.509345,115.302442,119,122,8,12,64,9,-2,-14,1025,24,2,20141228170000
1161,"Huaian EPA, Zhangjiakou",,40.68157,114.398646,57,60,16,1,10,13,2,-14,1022,16,5,20141228170000
1162,"Huailai Fuqian Primary School, Zhangjiakou",,40.422204,115.530285,155,83,4,29,44,11,-5,-15,1027,34,2,20141228170000
1269,"Zhangbei EPA , Zhangjiakou",,41.166775,114.732369,114,80,14,3,8,5,-2,-14,1025,24,2,20141228170000
1270,"Kangbao County Environmental Protection Agency , Zhangjiakou",,41.837866,114.591246,78,68,16,2,7,3,-2,-14,1025,24,2,20141228170000
1271,"Guyuan County welfare , Zhangjiakou",,41.669984,115.687401,99,54,17,7,10,11,-5,-15,1027,34,2,20141228170000
1272,"Shangyi County Environmental Protection Bureau , Zhangjiakou",,41.086638,113.984688,117,74,10,14,33,15,-2,-14,1025,24,2,20141228170000
1273,"Yuxian Secondary School , Zhangjiakou",,39.84699,114.601986,194,126,16,36,1,16,-4,-15,1022,25,2,20141228170000
1274,"Yang County Vocational Education Center , Zhangjiakou",,40.106343,114.134732,99,74,28,7,17,6,-4,-15,1022,25,2,20141228170000
1275,"Wan county Environmental Protection Agency , Zhangjiakou",,40.770459,114.75033,158,69,16,11,25,8,-5,-15,1027,34,2,20141228170000
1276,"Zhuolu County Environmental Protection Agency , Zhangjiakou",,40.374273,115.221393,119,68,21,11,23,10,-4,-15,1022,25,2,20141228170000
452,Zhangjiakou,,40.825744,114.893659,95,72,26,19,51,5,1,-15,1022,17,2,20141228170000
453,"Railway, Chengde",,40.917557,117.972331,200,169,7,35,51,28,-4,-13,1023,38,1,20141228170000
454,"Cultural Center, Chengde",,40.974625,117.824437,74,88,16,6,6,25,3,-15,1020,14,4,20141228170000
455,"Bank of China, Chengde",,40.985582,117.958304,164,106,15,40,25,11,0,-14,1020,19,2,20141228170000
456,"BDA, Chengde",,40.937567,117.969325,163,109,29,32,36,16,-5,-13,1020,37,0,20141228170000
457,"Ligong, Chengde",,41.012579,117.94428,114,79,16,5,5,12,3,-15,1020,14,4,20141228170000
1163,"Chengde County EPA, Chengde",,40.776643,118.17646,222,153,1,37,26,37,-10,-13,1026,70,0,20141228170000
1164,"Xinglong County City Hall, Chengde",,40.424301,117.513488,104,56,8,9,7,31,-4,-13,1023,38,1,20141228170000
1165,"Luanping EPA, Chengde",,40.950792,117.350715,163,88,15,35,34,14,-5,-13,1020,37,0,20141228170000
1166,"Fengning County City Hall, Chengde",,41.216739,116.658037,74,61,9,1,36,31,-4,-13,1023,38,1,20141228170000
1277,"Longhua EPA , Chengde",,41.311956,117.739605,104,88,9,15,32,15,3,-15,1020,14,4,20141228170000
458,Chengde,,40.955652,117.968737,163,109,29,32,36,16,-5,-13,1020,37,0,20141228170000
459,"Municipal EPB, Cangzhou",,38.323507,116.876746,181,141,14,33,46,31,8,-12,1018,23,5,20141228170000
460,"Cangxian Urban Construction Bureau, Cangzhou",,38.299495,116.890734,282,233,14,62,66,40,5,-10,1018,33,3,20141228170000
461,"TV Broadcast Station, Cangzhou",,38.325525,116.863761,285,166,11,26,48,36,8,-12,1018,23,5,20141228170000
1167,"Qing County City Hall, Cangzhou",,38.589643,116.815876,309,197,4,25,53,36,8,-11,1018,25,5,20141228170000
1168,"Poyoushi City Hall, Cangzhou",,38.089516,116.590575,129,111,6,17,51,29,8,-12,1018,23,5,20141228180000
1169,"Huanghua Finance Bureau Training Center, Cangzhou",,38.377793,117.343356,259,186,6,33,49,15,1,-5,1024,65,2,20141228180000
462,Cangzhou,,38.305035,116.844625,257,213,16,49,76,33,4,-9,1018,39,2,20141228180000
463,"Environmental Monitoring Supervision Center, Langfang",,39.558157,116.720995,215,141,7,43,34,33,7,-12,1018,25,2,20141228180000
464,"TCM Medical Material Company, Langfang",,39.519096,116.689914,416,318,6,48,50,21,0,-5,1023,69,2,20141228180000
465,"BDA, Langfang",,39.576175,116.779041,478,421,2,45,46,34,0,-5,1021,69,4,20141228180000
466,"North China Institute of Aerospace, Langfang",,39.53517,116.743027,410,471,2,46,62,47,-1,-4,1021,80,1,20141228180000
1170,"Guan Party School, Langfang",,39.446185,116.311026,512,580,3,92,74,52,0,-5,1023,69,2,20141228180000
1171,"Xianghe EPA, Langfang",,39.76725,117.015252,411,340,2,74,60,62,-3,-6,1022,80,1,20141228180000
1172,"Wenan County EPA, Langfang",,38.880927,116.47001,357,295,11,42,54,37,-3,-6,1022,80,1,20141228180000
1173,"Three Rivers Department of Transportation, Langfang",,39.989419,117.091528,382,282,8,58,52,69,1,-5,1024,65,2,20141228180000
1278,"Yongqing EPA , Langfang",,39.329071,116.510917,378,339,4,78,50,50,6,-11,1018,29,2,20141228180000
1279,"Dacheng EPA, Langfang",,38.712628,116.665751,333,252,14,82,64,41,6,-11,1018,29,2,20141228180000
467,Langfang,,39.539148,116.689668,287,166,8,37,34,14,3,-9,1018,41,2,20141228180000
468,"Hengshui City EPB, Hengshui",,37.739679,115.695929,183,133,29,39,46,19,1,-14,0,29,3,20141228180000
469,"Environmental Monitoring Station, Hengshui",,37.738593,115.648837,215,144,14,52,48,19,2,-11,0,33,1,20141228180000
470,"Electrical Machine North Factory, Hengshui",,37.758686,115.70094,194,129,6,69,47,31,1,-11,0,35,1,20141228180000
1174,"Anping EPA, Hengshui",,38.238559,115.537988,231,150,13,38,42,14,2,-13,0,30,3,20141228180000
1175,"Jizhou EPA, Hengshui",,37.548552,115.58679,204,136,21,23,51,27,2,-11,0,33,1,20141228180000
1280,"Zaoqiang EPA, Hengshui",,37.520698,115.714936,258,180,72,41,56,29,2,-13,0,30,3,20141228180000
1281,"Wuyi EPA, Hengshui",,37.801554,115.898697,288,213,10,48,3,21,2,-13,0,30,3,20141228180000
1282,"Wuqiang EPA , Hengshui",,38.03557,115.959767,533,660,1,38,2,38,6,-12,0,22,5,20141228180000
1283,"Raoyang EPA , Hengshui",,38.230652,115.741041,584,726,2,42,16,50,6,-12,0,22,5,20141228180000
1284,"Gucheng County , Hengshui",,37.347569,115.966707,380,308,18,58,67,31,2,-11,0,33,1,20141228180000
471,Hengshui,,37.739562,115.676066,149,114,21,39,38,24,2,-11,0,33,1,20141228180000
1176,"Xinji City Hall, Xinji",,37.949711,115.230084,208,159,11,42,64,24,2,-13,0,30,3,20141228180000
472,"Fukang road, Tianjin",,39.098136,117.157621,472,403,7,72,63,48,6,-9,1020,34,3,20141228180000
473,"Nankou road, Tianjin",,39.174022,117.199688,197,500,10,26,22,40,8,-12,1018,23,5,20141228180000
474,"Qinjian street, Tianjin",,39.166588,117.15104,432,344,14,76,57,24,4,-9,1018,39,2,20141228180000
475,"Nanjing Road, Tianjin",,39.120958,117.195112,219,250,18,57,49,37,6,-11,1018,29,2,20141228180000
476,"Dazhigu No.8 road, Tianjin",,39.111811,117.25147,173,74,11,29,28,31,6,-12,1018,27,2,20141228180000
477,"Qianjin street, Tianjin",,39.09371,117.207981,458,471,6,56,63,40,7,-10,1019,29,4,20141228180000
478,"Huaihe street, Tianjin",,39.227167,117.191293,533,596,4,61,60,40,6,-9,1020,34,3,20141228180000
479,"Xiangshan street, Tianjin",,39.134752,117.275125,372,347,18,35,61,27,4,-9,1018,39,2,20141228180000
480,"Yuejin Road, Tianjin",,39.088177,117.320884,302,387,11,83,52,31,4,-9,1018,39,2,20141228180000
482,"No.4 street, Tianjin",,39.035228,117.713424,373,382,5,53,53,60,6,-9,1020,34,3,20141228180000
483,"Yongming road, Tianjin",,38.840392,117.463805,354,232,13,60,39,40,3,-9,1018,41,2,20141228180000
484,"Xinhua street, Tianjin",,39.138671,117.010083,482,482,4,54,64,46,-1,-4,1021,80,1,20141228180000
485,"Jingu Road, Tianjin",,38.985659,117.381254,446,470,-,54,52,32,6,-9,1020,34,3,20141228180000
486,"Tanggu Yingkou street, Tianjin",,39.021768,117.656454,217,303,9,78,55,26,4,-9,1018,39,2,20141228180000
487,"Hexi Yijing road, Tianjin",,39.248392,117.798043,460,369,3,67,53,44,7,-10,1019,29,4,20141228180000
488,"Jianshe Road, Tianjin",,39.720075,117.310588,162,85,9,36,32,27,4,-9,1018,39,2,20141228180000
489,"Quanzhou South road, Tianjin",,39.373857,117.050329,206,199,9,71,45,38,5,-10,1018,33,3,20141228180000
490,"Donghuan road, Tianjin",,40.043144,117.451062,167,104,7,37,53,46,4,-9,1018,39,2,20141228180000
491,"Tuanpowa, Tianjin",,38.920418,117.16299,570,510,6,67,65,42,7,-10,1019,29,4,20141228180000
493,"Beiwei No.2 road, Tianjin",,38.943857,116.920624,375,348,6,78,59,58,5,-10,1018,33,3,20141228180000
494,"Haitai fazhan No.2 road, Tianjin",,39.079608,117.096583,250,260,7,68,48,36,6,-11,1018,29,2,20141228180000
495,"Hangtian road, Tianjin",,39.152244,117.381309,466,479,9,41,27,36,8,-12,1018,23,5,20141228180000
496,"Hanbei road, Tianjin",,39.159768,117.770477,376,289,6,48,48,40,2,-5,1025,60,2,20141228180000
497,"Baobai highway, Tianjin",,39.51757,117.349635,129,72,15,9,14,31,6,-11,1018,29,2,20141228180000
498,Tianjin,,39.085164,117.207281,189,471,10,29,32,33,8,-12,1018,23,5,20141228180000
499,"Wolong bridge, Hangzhou",,30.24371,120.132762,152,61,18,15,5,8,7,0,1022,61,0,20141228180000
500,"Hemu primary school, Hangzhou",,30.309669,120.124507,184,116,30,43,6,15,5,1,1022,76,2,20141228180000
501,"Zhejiang Agricultural University, Hangzhou",,30.265601,120.197583,173,115,31,50,10,8,7,0,1022,61,0,20141228180000
502,"Xiasha, Hangzhou",,30.303516,120.352618,168,89,21,34,23,10,10,2,1025,58,2,20141228180000
503,"Yunqi, Hangzhou",,30.178555,120.093142,155,59,16,24,4,10,3,1,1027,87,0,20141228180000
504,"Xixi, Hangzhou",,30.272425,120.068144,159,71,20,37,4,12,7,0,1022,61,0,20141228180000
505,"Chengxiang town, Hangzhou",,30.179493,120.274184,161,88,12,39,15,9,11,-1,1021,44,1,20141228180000
506,"Qiandao lake, Hangzhou",,29.638139,119.031092,127,52,28,7,4,4,7,3,1027,76,2,20141228180000
507,"Linping town, Hangzhou",,30.415948,120.305059,180,88,19,31,22,8,4,2,1027,87,1,20141228180000
508,"Fuyang monitoring station, Hangzhou",,30.048419,119.963469,157,89,30,43,9,18,8,0,1022,57,0,20141228180000
509,"No.2 Middle School, Hangzhou",,30.044303,119.956356,112,68,25,20,13,7,11,2,1029,54,2,20141228180000
510,"City Hall, Hangzhou",,30.234185,119.723503,164,92,88,38,14,8,7,0,1022,61,0,20141228180000
511,"No. 4 middle school, Hangzhou",,30.229428,119.699591,161,96,1,42,6,10,7,0,1029,61,2,20141228180000
512,Hangzhou,,30.271756,120.159765,160,67,17,28,18,11,12,-2,1021,38,2,20141228180000
513,"City Station, Wenzhou",,28.009715,120.679129,162,74,24,29,12,10,11,5,0,68,1,20141228180000
514,"Ouhai, Wenzhou",,28.001846,120.641982,161,81,25,29,16,4,11,6,0,72,2,20141228180000
515,"Longwan, Wenzhou",,27.968122,120.768393,168,90,27,50,11,15,11,5,0,68,1,20141228180000
516,"Nanpu, Wenzhou",,27.981763,120.683685,162,73,25,25,14,14,13,6,0,59,1,20141228180000
517,Wenzhou,,27.990985,120.703425,163,76,25,29,11,14,11,5,0,68,1,20141228180000
518,"Monitoring station, Jiaxing",,30.75437,120.767373,154,68,29,37,37,14,8,2,1026,66,1,20141228180000
519,"Jiaxing University, Jiaxing",,30.745099,120.735004,157,67,33,18,20,7,11,2,1021,54,4,20141228180000
520,"Qinghe Primary School, Jiaxing",,30.775685,120.747969,161,73,32,40,29,10,6,3,1026,81,0,20141228180000
521,Jiaxing,,30.751627,120.762862,152,67,29,38,36,13,10,2,1025,58,2,20141228180000
522,"Chengbei water plant, Huzhou",,30.891155,120.096593,169,89,38,33,25,12,5,1,1020,76,2,20141228180000
523,"Jishan new village, Huzhou",,30.859939,120.120168,176,96,36,53,10,15,5,2,1021,81,1,20141228180000
524,"Town west water plant, Huzhou",,30.862371,120.084577,159,67,13,28,20,8,10,1,1021,54,4,20141228180000
525,Huzhou,,30.892304,120.091694,156,59,19,17,18,10,10,1,1024,54,4,20141228180000
526,"Donghu middle school, Shaoxing",,29.990447,120.647547,173,98,19,38,18,6,7,1,1022,66,2,20141228180000
527,"City EPA station, Shaoxing",,30.001695,120.584318,161,78,22,25,38,7,12,-1,1023,41,3,20141228180000
528,"Chengdong BDA committee, Shaoxing",,29.986643,120.613578,184,102,26,22,11,9,5,1,1022,76,2,20141228180000
529,"Paojiang station, Shaoxing",,30.07574,120.62154,181,105,31,33,47,11,7,3,1027,76,2,20141228180000
530,"Shaoxing technical school, Shaoxing",,29.930983,120.577131,157,73,5,21,24,3,9,3,1026,66,2,20141228180000
531,"Library, Shaoxing",,29.706266,120.253183,167,84,19,22,26,12,12,-1,1022,41,2,20141228180000
532,"Transporation management station, Shaoxing",,29.726405,120.221602,174,97,25,28,20,26,12,-2,1021,38,1,20141228180000
533,"Dongpu Town Governement, Shaoxing",,30.049601,120.539893,155,66,11,27,23,6,6,2,1028,76,0,20141228180000
534,Shaoxing,,29.993122,120.590182,179,112,22,33,59,7,-,-,0,-,-,20141228180000
535,"City Monitoring Station, Jinhua",,29.100031,119.690373,162,81,34,26,23,11,6,3,0,84,1,20141228180000
536,"No.15 middle school, Jinhua",,29.074022,119.652121,185,99,31,33,50,11,11,3,0,57,2,20141228180000
537,"No.4 middle school, Jinhua",,29.110109,119.653654,172,92,20,32,39,13,4,2,0,85,3,20141228180000
538,"Beiyuan, Jinhua",,29.332898,120.083351,117,60,17,18,18,5,8,0,0,57,2,20141228180000
539,"Jiangdong, Jinhua",,29.302486,120.095291,109,55,27,14,10,13,8,0,0,57,2,20141228180000
540,Jinhua,,29.076083,119.65215,196,106,34,33,49,14,12,3,0,54,2,20141228180000
541,"EPA building, Quzhou",,28.937291,118.876081,149,78,26,28,14,9,8,5,1028,74,2,20141228180000
542,"Experimental school, Quzhou",,28.961502,118.880916,169,92,38,24,24,12,8,6,1024,79,6,20141228180000
543,"Quzhou University, Quzhou",,28.971452,118.860052,152,74,32,22,11,9,6,5,1027,88,1,20141228180000
544,Quzhou,,28.966994,118.864252,171,106,32,20,32,11,7,6,1027,88,3,20141228180000
545,"Putuo east port, Zhoushan",,29.951412,122.317679,160,74,47,15,9,15,5,2,1022,81,2,20141228180000
546,"Dinghai tanfeng, Zhoushan",,30.018014,122.126566,137,63,37,15,11,5,12,2,1021,51,4,20141228180000
547,Zhoushan,,29.983049,122.210763,155,83,29,12,6,5,11,2,1023,54,3,20141228180000
548,"Taizhou EPA building, Taizhou",,28.651216,121.42331,159,77,29,20,7,6,8,4,0,69,1,20141228180000
549,"Luqiao Tian Yang Wang, Taizhou",,28.574364,121.381194,158,80,22,20,8,8,8,4,0,69,1,20141228180000
550,"Huangyan EPA building, Taizhou",,28.656151,121.285064,97,59,29,19,5,5,7,4,0,84,2,20141228180000
551,"Yu Zhuang Qian, Lishui",,28.419638,119.883884,153,71,46,17,11,9,10,6,1026,71,0,20141228180000
552,"Monitoring station building, Lishui",,28.444379,119.923103,173,79,27,26,7,10,7,5,1024,86,0,20141228180000
553,"Liandu primary school, Lishui",,28.450912,119.939332,170,88,36,24,13,6,11,6,1024,63,1,20141228180000
554,Lishui,,28.464224,119.927201,175,100,33,29,18,7,11,6,1024,63,1,20141228180000
1248,Jingningxian,,27.977454,119.634837,155,68,16,16,4,8,,,,,,20141228180000
555,Taigu Primary School,,29.864178,121.60022,132,64,10,36,9,7,5,2,1028,81,1,20141228180000
556,Qianhu shuihan,,29.862459,121.5328,159,84,9,28,13,8,7,4,1027,81,0,20141228180000
557,Sanjiang secondary schools,,29.891563,121.568427,153,71,24,18,11,7,12,2,1021,51,4,20141228180000
558,Longsai Hospital,,29.957301,121.726734,134,55,21,35,12,11,4,3,1026,93,1,20141228180000
559,Beilun District EPB,,29.911633,121.850773,161,82,28,31,15,6,12,2,1021,51,2,20141228180000
561,Qianhu water plant,,29.774416,121.648136,154,66,10,28,15,9,9,3,1027,66,1,20141228180000
562,Municipal management station,,29.899182,121.626691,197,133,10,47,8,12,3,1,1021,87,1,20141228180000
1177,Daxie Literary Museum,,29.9027,121.986447,93,34,28,19,5,6,4,3,1026,93,1,20141228180000
1178,Cixi EPB,,30.165807,121.248991,117,59,11,20,12,8,9,2,1031,62,3,20141228180000
1179,Cixi Experimently Primary School,,30.179808,121.268672,164,82,17,17,21,8,12,2,1022,51,4,20141228180000
1180,"Yongsan Park, Yuyao",,30.050842,121.162477,153,69,25,20,7,8,5,4,1026,93,0,20141228180000
1181,"Qilupu Water Company, Yuyao",,30.039112,121.133416,155,75,23,30,13,6,7,3,1029,76,2,20141228180000
1182,Fenghua EPB,,29.666557,121.42069,107,54,20,18,11,5,9,2,1031,62,3,20141228180000
1183,"Yuelong station, Ninghai",,29.296505,121.445872,87,46,5,16,14,8,9,2,1031,62,3,20141228180000
1184,"Wenfeng Primary School, Xiangshan",,29.470908,121.889544,149,58,20,16,6,6,12,2,1021,51,3,20141228180000
1185,"Chengnan Primary School, Ninghai",,29.293812,121.43666,124,72,3,23,18,6,8,2,1031,66,3,20141228180000
1186,"Xingang Primary School, Xiangshan",,29.203878,121.952514,70,51,24,10,4,3,10,3,1028,62,4,20141228180000
1356,Haishu City Monitoring Center,,29.86835,121.539341,160,96,2,35,28,7,5,4,1029,93,1,20141228180000
1357,Fenghua Xikou government,,29.693164,121.29331,93,53,17,18,10,7,10,4,1029,66,3,20141228180000
1294,Ningbo,,29.865766,121.548164,203,138,13,52,8,12,5,2,1022,81,2,20141228180000
1187,Fuyang,,30.046157,119.96468,172,118,32,34,11,19,-,-,0,-,-,20141228180000
1188,Yiwu,,29.304353,120.079794,183,110,20,29,29,19,-,-,0,-,-,20141228180000
1189,Zhuji,,29.711185,120.240748,187,98,25,28,12,26,7,1,1022,66,2,20141228180000
563,"Shanxi Road , Nanjing",,32.06795,118.779216,190,145,40,25,11,0,5,0,1022,70,3,20141228180000
564,"Ruijin Road , Nanjing",,32.029321,118.80817,185,112,13,29,22,0,12,-1,1022,41,5,20141228180000
565,"Xuanwu Lake, Nanjing",,32.075423,118.800188,117,64,23,35,17,0,8,-1,1029,53,2,20141228180000
566,"Olympic Center, Nanjing",,32.007171,118.742217,180,147,23,32,4,0,0,0,1026,100,1,20141228180000
567,"Xianlin University Town , Nanjing",,32.106958,118.919882,168,145,19,42,21,0,1,0,1026,93,1,20141228180000
568,Nanjing,,32.058179,118.802061,172,118,32,33,15,0,7,1,1021,66,4,20141228180000
569,"Shangfang hill , Suzhou",,31.24502,120.565211,97,62,27,16,9,0,11,1,1029,50,3,20141228180000
570,"Wuzhong District , Suzhou",,31.268105,120.61717,114,65,27,32,15,0,9,-1,1031,50,5,20141228180000
571,"Suzhou New District , Suzhou",,31.297277,120.547262,155,64,16,33,13,0,6,3,1026,81,0,20141228180000
572,"Suzhou Industrial Area, Suzhou",,31.307603,120.673257,152,69,29,34,14,0,8,2,1026,66,1,20141228180000
573,"Xiangcheng district, Suzhou",,31.368674,120.645209,107,42,23,14,12,0,11,1,1029,50,3,20141228180000
574,Suzhou,,31.296701,120.589493,176,112,28,56,21,0,8,1,1021,62,2,20141228180000
575,"South suburb , Nantong",,31.957836,120.917218,127,63,35,7,14,0,8,0,0,53,3,20141228180000
576,"Xinghu park, Nantong",,31.927873,120.944254,206,120,37,40,41,0,9,0,0,54,4,20141228180000
577,"Zilang school, Nantong",,32.039638,120.814358,151,66,31,16,13,0,8,0,0,53,3,20141228180000
578,Nantong,,31.978005,120.898555,213,130,33,42,51,0,7,0,0,57,4,20141228180000
579,Lianyungang,,34.595509,119.226814,152,84,21,27,10,7,8,8,1016,96,0,20141228180000
580,"Hongmen police substation, Lianyungang",,34.588692,119.146693,326,193,33,36,36,0,7,0,1019,49,1,20141228180000
581,"Xugou Nuclear Expert Village , Lianyungang",,34.749957,119.373707,157,131,24,18,25,0,-2,-6,1034,66,0,20141228180000
582,"Hengrui pharmaceutical company, BDA, Lianyungang",,34.697574,119.353668,151,77,27,32,13,0,6,-2,1030,46,1,20141228180000
583,"City Monitoring Station, Lianyungang",,34.586791,119.186929,210,130,29,26,44,0,-2,-6,1034,66,0,20141228180000
584,"Yellow river new village , Xuzhou",,34.271542,117.177241,129,95,23,24,32,0,-3,-7,1034,69,1,20141228180000
585,"Tongshan Veterinary Hospital , Xuzhou",,34.307086,117.197766,152,119,21,23,29,0,-3,-7,1034,69,1,20141228180000
586,"New Town , Xuzhou",,34.213992,117.261718,172,92,35,45,12,0,6,-2,1029,46,0,20141228180000
587,"Taoyuan road, Xuzhou",,34.289822,117.249721,158,60,33,13,21,0,5,-4,1031,39,1,20141228180000
588,"Agricultural Science Academy , Xuzhou",,34.27655,117.299079,174,110,28,41,23,0,1,-2,1029,75,0,20141228180000
589,"Tongshan EPA, Xuzhou",,34.179384,117.171798,-,-,-,-,-,-,-,-,0,-,-,20141228180000
590,Xuzhou,,34.20346,117.289825,206,129,36,42,44,0,0,-2,1027,82,0,20141228180000
591,Yangzhou,,32.39233,119.418446,159,69,10,19,10,5,11,9,0,90,6,20141228180000
592,"Hanjiang Monitoring Station, Yangzhou",,32.374218,119.394484,74,64,48,6,11,0,8,0,0,54,1,20141228180000
593,"No. 4 Hospital, Yangzhou",,32.401394,119.44444,107,72,36,25,17,0,7,0,0,56,1,20141228180000
594,"City Monitoring Station, Yangzhou",,32.406588,119.41591,159,73,30,25,22,0,3,-2,0,64,4,20141228180000
595,"University Town , Wuxi",,31.484752,120.273571,172,104,32,28,17,0,8,1,1021,62,2,20141228180000
596,"Shibei High School , Wuxi",,31.619969,120.279584,107,60,35,17,25,0,11,0,1029,47,3,20141228180000
597,"Yuhong Elementary School , Wuxi",,31.561155,120.249588,165,94,24,36,26,0,7,1,1029,66,2,20141228180000
598,Wuxi,,31.488746,120.31575,194,148,34,48,39,0,8,1,1021,62,2,20141228180000
599,Changzhou,,31.808037,119.979205,172,86,6,22,36,13,11,9,0,88,5,20141228180000
600,"Chengjian School, Changzhou",,31.776476,119.937681,139,63,29,9,17,0,8,0,0,57,4,20141228180000
601,"Changzhou Engineering Institute , Changzhou",,31.806828,119.966724,93,57,31,12,7,0,6,-1,0,57,4,20141228180000
602,"Wujin Monitoring Station, Changzhou",,31.701788,119.939676,159,63,29,23,17,0,7,0,0,64,3,20141228180000
603,"City Monitoring Station, Changzhou",,31.777201,119.979426,163,69,24,29,33,0,10,0,0,52,5,20141228180000
604,Zhenjiang,,32.18597,119.431281,170,79,4,39,15,13,9,8,0,93,5,20141228180000
605,"New District Administrative office , Zhenjiang",,32.186174,119.685021,169,78,34,31,7,0,2,0,1027,87,1,20141228180000
606,"Vocational Education Center , Zhenjiang",,32.212973,119.496253,174,107,44,46,19,0,5,0,1022,70,3,20141228180000
607,"Dantu Monitoring Station , Zhenjiang",,32.130026,119.435432,152,85,32,38,12,0,4,1,1029,81,2,20141228180000
608,"City Monitoring Station, Zhenjiang",,32.202178,119.439766,160,60,31,20,24,0,7,-2,1031,53,5,20141228180000
609,"Gaogang Adminstrative office , Taizhoushi",,32.300768,119.886757,157,62,33,7,13,0,7,0,0,55,3,20141228180000
610,"Students Innovation Park , Taizhoushi",,32.461672,119.892761,114,-,23,8,16,0,4,-1,0,67,2,20141228180000
611,Taizhoushi,,32.453555,119.927852,196,132,38,21,26,0,4,-3,0,56,3,20141228180000
612,"Yancheng power station , Yancheng",,33.400859,120.123067,152,52,38,8,8,0,,,0,,,20141228180000
613,Yancheng,,33.345939,120.168504,144,52,30,5,3,7,11,10,1016,95,4,20141228180000
614,"Wenfeng Middle School , Yancheng",,33.370531,120.134041,158,90,49,9,44,0,,,0,,,20141228180000
615,"BDA Management Committe, Yancheng",,33.393191,120.22978,102,40,30,5,14,0,,,0,,,20141228180000
616,"City Monitoring Station, Yancheng",,33.390623,120.164423,114,61,31,21,12,0,,,0,,,20141228180000
617,Suqian,,33.960666,118.281004,160,87,24,7,5,7,11,10,0,91,6,20141228180000
618,"Suqian College , Suqian",,33.951472,118.298523,114,64,27,25,23,0,0,-5,0,64,3,20141228180000
619,"Suqian Middle School , Suqian",,33.95784,118.249505,127,61,19,22,24,0,5,-4,0,50,3,20141228180000
620,"Suyu District Environmental Protection Agency , Suqian",,33.94932,118.326569,167,72,33,14,25,0,5,-4,0,50,3,20141228180000
621,"City Monitoring Station, Suqian",,33.956982,118.277022,174,89,17,28,27,0,3,-1,0,71,3,20141228180000
622,Taizhou,,28.653436,121.425185,172,95,30,25,5,7,6,3,0,78,2,20141228180000
623,Donghu Liyuan,,30.572324,114.377844,165,114,2,19,6,11,4,1,1029,81,1,20141228180000
624,Yuehu Lake,,30.554662,114.256937,215,85,11,29,11,15,2,-1,1029,81,2,20141228180000
625,Hankou Huaqiao ,,30.61724,114.287652,171,74,13,14,13,9,7,0,1030,61,2,20141228180000
626,Wuchang Ziyang ,,30.530801,114.309438,167,79,13,35,9,7,7,0,1030,61,2,20141228180000
627,Qingshan Ganghua,,30.622435,114.375599,182,88,7,38,33,14,8,-1,1027,53,2,20141228180000
628,Dunkou Xinou,,30.480091,114.162176,173,82,22,28,11,8,6,4,1024,87,1,20141228180000
629,Donghu Gaoxin,,30.48095,114.40724,168,66,29,14,7,9,11,5,1023,67,4,20141228180000
630,Wujianshan,,30.63114,114.135907,181,75,30,27,17,14,8,5,1024,81,2,20141228180000
631,Yuanshun Road,,30.297142,113.858587,164,63,18,11,7,7,7,0,1030,61,2,20141228180000
632,Wuhan,,30.590689,114.310838,166,71,23,32,13,13,6,4,1024,87,2,20141228180000
1190,"Silingsan Factory, Yichang",,30.713288,111.306585,212,109,14,28,60,11,6,0,1031,53,1,20141228180000
1190,"Silingsan Factory, Yichang",,30.713288,111.306585,212,109,14,28,60,11,6,0,1031,53,1,20141228180000
633,Yichang,,30.689528,111.292131,1,1,18,0,0,20,4,1,1031,78,1,20141228180000
1191,"City Library , Jingzhou",,30.31494,112.260844,215,134,22,22,36,16,5,0,1030,61,2,20141228180000
1191,"City Library , Jingzhou",,30.31494,112.260844,215,134,22,22,36,16,5,0,1030,61,2,20141228180000
1192,"City committee communist party school, Jingzhou",,30.349004,112.212531,209,145,23,8,21,13,5,0,1030,61,2,20141228180000
1192,"City committee communist party school, Jingzhou",,30.35054,112.20743,209,145,23,8,21,13,5,0,1030,61,2,20141228180000
1193,"kerong EPA, Jingzhou",,30.302965,112.29443,208,109,25,18,24,18,5,0,1030,61,2,20141228180000
1193,"kerong EPA, Jingzhou",,30.302965,112.29443,208,109,25,18,24,18,5,0,1030,61,2,20141228180000
634,Jingzhou,,30.332608,112.245451,1,1,16,0,0,11,5,2,1031,78,1,20141228180000
634,Jingzhou,,30.332608,112.245451,1,1,16,0,0,11,5,2,1031,78,1,20141228180000
635,Huangshi,,30.19723,115.043908,184,119,4,22,33,16,6,,1032,100,3,20141228180000
635,Huangshi,,30.19723,115.043908,184,119,4,22,33,16,6,,1032,100,3,20141228180000
1194,"Chenjiaying, Huangshi",,30.232823,115.067923,188,127,4,24,50,15,8,,1031,96,3,20141228180000
1195,"Chenjiawan , Huangshi",,30.200422,115.082138,167,91,12,22,19,21,4,,1026,100,2,20141228180000
1196,"Xinxialu, Huangshi",,30.17332,114.954357,183,118,3,26,73,18,9,,1033,96,1,20141228180000
1197,"Tie montian, Huangshi",,30.203885,114.906439,190,114,7,37,2,13,7,,1032,94,2,20141228180000
1198,"BDA, Huangshi",,30.207491,115.031739,199,131,4,30,21,19,8,,1031,96,3,20141228180000
636,Shiyan,,32.627208,110.803311,152,72,23,27,13,6,-4,,960,68,1,20141228180000
636,Shiyan,,32.627208,110.803311,152,72,23,27,13,6,-4,,960,68,1,20141228180000
1199,"Wudang Mountain , Shiyan",,32.392921,111.047655,161,64,21,5,9,8,1,,960,78,1,20141228180000
1200,"Riverside Village , Shiyan",,32.647286,110.785335,191,114,15,60,36,8,1,,960,78,1,20141228180000
1201,"Liujiagou , Shiyan",,32.636732,110.731129,-,-,-,-,-,-,-,,0,-,-,20141228180000
637,Xiangyang,,32.007029,112.128496,260,156,4,37,26,17,3,,1031,84,3,20141228180000
638,Ezhou,,30.389244,114.899884,180,118,22,33,12,16,8,,1035,100,5,20141228180000
638,Ezhou,,30.389244,114.899884,180,118,22,33,12,16,8,,1035,100,5,20141228180000
1203,"City government, Ezhou",,30.391836,114.892822,177,90,8,24,21,12,7,,1039,100,2,20141228180000
1204,"Zhaojiaba, Ezhou",,30.368966,114.90365,178,104,2,27,15,17,7,,1039,100,3,20141228180000
1205,"Fankou BDA, Ezhou",,30.410759,114.818225,171,102,16,18,18,7,10,,1038,88,2,20141228180000
639,Jingmen,,31.033208,112.205093,169,82,20,18,12,13,-1,,1016,80,1,20141228180000
639,Jingmen,,31.033208,112.205093,169,82,20,18,12,13,-1,,1016,80,1,20141228180000
1372,"Zhuyuan primary school, Jingmen",,31.046123,112.207214,195,92,5,32,28,14,2,,1024,91,1,20141228180000
1373,"City government, Jingmen",,31.035297,112.198897,193,153,9,33,39,11,8,,1023,55,2,20141228180000
640,Xiaogan,,30.922089,113.922387,172,101,27,11,10,13,4,,1035,74,1,20141228180000
640,Xiaogan,,30.922089,113.922387,172,101,27,11,10,13,4,,1035,74,1,20141228180000
1206,"wenhua street, Shenyang , Xiaogan",,30.925856,113.92104,166,91,13,12,12,16,10,,1040,63,4,20141228180000
1207,"Dongcheng District , Huludao , Xiaogan",,30.917963,113.943904,210,136,6,10,20,11,11,,1039,77,3,20141228180000
641,Huanggang,,30.45124,114.877378,168,96,9,32,11,12,7,,1039,97,4,20141228180000
641,Huanggang,,30.45124,114.877378,168,96,9,32,11,12,7,,1039,97,4,20141228180000
1208,"Dazhou Island, Huanggang",,30.446205,114.900323,169,89,3,24,7,11,7,,1039,100,3,20141228180000
1209,"Workers Center , Huanggang",,30.469244,114.912504,173,90,6,19,9,15,7,,1039,100,2,20141228180000
642,Xianning,,29.838978,114.327898,160,77,20,12,8,18,-2,,997,82,1,20141228180000
642,Xianning,,29.838978,114.327898,160,77,20,12,8,18,-2,,997,82,1,20141228180000
1210,"Municipal Development and Reform Commission , Xianning",,29.818645,114.328461,171,87,3,17,6,12,7,,1001,62,1,20141228180000
1211,"Xianan District Governement, Xianning",,29.51107,114.181864,-,-,-,-,-,-,-,,0,-,-,20141228180000
1212,"Yangtze River Industrial Park , Xianning",,29.883098,114.32909,181,110,2,27,12,17,-2,,1002,85,1,20141228180000
1213,"Qianshan Park, Xianning",,29.815351,114.328689,174,92,5,18,11,83,-5,,1001,80,1,20141228180000
643,Suizhou,,31.688342,113.388675,200,127,2,8,18,23,9,,1024,75,3,20141228180000
643,Suizhou,,31.688342,113.388675,200,127,2,8,18,23,9,,1024,75,3,20141228180000
1338,"City committee communist party school, Suizhou",,31.725316,113.3648,200,159,11,-,15,10,3,,1025,79,1,20141228180000
1339,"Forestry Bureau, Suizhou",,31.690065,113.383157,189,111,4,15,16,39,9,,1023,57,3,20141228180000
644,Enshi,,30.292138,109.484562,178,86,6,14,6,9,2,,,100,1,20141228180000
644,Enshi,,30.269587,109.493042,178,86,6,14,6,9,2,,,100,1,20141228180000
1374,"State Power Company, Enshi",,30.296275,109.508711,171,89,13,12,25,6,4,,,96,1,20141228180000
645,Xiantao,,30.360228,113.460616,156,98,11,14,12,8,6,,1034,86,5,20141228180000
645,Xiantao,,30.360228,113.460616,156,98,11,14,12,8,6,,1034,86,5,20141228180000
646,Qianjiang,,30.399387,112.905661,168,80,9,14,28,14,2,,1039,89,2,20141228180000
646,Qianjiang,,30.399387,112.905661,168,80,9,14,28,14,2,,1039,89,2,20141228180000
1088,Shennongjia,,31.741307,110.685554,134,55,20,11,9,5,-5,,,60,1,20141228180000
1088,Shennongjia,,31.741307,110.685554,134,55,20,11,9,5,-5,,,60,1,20141228180000
1214,"Xiangcheng Yundong Street, Xiangfan",,32.017716,112.16102,214,111,3,26,17,11,-2,,1031,79,3,20141228180000
1359,"Fancheng Xinhua Road , Xiangfan",,32.0544,112.145224,193,122,4,23,12,13,5,,1031,60,2,20141228180000
655,"City Environmental Monitoring Station, Baotou",,40.657201,109.886738,188,149,18,32,27,33,,,0,,,20141228180000
656,"Donghe EPB, Baotou",,40.586213,110.002224,170,165,19,31,33,21,,,0,,,20141228180000
657,"Baotou shopping mall, Baotou",,40.508334,109.819085,316,230,17,40,57,50,,,0,,,20141228180000
658,"Huilong logistics, Baotou",,40.633436,109.879821,162,137,27,41,27,21,,,0,,,20141228180000
659,Baotou,,40.658597,109.846051,188,149,18,32,27,33,,,0,,,20141228180000
660,"Huatai Automobile Mall, Eerduosi",,39.837048,109.972209,76,76,39,6,5,5,-2,-17,1022,17,3,20141228180000
661,"Olympus Garden, Eerduosi",,39.789171,109.987742,72,76,19,3,2,6,-2,-17,1022,17,3,20141228180000
662,Eerduosi,,39.609284,109.78704,76,76,34,3,6,6,-3,-17,1020,18,5,20141228180000
663,"Tianyi Road, Chifeng",,42.275552,118.88507,61,52,22,10,50,10,-6,-16,1017,27,3,20141228180000
664,"Songshan No.1 Middle School, Chifeng",,42.329307,118.793045,168,98,15,38,57,23,-6,-16,1017,27,3,20141228180000
665,"Hada Street, Chifeng",,42.280714,118.988235,-,-,-,-,-,-,-,-,0,-,-,20141228180000
666,"Songshan Road, Chifeng",,42.171487,118.89501,259,192,19,13,57,30,-6,-16,1017,27,3,20141228180000
667,Chifeng,,42.259752,118.893027,259,192,22,38,57,30,-6,-16,1017,27,3,20141228180000
674,Fuzhou,,26.071406,119.301294,89,34,28,9,1,7,10,7,1022,82,3,20141228180000
675,"Xidong, Xiamen",,24.815345,118.161848,57,17,14,6,2,7,13,8,1021,72,3,20141228180000
676,"Hongwen, Xiamen",,24.473969,118.156281,129,54,18,29,4,7,13,8,1021,72,3,20141228180000
677,"Gulangyu, Xiamen",,24.443168,118.068571,144,53,25,13,12,6,12,8,1021,77,1,20141228180000
678,"Huli, Xiamen",,24.51235,118.099146,95,32,17,11,3,7,13,8,1021,72,3,20141228180000
679,Xiamen,,24.477187,118.094402,134,55,25,19,13,7,13,8,1021,72,3,20141228180000
680,"Qingyuan Montain, Quanzhou",,24.939503,118.598337,61,27,23,4,1,9,12,8,1021,77,1,20141228180000
681,"Tushan Street, Quanzhou",,24.90867,118.586397,68,29,29,12,3,3,12,8,1021,77,1,20141228180000
682,"Wanan, Quanzhou",,24.304154,118.070903,119,55,26,25,4,8,13,8,1021,72,3,20141228180000
683,Quanzhou,,24.87179,118.68001,68,55,29,12,3,9,12,8,1021,77,1,20141228180000
687,"Jiancaoping, Taiyuan",,37.887889,112.528383,182,111,21,1,95,19,-7,-15,1017,54,3,20141228180000
688,"Jianhe, Taiyuan",,37.910779,112.579258,196,198,17,22,74,28,-8,-15,1017,58,2,20141228180000
689,"Shanglan, Taiyuan",,38.011589,112.440679,57,37,13,116,37,13,-8,-15,1017,58,2,20141228180000
690,"Jinyuan, Taiyuan",,37.713164,112.475552,183,101,25,16,74,25,-8,-15,1017,58,2,20141228180000
691,"Xiaodian, Taiyuan",,37.782137,112.483533,161,78,11,16,76,27,-8,-15,1017,58,2,20141228180000
692,"Taoyuan, Taiyuan",,37.869752,112.543332,162,86,11,32,101,24,-8,-15,1017,58,2,20141228180000
693,"Wucheng, Taiyuan",,37.819998,112.576252,168,100,11,15,99,18,-8,-15,1017,58,2,20141228180000
694,"Nanzhai, Taiyuan",,37.985902,112.555312,134,66,17,13,45,16,-8,-15,1017,58,2,20141228180000
695,"Jinsheng, Taiyuan",,37.781205,112.494494,144,74,21,13,56,24,-8,-15,1017,58,2,20141228180000
696,Taiyuan,,37.871115,112.555178,162,86,11,32,101,24,-7,-15,1017,54,3,20141228180000
697,"Monitoring station, Changzhi",,36.194062,113.10389,182,75,21,17,69,26,,,0,,,20141228180000
698,"Auditing bureau, Changzhi",,36.212787,113.095221,180,88,34,45,7,40,,,0,,,20141228180000
699,"Qinghua station, Changzhi",,36.154328,113.116385,154,74,16,31,23,20,,,0,,,20141228180000
700,"No.8 middle school, Changzhi",,36.185451,113.099481,196,110,36,28,64,30,,,0,,,20141228180000
701,Changzhi,,36.195553,113.12292,196,110,36,28,64,30,,,0,,,20141228180000
702,"Yungang Hotel, Datong",,40.076997,113.278079,87,66,48,8,12,14,-3,-15,1026,26,2,20141228180000
703,"college of education, Datong",,40.085608,113.27808,151,63,21,14,51,19,-3,-15,1026,26,2,20141228180000
704,Datong,,40.078016,113.307143,127,66,24,13,20,16,-3,-15,1026,26,2,20141228180000
705,"Technical Schools, Linfen",,36.07131,111.509046,202,114,7,15,76,61,-4,-15,0,40,3,20141228180000
706,"Municipal party committee, Linfen",,36.087425,111.508771,222,128,10,18,51,55,-4,-15,0,40,3,20141228180000
1073,"City Monitoring Station, Linfen",,36.097676,111.518739,306,229,4,17,59,69,-4,-15,0,40,3,20141228180000
707,"South Airport, Linfen",,36.041614,111.497968,171,67,11,14,69,44,-4,-15,0,40,3,20141228180000
708,Linfen,,36.087944,111.525098,306,229,15,18,76,69,-4,-15,0,40,3,20141228180000
709,"City center, Yangquan",,37.848012,113.578636,155,94,34,29,75,10,-7,-14,1017,58,2,20141228180000
710,Yangquan,,37.857475,113.586921,155,94,34,29,75,10,-7,-14,1017,58,2,20141228180000
711,"Water Company, Jincheng",,35.504787,112.857245,152,102,8,15,51,30,0,-15,1024,31,4,20141228180000
712,"Baiyun shopping mall, Jincheng",,35.492858,112.841566,139,85,12,13,63,21,0,-15,1024,31,4,20141228180000
713,"City EPA, Jincheng",,35.488422,112.858528,155,109,5,19,54,10,0,-15,1024,31,4,20141228180000
1316,Xinxiang,,35.302343,113.93288,17,75,8,19,47,13,5,,979,28,4,20141228190000
714,"Institute of Technology, Jincheng",,35.484844,112.878073,164,117,14,12,56,8,5,-15,1024,11,2,20141228180000
715,"No.1 middle school, Jincheng",,35.478725,112.838636,137,75,9,16,53,6,0,-15,1024,31,4,20141228180000
716,Jincheng,,35.490287,112.85794,155,109,12,19,54,30,5,-15,1024,31,4,20141228180000
718,"District Government, Shuozhou",,39.320857,112.430641,59,55,6,9,23,5,-4,-16,1025,23,1,20141228180000
719,"City EPA, Shuozhou",,39.331495,112.407997,61,60,16,4,20,5,-4,-16,1025,23,1,20141228180000
720,"No.2 middle school, Shuozhou",,39.377963,112.432877,53,57,40,24,61,7,-4,-16,1025,23,1,20141228180000
721,Shuozhou,,39.332756,112.439672,93,60,36,9,23,7,-4,-16,1025,23,1,20141228180000
722,"Jinlun compound, Jinzhong",,37.697891,112.771017,154,88,7,13,52,20,-7,-14,1017,58,2,20141228180000
723,"Hydraulic Component Factory, Jinzhong",,37.688355,112.725844,159,89,9,23,51,21,-7,-14,1017,58,2,20141228180000
724,"Nandu compound, Jinzhong",,37.713148,112.732036,155,91,4,26,72,26,-7,-14,1017,58,2,20141228180000
725,"Yuci district government, Jinzhong",,37.698228,112.714167,152,72,3,19,52,26,-7,-14,1017,58,2,20141228180000
726,Jinzhong,,37.687705,112.759187,159,91,9,26,72,26,-7,-14,1017,58,2,20141228180000
727,"Yuncheng Middle School, Yuncheng",,35.012345,111.003215,179,126,15,17,40,48,0,-12,1022,28,1,20141228180000
728,"Yudou BDA, Yuncheng",,35.05065,111.029571,177,130,19,18,46,32,0,-12,1022,28,1,20141228180000
729,"Yuncheng college, Yuncheng",,35.038753,111.051992,154,80,19,11,11,15,9,-11,1024,13,1,20141228180000
730,"Regional Technical School, Yuncheng",,35.028727,110.974076,277,176,19,21,54,49,0,-12,1022,28,1,20141228180000
731,"Airport new district, Yuncheng",,35.084515,111.05339,178,123,24,23,48,38,0,-12,1022,28,1,20141228180000
732,Yuncheng,,35.025675,111.013344,277,176,24,23,54,49,0,-12,1022,28,1,20141228180000
733,"Jiyin, Xinzhou",,38.413292,112.742432,76,57,12,24,24,21,-7,-14,1017,58,2,20141228180000
734,"BDA, Xinzhou",,38.450069,112.736723,-,83,9,32,54,14,-7,-14,1017,58,2,20141228180000
735,"Convention Center, Xinzhou",,38.492043,112.709772,189,118,14,18,27,55,-7,-14,1017,58,2,20141228180000
736,Xinzhou,,38.417244,112.740742,189,118,14,32,54,55,-7,-14,1017,58,2,20141228180000
737,"City EPA, Luliang",,37.522189,111.144365,-,-,-,-,-,-,-,-,0,-,-,20141228180000
738,"Soybean factory, Luliang",,37.51689,111.135101,159,-,9,20,74,22,-3,-14,1028,26,1,20141228180000
739,"Water Company, Luliang",,37.53394,111.138834,181,155,-,15,64,-,-3,-14,1028,26,1,20141228180000
740,Luliang,,37.519091,111.150681,181,155,9,20,74,22,-3,-14,1028,26,1,20141228180000
741,"City government, Sanmenxia",,34.776251,111.198781,149,53,31,37,31,21,-2,-10,1021,44,1,20141228180000
743,"BDA, Sanmenxia",,34.800434,111.204332,144,57,32,29,28,13,-2,-10,1021,44,1,20141228180000
744,Sanmenxia,,34.771506,111.206129,149,53,31,37,31,21,-2,-10,1021,44,1,20141228180000
745,"Food Factory, Changchun",,43.919094,125.329521,174,91,26,28,48,11,-15,-18,1014,78,2,20141228180000
746,"Bus Factory, Changchun",,43.912337,125.293431,174,81,29,29,55,13,-15,-18,1014,78,2,20141228180000
747,"Institute of Posts and Telecommunications, Changchun",,43.842368,125.285005,172,86,16,27,15,14,-15,-18,1014,78,2,20141228180000
748,"Laodong Park, Changchun",,43.877293,125.371519,178,78,18,31,23,11,-15,-18,1014,78,2,20141228180000
749,"Forest area, Changchun",,43.871825,125.331519,161,74,18,20,24,11,-15,-18,1014,78,2,20141228180000
750,"Jinyuetan, Changchun",,43.79031,125.460561,154,61,35,10,12,7,-15,-18,1014,78,2,20141228180000
751,"Shuaiwanzi, Changchun",,43.552321,125.639086,149,59,30,9,3,12,-15,-18,1014,78,2,20141228180000
752,"Economic Development Zone Sanitation Department, Changchun",,43.869221,125.42365,165,89,25,26,11,12,-15,-18,1014,78,2,20141228180000
753,"High-tech Zone Administrative Committee, Changchun",,43.819064,125.256375,178,83,38,23,6,13,-15,-18,1014,78,2,20141228180000
754,"Daishan Park, Changchun",,43.852365,125.223399,169,77,45,33,21,13,-15,-18,1014,78,2,20141228180000
755,Changchun,,43.819415,125.329977,172,86,16,27,15,14,-15,-18,1014,78,2,20141228180000
756,"Hadawan, Jilin",,43.888081,126.545727,176,94,21,20,5,11,-13,-14,0,92,2,20141228180000
757,"Fengman, Jilin",,43.768169,126.678802,99,46,37,6,6,5,-13,-14,0,92,2,20141228180000
758,"Electric Power College, Jilin",,43.827403,126.502281,157,70,36,16,9,10,-13,-14,0,92,2,20141228180000
759,"Jiangnan Park, Jilin",,43.83531,126.556519,142,60,29,20,15,8,-13,-14,0,92,2,20141228180000
760,"Dongjuzi, Jilin",,43.838597,126.590068,139,57,28,17,8,6,-13,-14,0,92,2,20141228180000
763,Jilin,,43.840137,126.555262,181,102,37,30,8,11,-13,-14,0,92,2,20141228180000
764,"Lingbei, Haerbin",,45.756979,126.548008,186,99,13,23,26,20,-13,-15,1014,85,3,20141228180000
765,"Songbei Commercial University, Haerbin",,45.818624,126.566963,177,93,13,14,24,14,-13,-15,1014,85,3,20141228180000
766,"Acheng huining, Haerbin",,45.544286,126.985183,182,103,17,12,5,11,-13,-15,1014,85,3,20141228180000
767,"Nangang College Street, Haerbin",,45.724121,126.604906,195,123,19,13,33,13,-13,-15,1014,85,3,20141228180000
768,"Taiping Hongwei Park, Haerbin",,45.775332,126.695101,212,125,8,34,52,14,-13,-15,1014,85,3,20141228180000
769,"Daowai Chengde Square, Haerbin",,45.768637,126.640955,189,116,9,35,26,13,-13,-15,1014,85,3,20141228180000
770,"Xiangfang Hongqi Street, Haerbin",,45.733936,126.691083,193,116,14,20,30,17,-13,-15,1014,85,3,20141228180000
771,"Dongli Heping Road, Haerbin",,45.727765,126.651974,199,122,9,27,48,7,-13,-15,1014,85,3,20141228180000
772,"Daoli Jianguo Road, Haerbin",,45.749715,126.59891,187,103,14,25,37,14,-13,-15,1014,85,3,20141228180000
773,"Pingfang Light Factory, Haerbin",,45.611951,126.620898,177,97,2,14,13,13,-13,-15,1014,85,3,20141228180000
774,"Hulan Normal College, Haerbin",,45.983745,126.616553,170,81,18,22,14,17,-13,-15,1014,85,3,20141228180000
775,"Provincial Academy of Agricultural Sciences, Haerbin",,45.686141,126.626517,183,103,10,17,28,9,-13,-15,1014,85,3,20141228180000
776,Haerbin,,45.805757,126.541007,177,93,13,14,24,14,-13,-15,1014,85,3,20141228180000
777,"Anju Compound, Qiqihaer",,47.365672,123.937016,177,102,28,21,30,20,-20,-22,1016,74,0,20141228180000
778,"Farming Vehicule Factory, Qiqihaer",,47.326793,123.961427,200,27,16,22,10,16,-10,-12,1021,79,2,20141228180000
779,"Fuqu EPA, Qiqihaer",,47.1853,123.62322,195,114,23,16,3,29,-13,-14,1026,84,2,20141228180000
780,"City Center Square, Qiqihaer",,47.343096,123.96192,72,29,61,7,43,8,-14,-18,1027,57,1,20141228180000
1217,"City Environmental Monitoring Station, Qiqihaer",,47.303639,123.957551,93,44,16,1,15,5,-9,-14,1028,56,1,20141228180000
781,Qiqihaer,,47.356387,123.924736,181,71,20,21,55,15,-10,-15,1016,53,2,20141228180000
782,"Saertu District, Daqing",,46.582368,125.152904,187,106,23,4,32,16,-6,-7,1023,92,1,20141228180000
783,"Datong District, Daqing",,46.036786,124.842115,195,108,14,12,28,19,-7,-8,1022,88,0,20141228180000
784,"Honggang District, Daqing",,46.418381,124.88973,191,98,17,21,13,15,-10,-11,1015,85,2,20141228180000
785,"Longfeng District, Daqing",,46.535426,125.107043,178,95,16,20,17,13,-12,-13,1015,88,2,20141228180000
786,"Ranghulu District, Daqing",,46.635123,124.85648,87,32,28,7,8,5,-12,-17,1028,55,4,20141228190000
787,Daqing,,46.591414,125.110838,191,112,12,8,13,17,-14,-16,1017,84,1,20141228190000
788,"Locomotive Factory, Mudanjiang",,44.610589,129.652672,250,155,23,32,37,25,-11,-15,1026,58,0,20141228190000
789,"No. 1 hospital, Mudanjiang",,44.567775,129.617043,187,113,27,30,55,24,-12,-14,1020,74,1,20141228190000
1220,"EPA building, Mudanjiang",,44.567777,129.620658,0,57,21,12,10,6,-14,-20,1027,52,2,20141228190000
1221,"Cultural Square, Mudanjiang",,44.586388,129.623164,134,57,13,20,29,9,-11,-17,1028,47,3,20141228190000
790,Mudanjiang,,44.553619,129.640246,173,88,36,28,29,35,-13,-15,1025,75,1,20141228190000
791,"Mingzhu Plaza, Hefei",,31.782847,117.201512,157,67,18,50,13,13,6,1,1029,70,1,20141228190000
792,"Sanli Street, Hefei",,31.874637,117.312573,175,105,22,66,11,11,6,0,1029,66,1,20141228190000
793,"Hupo Compound, Hefei",,31.868583,117.264491,188,84,17,22,7,13,2,-1,1026,81,2,20141228190000
794,"Dongpu Reservoir, Hefei",,31.90319,117.165584,144,55,25,14,6,3,-1,-3,1031,86,2,20141228190000
795,"Changjiang middle road, Hefei",,31.855185,117.255484,132,52,4,9,12,8,7,-2,1029,53,3,20141228190000
796,"Luyang District, Hefei",,31.941771,117.271504,159,70,6,1,18,9,13,-2,1022,36,6,20141228190000
797,"Yaohai District, Hefei",,31.856595,117.341644,157,71,17,20,13,7,4,-2,1031,65,5,20141228190000
798,"Baohe District, Hefei",,31.793644,117.307554,168,91,59,22,13,10,3,1,1028,87,1,20141228190000
799,"Lake district, Hefei",,31.736619,117.283501,117,62,3,10,6,7,7,-3,1021,49,4,20141228190000
800,"High-tech zone, Hefei",,31.849755,117.129624,151,54,11,6,6,8,14,-4,1021,29,9,20141228190000
802,"Hudong Road No.4 Elementary School, Maanshan",,31.684121,118.511017,164,88,18,26,8,13,5,3,1026,87,3,20141228190000
803,"Tianping Garment Factory, Maanshan",,31.64197,118.488043,114,43,26,12,20,9,5,-2,1032,61,5,20141228190000
804,"City education base, Maanshan",,31.711216,118.648913,173,92,10,8,5,8,8,2,1026,66,4,20141228190000
805,"Cihu No.2 elementary school, Maanshan",,31.748546,118.515729,139,63,21,31,34,16,12,-1,1022,41,5,20141228190000
806,"Maanshan steel factory power plant, Maanshan",,31.690864,118.48528,163,85,23,26,9,13,0,0,1026,100,1,20141228190000
807,Maanshan,,31.668461,118.511939,188,116,36,26,39,16,6,1,1021,70,4,20141228190000
808,"Science Innovation Center, Wuhu",,31.417056,118.375406,127,43,18,16,7,13,-1,-3,1032,86,2,20141228190000
809,"No.4 Water Plant, Wuhu",,31.315914,118.376231,119,53,17,20,12,13,5,-2,1032,61,5,20141228190000
810,"Monitoring station, Wuhu",,31.348955,118.358154,142,58,15,17,4,6,5,-2,1032,61,5,20141228190000
811,"Wuqierling Factory, Wuhu",,31.382068,118.407639,129,55,35,15,7,3,5,-2,1032,61,5,20141228190000
812,Wuhu,,31.351007,118.438322,157,72,19,28,11,19,2,1,1027,93,0,20141228190000
1331,Chuzhou,,32.299549,118.322508,162,88,19,10,8,13,10,,1015,62,8,20141228190000
813,"Jiangxi Foreign Affairs Office, Nanchang",,28.678027,115.903436,152,75,15,19,20,8,9,0,1030,41,2,20141228190000
814,"Provincial forestry company, Nanchang",,28.69065,115.898546,162,84,16,13,11,8,7,7,1028,94,2,20141228190000
815,"Institute of Forestry, Nanchang",,28.731518,115.82478,139,67,22,13,19,10,8,-1,1028,41,2,20141228190000
816,"Jingdong town government, Nanchang",,28.680659,115.972736,147,67,19,12,16,6,6,-1,1029,54,1,20141228190000
817,"Contruction Industry College, Nanchang",,28.684018,115.865891,76,32,17,16,17,8,9,0,1030,41,2,20141228190000
818,"Xianghu, Nanchang",,28.637831,115.9033,156,42,24,25,25,11,7,-1,1028,47,2,20141228190000
819,"Martial Arts School, Nanchang",,28.794538,115.752876,137,37,21,22,25,7,6,-1,1029,54,1,20141228190000
820,"Petrifaction Company, Nanchang",,28.608634,115.912999,151,76,21,14,21,7,9,0,1030,41,2,20141228190000
821,"Provincial Station, Nanchang",,28.677155,115.941896,182,64,33,28,15,13,12,0,1025,30,4,20141228190000
822,Nanchang,,28.679883,115.863022,132,64,19,9,16,11,11,4,1026,53,3,20141228190000
823,"Lushan Mountain Observatory, Jiujiang",,29.5751,115.998926,102,53,36,17,10,8,2,-5,1029,48,0,20141228190000
824,"Shili, Jiujiang",,29.668119,115.992381,80,49,27,20,20,13,0,-11,1030,30,2,20141228190000
825,"Maoshantou, Jiujiang",,29.700819,115.967192,102,41,10,14,13,7,2,-5,1030,49,1,20141228190000
826,"Xiyuan, Jiujiang",,29.723929,115.998206,158,71,12,36,46,10,1,-6,1029,48,1,20141228190000
827,"Wuqierling Factory, Jiujiang",,29.640802,116.022713,95,46,37,12,141,9,1,-8,1030,39,6,20141228190000
1317,Puyang,,35.761825,115.035106,194,125,3,36,28,19,-2,,1031,59,4,20141228190000
828,"Water Scientific Research Institute, Jiujiang",,29.679179,116.068081,59,31,17,12,14,9,4,-8,1027,28,2,20141228190000
829,"Zonghe Industrial Park, Jiujiang",,29.592047,115.916335,59,54,23,22,19,3,2,-5,1030,49,1,20141228190000
830,"Petrochemical General Plant, Jiujiang",,29.738832,116.09463,68,31,18,17,15,8,6,-4,1028,36,1,20141228190000
831,Jiujiang,,29.70254,116.007025,162,99,34,47,43,12,3,-5,1027,43,2,20141228190000
1332,"Feiyu, Xinyu",,27.844697,115.000136,72,32,11,17,14,,8,,1030,78,1,20141228190000
1333,"Beigang, Xinyu",,27.932491,115.103767,74,33,5,16,6,,5,,1030,89,5,20141228190000
1334,"No.2 water factory, Xinyu",,27.839577,114.933915,99,52,3,22,35,,6,,1028,73,3,20141228190000
1335,"Bureau of Meteorology, Xinyu",,27.81048,114.936507,93,50,15,36,34,,12,,1027,43,3,20141228190000
1336,Xinyu,,27.814351,114.922194,99,39,5,21,9,,5,,1030,89,5,20141228190000
832,"Tobacco Factory, Zhengzhou",,34.753419,113.687131,129,95,23,24,27,9,9,-14,1021,19,3,20141228190000
833,"Textile Machinery Factory, Zhengzhou",,34.773366,113.647067,286,191,12,40,33,24,-2,-4,1031,86,1,20141228190000
834,"Banking College, Zhengzhou",,34.800856,113.681126,159,91,15,11,25,13,14,-14,1020,13,8,20141228190000
835,"Water Supply Company, Zhengzhou",,34.807188,113.571089,252,243,19,44,29,21,2,-8,1032,48,2,20141228190000
836,"Economic Development Zone Management Committee, Zhengzhou",,34.717652,113.733182,259,206,22,14,51,12,-3,-7,1030,74,0,20141228190000
837,"No. 47 middle school, Zhengzhou",,34.772211,113.74009,384,496,30,51,69,25,3,-3,1028,65,1,20141228190000
