locationid,stationname,chinesename,latitude,longitude,pm25,pm10,o3,no2,so2,co,temperature,dewpoint,pressure,humidity,wind,est_time
1,Dongcheng Dongsi,,39.9304,116.423239,97,65,9,22,11,7,2,-4,1033,65,1,20141106170000
2,"Temple of Heaven, Dongcheng",,39.887403,116.41324,119,64,8,26,2,6,2,-4,1033,65,1,20141106170000
3,West Park officials,,39.930333,116.345162,119,59,9,29,11,7,2,-4,1033,65,1,20141106170000
4,West Wanshou Nishinomiya,,39.879354,116.358183,137,66,8,33,5,7,2,-4,1033,65,1,20141106170000
5,Chaoyang Olympic Sports Center,,39.983406,116.403253,116,62,7,33,10,6,2,-4,1033,65,1,20141106170000
6,Chaoyang Agricultural Exhibition Hall,,39.938331,116.46715,119,62,13,33,16,7,2,-4,1033,65,1,20141106170000
7,Haidian Wanliu,,39.988245,116.293062,129,68,3,30,9,7,2,-4,1033,65,1,20141106170000
8,The Haidian northern New Area,,40.091313,116.180194,136,60,6,17,2,7,2,-4,1033,65,1,20141106170000
9,Haidian Beijing Botanical Garden,,40.003252,116.213097,131,62,15,28,3,4,2,-4,1033,65,1,20141106170000
10,Fengtai garden,,39.86423,116.285037,156,74,7,32,5,7,2,-4,1033,65,1,20141106170000
11,Fengtai Yungang,,39.82535,116.152237,154,69,8,29,7,7,2,-4,1033,65,1,20141106170000
12,Shijingshan city,,39.915286,116.190144,151,70,7,32,6,9,2,-4,1033,65,1,20141106170000
13,"Fangshan, Liangxiang",,39.743357,116.14225,154,68,6,28,5,8,2,-4,1033,65,1,20141106170000
14,"Huangcunzhen, Daxing",,39.719389,116.410219,156,73,6,30,6,8,2,-4,1033,65,1,20141106170000
15,BDA,,39.796197,116.51197,149,69,15,27,8,8,2,-4,1033,65,1,20141106170000
16,Tongzhou New Town,,39.887113,116.6689,154,79,7,31,9,10,2,-4,1033,65,1,20141106170000
17,Shunyi New Town ,,40.128111,116.660908,161,80,7,25,2,7,2,-4,1033,65,1,20141106170000
18,Changping Town,,40.218245,116.236084,57,20,18,5,3,4,2,-4,1033,65,1,20141106170000
19,"Mentougou, Longquan Town",,39.938397,116.112323,74,30,8,19,2,4,2,-4,1033,65,1,20141106170000
20,Pinggu town,,40.144433,117.106563,74,31,17,9,3,7,2,-4,1033,65,1,20141106170000
21,Huairou town,,40.329104,116.63387,26,23,15,7,2,4,2,-4,1033,65,1,20141106170000
22,The town of Miyun,,40.371186,116.838053,82,25,11,9,2,7,2,-4,1033,65,1,20141106170000
23,Yanqing town,,40.454217,115.978106,80,35,18,7,5,9,2,-4,1033,65,1,20141106170000
24,Changping Dingling,,40.293269,116.226108,32,12,20,1,2,2,2,-4,1033,65,1,20141106170000
25,Badaling Northwest,,40.36623,115.994146,23,7,18,7,3,2,2,-4,1033,65,1,20141106170000
26,Miyun Reservoir,,40.500157,116.91701,53,15,24,4,2,2,2,-4,1033,65,1,20141106170000
27,"Donggaocun Zhen, Pinggu",,40.10142,117.126556,99,52,22,15,7,6,2,-4,1033,65,1,20141106170000
28,"Yongledianzhen, Tongzhou",,39.713192,116.78905,155,76,7,34,5,8,2,-4,1033,65,1,20141106170000
29,"Yufazhen, Daxing",,39.521203,116.306026,154,67,12,16,2,7,2,-4,1033,65,1,20141106170000
30,"Liulihezhen, Fangshan",,39.581169,116.006089,161,82,12,21,2,5,2,-4,1033,65,1,20141106170000
31,"Qianmen E St, Dongcheng",,39.900402,116.401242,152,69,2,29,2,8,2,-4,1033,65,1,20141106170000
32,Yongdingmen Inner St,,39.877401,116.400238,152,72,4,36,10,9,2,-4,1033,65,1,20141106170000
33,Xizhimen N St,,39.955352,116.355187,126,73,4,33,8,8,2,-4,1033,65,1,20141106170000
34,South Ring Road,,39.857377,116.37421,154,70,2,34,4,9,2,-4,1033,65,1,20141106170000
35,East Fourth Ring Road,,39.940273,116.489075,138,67,3,38,4,10,2,-4,1033,65,1,20141106170000
36,Beijing,,39.955906,116.474246,114,65,9,22,11,7,2,-4,1033,65,1,20141106170000
37,Putuo,,31.232979,121.415378,196,113,41,30,12,10,15,13,1025,88,3,20141106170000
38,Yangpu Sipiao,,31.263795,121.540311,192,97,46,22,9,10,15,13,1025,88,3,20141106170000
39,Shanghai Normal College Primary Division,,31.199031,121.487719,190,89,48,24,6,12,15,13,1025,88,3,20141106170000
40,Dianshan Lake,,31.091338,120.982293,218,112,33,14,11,13,15,13,1025,88,3,20141106170000
41,Hongkou Liangcheng,,31.298906,121.47155,187,92,46,21,12,13,15,13,1025,88,3,20141106170000
42,Jingan,,31.224251,121.429637,192,100,40,31,11,11,15,13,1025,88,3,20141106170000
43,Shanghai Normal University,,31.163531,121.416643,192,92,47,25,10,13,15,13,1025,88,3,20141106170000
44,Chuansha,,31.188626,121.707342,195,100,-,22,9,-,15,13,1025,88,3,20141106170000
45,Zhangjiang,,31.204896,121.581215,191,96,46,28,13,9,15,13,1025,88,3,20141106170000
46,Lingshan Road,,31.226286,121.537317,191,95,47,19,8,8,15,13,1025,88,3,20141106170000
1080,City average,,31.228451,121.478227,192,97,45,25,10,11,15,13,1025,88,3,20141106170000
47,Shanghai,,31.202842,121.453493,185,92,48,25,6,10,15,13,1025,88,3,20141106170000
48,Guangzhou,,23.138517,113.263701,127,51,8,19,5,14,21,16,1019,73,4,20141106170000
49,"Huadu town, Guangzhou",,23.389121,113.220062,129,60,14,12,5,2,20,16,1019,78,3,20141106170000
50,"Luogang Zhenlong, Guangzhou",,23.308027,113.567032,95,47,16,13,2,12,21,16,1019,73,4,20141106170000
51,"LuHu, Guangzhou",,23.151743,113.281842,68,49,5,19,10,14,21,16,1019,73,4,20141106170000
52,"Tianhu, Guangzhou",,23.647433,113.629715,132,46,21,6,4,9,20,16,1019,78,3,20141106170000
53,"Zhudong, Guangzhou",,23.418406,113.078552,134,54,15,12,12,6,20,16,1019,78,3,20141106170000
54,"Modiesha station, Guangzhou",,23.103814,113.338238,76,49,14,21,5,9,20,16,1019,78,3,20141106170000
55,Zhuhai,,22.2677,113.581765,155,69,14,33,7,13,22,20,1017,88,5,20141106170000
1075,"Huicai technical school, Foshan",,23.039667,113.105492,155,60,5,24,12,11,20,16,1019,78,3,20141106170000
56,"Sanshuiyun donghai, Foshan",,23.185788,112.865368,134,52,10,14,19,12,20,16,1019,78,3,20141106170000
57,"Nanhai Bureau of Meteorology, Foshan",,23.046836,113.145764,127,47,5,22,6,16,20,16,1019,78,3,20141106170000
58,"Sanshui Monitoring Station, Foshan",,23.163551,112.890843,149,52,8,17,15,11,20,16,1019,78,3,20141106170000
1087,Foshan,,23.018995,113.126899,127,47,5,22,6,16,20,16,1019,78,3,20141106170000
59,"Ronggui street committee, Shunde",,22.762729,113.258356,153,58,3,23,4,15,20,16,1019,78,3,20141106170000
60,Shunde,,22.80246,113.298701,147,65,2,22,8,9,-,-,0,-,-,20141106170000
61,"Donghu, Jiangmen",,22.590411,113.087351,163,69,2,19,14,10,22,20,1017,88,5,20141106170000
62,"Taoyuan Atmosphere Premier Station, Jiangmen",,22.72489,112.93404,151,67,6,21,14,14,22,20,1017,88,5,20141106170000
63,Jiangmen,,22.576047,113.087351,163,70,2,19,14,10,22,20,1017,88,5,20141106170000
64,"Kengkouzi station, Zhaoqing",,23.158865,112.570287,153,57,15,13,13,11,20,16,1019,78,3,20141106170000
65,"Mugangzi station, Zhaoqing",,23.067961,112.431934,159,52,13,11,8,15,20,16,1019,78,3,20141106170000
67,Zhaoqing,,23.044571,112.470346,158,65,15,11,10,9,20,16,1019,78,3,20141106170000
68,"Jinguo Bay, Huizhou",,22.937223,114.385567,144,64,41,8,5,8,23,17,1018,69,3,20141106170000
1091,"Xiabu, Huizhou",,23.077493,114.410275,134,59,22,7,6,4,23,17,1018,69,3,20141106170000
69,"Xijiao, Huizhou",,23.338178,114.112867,114,38,30,7,10,9,23,17,1018,69,3,20141106170000
70,"Jiangbei, Huizhou",,23.111706,114.415274,114,49,30,10,7,4,23,17,1018,69,3,20141106170000
71,"Huiyang chuanhu, Huizhou",,22.814485,114.329292,149,58,22,11,6,11,23,17,1018,69,3,20141106170000
72,"Daya bay management committee, Huizhou",,22.739283,114.53631,154,67,23,17,4,7,23,17,1018,69,3,20141106170000
73,Huizhou,,23.109349,114.421164,114,49,30,10,7,4,23,17,1018,69,3,20141106170000
74,"Guancheng No.2 water plant, Dongguan",,23.057294,113.753254,147,48,16,12,17,10,23,17,1018,69,3,20141106170000
75,"Dongcheng Shijing, Dongguan",,23.010039,113.799529,132,45,19,9,12,8,23,17,1018,69,3,20141106170000
76,"Nancheng Xiping, Dongguan",,22.963051,113.743494,139,45,10,14,9,9,23,17,1018,69,3,20141106170000
77,"Nancheng Yuanling, Dongguan",,23.025058,113.751308,134,47,20,14,12,10,23,17,1018,69,3,20141106170000
78,Dongguan,,23.017813,113.756958,134,47,20,14,12,10,23,17,1018,69,3,20141106170000
79,"Zimaling, Zhongshan",,22.505112,113.407183,129,57,1,17,14,12,22,20,1017,88,5,20141106170000
80,"Yangtze River tourist area, Zhongshan",,22.48589,113.439054,152,54,2,29,7,14,22,20,1017,88,5,20141106170000
81,"Huabai Park, Zhongshan",,22.51839,113.374362,119,57,3,20,11,17,22,20,1017,88,5,20141106170000
82,Zhongshan,,22.513997,113.398277,129,57,1,17,14,12,22,20,1017,88,5,20141106170000
83,"No.8 middle school, Shaoguan",,24.767777,113.583537,112,49,20,8,7,10,18,11,1022,53,2,20141106170000
83,"No.8 middle school, Shaoguan",,24.767777,113.583537,112,49,20,8,7,10,18,11,1022,53,2,20141106170000
84,"Forest area, Shaoguan",,24.796107,113.612131,127,53,23,5,9,8,18,11,1022,53,2,20141106170000
84,"Forest area, Shaoguan",,24.796106,113.612131,127,53,23,5,9,8,18,11,1022,53,2,20141106170000
86,"Shaoguan University, Shaoguan",,24.790864,113.646599,-,-,-,-,-,-,-,-,0,-,-,20141106170000
86,"Shaoguan University, Shaoguan",,24.790864,113.646598,-,-,-,-,-,-,-,-,0,-,-,20141106170000
88,"Qujiang Monitoring Station, Shaoguan",,24.683042,113.60157,129,60,20,15,23,6,18,11,1022,53,2,20141106170000
88,"Qujiang Monitoring Station, Shaoguan",,24.683042,113.60157,129,60,20,15,23,6,18,11,1022,53,2,20141106170000
89,Shaoguan,,24.807342,113.602712,127,53,23,5,9,8,18,11,1022,53,2,20141106170000
90,"Chaonanzi Station, Shantou",,23.251213,116.406762,137,66,43,8,2,8,21,20,1019,94,2,20141106170000
91,Shantou,,23.350642,116.686306,107,52,47,5,3,12,21,20,1019,94,2,20141106170000
92,"City Environmental Monitoring Station, Zhanjiang",,21.220431,110.397317,82,50,35,9,4,10,24,21,1016,81,4,20141106170000
93,"EPB Dormitory, Zhanjiang",,21.197376,110.406487,87,45,36,11,5,5,24,21,1016,81,4,20141106170000
94,"Xiashan Swimming Park, Zhanjiang",,21.200431,110.415655,89,40,38,4,7,9,24,21,1016,81,4,20141106170000
95,"Zhanjiang Theatre, Zhanjiang",,21.268177,110.366445,119,56,32,-,5,25,24,21,1016,81,4,20141106170000
96,"Mazhang EPA, Zhanjiang",,21.265486,110.335993,114,53,11,11,6,13,24,21,1016,81,4,20141106170000
97,"Potou District EPB, Zhanjiang",,21.247604,110.454508,117,52,31,8,2,14,24,21,1016,81,4,20141106170000
98,Zhanjiang,,21.26832,110.363883,119,56,32,9,5,25,24,21,1016,81,4,20141106170000
99,"Maogang sub-office EPB, Maoming",,21.466435,111.033462,129,58,34,3,5,8,22,20,0,88,4,20141106170000
100,"Petrochemical No. 7 elementaty school, Maoming",,21.648905,110.937861,124,43,28,6,3,15,22,20,0,88,4,20141106170000
101,"Jiankang road, Maoming",,21.662211,110.909482,114,48,19,10,4,15,22,20,0,88,4,20141106170000
102,"Gaoling, Maoming",,21.690558,110.871146,109,51,23,10,42,11,22,20,0,88,4,20141106170000
1094,Maoming,,21.660223,110.929968,114,48,19,10,4,15,22,20,0,88,4,20141106170000
103,"Jiaying University, Meizhou",,24.325415,116.12816,117,42,18,11,5,10,21,20,1019,94,2,20141106170000
104,"Mexian new town, Meizhou",,24.269283,116.084546,117,47,23,7,7,10,21,20,1019,94,2,20141106170000
105,"Environmental Monitoring Center, Meizhou",,24.262778,116.129621,104,39,20,11,4,11,21,20,1019,94,2,20141106170000
1095,Meizhou,,24.285988,116.127065,104,39,20,11,4,11,21,20,1019,94,2,20141106170000
106,"City EPA, Shanwei",,22.772349,115.370227,168,81,52,7,7,11,22,21,1019,92,2,20141106170000
107,"City government, Shanwei",,22.787161,115.375536,156,62,55,4,8,9,22,21,1019,92,2,20141106170000
108,"Xincheng Middle School, Shanwei",,22.789851,115.367124,156,65,30,6,4,12,22,21,1019,92,2,20141106170000
1099,Shanwei,,22.783576,115.38022,156,65,30,6,4,12,22,21,1019,92,2,20141106170000
109,"No.3 elementary school, Heyuan",,23.755946,114.699091,144,56,21,11,9,8,19,13,1020,58,2,20141106170000
109,"No.3 elementary school, Heyuan",,23.75435,114.703514,144,56,21,11,9,8,19,13,1020,58,2,20141106170000
111,"City water company, Heyuan",,23.754246,114.682459,144,53,24,11,5,7,19,13,1020,58,2,20141106170000
111,"City water company, Heyuan",,23.688709,114.954652,144,53,24,11,5,7,19,13,1020,58,2,20141106170000
113,"Heyuan high school, Heyuan",,23.720037,114.699563,142,53,21,9,7,8,19,13,1020,58,2,20141106170000
113,"Heyuan high school, Heyuan",,23.720666,114.693879,142,53,21,9,7,8,19,13,1020,58,2,20141106170000
115,Heyuan,,23.740888,114.705147,142,53,21,9,7,8,19,13,1020,58,2,20141106170000
116,"Yuanyang Lake, Yangjiang",,21.855869,111.983676,161,60,21,16,8,13,20,18,1018,81,6,20141106170000
1100,Yangjiang,,21.855227,111.987308,161,60,21,16,8,13,20,18,1018,81,6,20141106170000
118,"Town governement, Qingyuan",,23.708005,113.026215,144,53,15,15,40,17,20,16,1019,78,3,20141106170000
119,"Fupin district, Qingyuan",,23.624781,113.067713,61,43,8,12,10,15,20,16,1019,78,3,20141106170000
121,"Environment protection office, Qingyuan",,23.691109,113.047948,153,52,16,9,12,9,20,16,1019,78,3,20141106170000
121,"Environment protection office, Qingyuan",,23.685931,113.053239,153,52,16,9,12,9,20,16,1019,78,3,20141106170000
123,"Fengcheng Subdistrict, Qingyuan",,23.695447,113.068189,144,53,15,15,40,17,20,16,1019,78,3,20141106170000
124,Qingyuan,,23.679304,113.061513,153,69,16,9,12,9,20,16,1019,78,3,20141106170000
125,"Xiyuan Road, Chaozhou",,23.668654,116.638272,152,82,70,4,7,11,21,18,1019,83,5,20141106170000
126,"Archives Bureau, Chaozhou",,23.667881,116.649104,122,54,88,6,8,13,21,18,1019,83,5,20141106170000
127,"Municipal Corporation, Chaozhou",,23.65035,116.621859,152,84,57,5,6,16,21,18,1019,83,5,20141106170000
1101,Chaozhou,,23.654204,116.626969,160,56,65,6,8,16,21,20,1019,94,2,20141106170000
128,"Donghu Park, Jieyang",,23.532877,116.374427,114,50,39,4,4,9,21,20,1019,94,2,20141106170000
129,"Yuhu Middle School, Jieyang",,23.52682,116.414123,142,54,40,7,7,8,21,20,1019,94,2,20141106170000
130,"Experimental Primary School, Jieyang",,23.571473,116.364137,107,52,38,7,3,9,21,20,1019,94,2,20141106170000
1102,Jieyang,,23.547596,116.37754,114,52,39,4,4,9,21,20,1019,94,2,20141106170000
131,"City Environmental Monitoring Station, Yunfu",,22.936779,112.042248,65,32,5,9,8,12,20,16,1019,78,3,20141106170000
132,"The new city government headquarters, Yunfu",,22.914275,112.044475,117,39,8,10,11,21,20,16,1019,78,3,20141106170000
133,"Muyang police sub-station, Yunfu",,22.951267,112.05923,76,24,12,16,14,15,20,16,1019,78,3,20141106170000
1103,Yunfu,,22.912436,112.049811,117,39,8,10,11,21,20,16,1019,78,3,20141106170000
134,Yantian,,22.587949,114.266899,-,-,-,-,-,-,-,-,0,-,-,20141106170000
135,Kwai Chung,,22.572837,113.867166,153,68,16,22,3,15,23,17,1018,69,3,20141106170000
135,Kwai Chung,,22.354168,114.134558,153,68,16,22,3,15,23,17,1018,69,3,20141106170000
137,Nanyou,,22.513802,113.928051,156,69,25,25,7,14,23,17,1018,69,3,20141106170000
138,Meisha,,22.59611,114.318345,153,59,28,7,5,11,23,17,1018,69,3,20141106170000
139,Xi xiang,,22.717524,114.252304,154,57,23,12,4,13,23,17,1018,69,3,20141106170000
140,Liyuan,,22.54732,114.101205,153,61,14,19,2,14,23,17,1018,69,3,20141106170000
1072,Kwai Chung,,22.627947,114.428875,154,65,15,10,3,14,23,17,1018,69,3,20141106170000
1072,Kwai Chung,,22.354168,114.134558,154,65,15,10,3,14,23,17,1018,69,3,20141106170000
141,OCT,,22.539549,113.992458,155,62,20,26,3,14,23,17,1018,69,3,20141106170000
142,Honghu,,22.559647,114.121976,160,60,25,24,3,11,23,17,1018,69,3,20141106170000
143,Mission Hills,,22.694131,114.050496,134,56,24,11,3,16,23,17,1018,69,3,20141106170000
144,Shenzhen,,22.540382,114.062982,160,69,29,26,7,16,-,-,0,-,-,20141106170000
145,Chengdu,,30.622581,104.069564,170,77,21,21,8,8,14,12,1023,88,2,20141106170000
146,"Jinquan lianghe, Chengdu",,30.710359,103.974209,153,70,19,15,3,9,14,12,1022,88,3,20141106170000
147,"Shilidian, Chengdu",,30.684718,104.17845,160,85,11,22,10,7,14,12,1022,88,3,20141106170000
148,"Sanwayao, Chengdu",,30.568159,104.081524,154,90,,,,8,14,12,1022,88,3,20141106170000
149,"Shahepu, Chengdu",,30.633685,104.120536,162,77,11,24,9,9,14,12,1022,88,3,20141106170000
150,"Liang Lane, Chengdu",,30.682601,104.076522,156,68,20,32,10,7,14,12,1022,88,3,20141106170000
151,"Caotang Temple, Chengdu",,30.651891,104.0284,153,72,19,18,7,8,14,12,1022,88,3,20141106170000
152,"Lingyansi, Chengdu",,31.025729,103.615022,102,38,39,7,3,3,14,12,1022,88,3,20141106170000
153,"Fuleshan, Mianyang",,31.472493,104.7806,149,59,23,6,7,8,16,11,1022,69,2,20141106170000
154,"High-tech Zone Water Company, Mianyang",,31.463309,104.674293,153,65,17,21,11,8,16,11,1022,69,2,20141106170000
155,"No.3 water company, Mianyang",,31.505002,104.731054,160,71,21,25,4,5,16,11,1022,69,2,20141106170000
156,Mianyang,,31.465174,104.681731,160,71,23,25,11,8,16,11,1022,69,2,20141106170000
157,"Dongshan Park, Deyang",,31.118648,104.424587,119,52,8,8,7,6,14,12,1022,88,3,20141106170000
158,"Xixiaoqu, Deyang",,31.131159,104.390972,152,54,8,14,4,9,14,12,1022,88,3,20141106170000
159,"City Procuratorate, Deyang",,31.114554,104.407986,129,61,7,16,1,10,14,12,1022,88,3,20141106170000
160,"Refractory Factory, Deyang",,31.108606,104.356506,137,56,20,12,5,6,14,12,1022,88,3,20141106170000
161,Deyang,,31.124715,104.400703,152,61,20,16,7,10,14,12,1022,88,3,20141106170000
162,"Nongnongping, Panzhihua",,26.566698,101.695438,38,11,13,15,2,5,15,12,0,78,2,20141106170000
163,"Hemenkou, Panzhihua",,26.589072,101.578312,87,51,19,7,9,15,15,12,0,78,2,20141106170000
164,"Bingcaogang, Panzhihua",,26.58143,101.718473,21,13,8,17,2,13,15,12,0,78,2,20141106170000
165,"Renhe, Panzhihua",,26.498166,101.746887,30,14,11,9,3,15,15,12,0,78,2,20141106170000
166,"Jinjina, Panzhihua",,26.553226,101.84862,80,42,9,9,6,12,15,12,0,78,2,20141106170000
167,Panzhihua,,26.578779,101.720211,87,51,19,17,9,15,15,12,0,78,2,20141106170000
168,"Shima Middle School, Yibin",,28.815979,104.599199,169,88,16,21,12,9,16,13,1021,77,1,20141106170000
169,"Municipal party committee, Yibin",,28.762654,104.624834,174,80,12,25,21,12,16,13,1021,77,1,20141106170000
170,"No. 4 middle school, Yibin",,28.783257,104.608407,188,100,16,19,10,8,16,13,1021,77,1,20141106170000
171,"City government, Yibin",,28.760477,104.644079,183,109,12,25,12,9,16,13,1021,77,1,20141106170000
172,"Huangjinzui, Yibin",,28.712319,104.578389,158,67,16,12,22,10,16,13,1021,77,1,20141106170000
173,"Shaping Middle School, Yibin",,28.795569,104.681393,176,94,16,11,8,8,16,13,1021,77,1,20141106170000
174,Yibin,,28.748384,104.645766,188,109,16,25,22,12,16,13,1021,77,1,20141106170000
175,"Datang Hill, Zigong",,29.359969,104.757388,188,76,18,10,7,8,15,12,0,82,1,20141106170000
176,"Yanma Road, Zigong",,29.355752,104.724036,191,113,21,15,23,6,15,12,0,82,1,20141106170000
177,"Tanmulin Street, Zigong",,29.353555,104.777397,176,78,26,7,10,6,15,12,0,82,1,20141106170000
178,"Chunhua Road, Zigong",,29.33825,104.771895,181,88,16,10,14,9,15,12,0,82,1,20141106170000
179,Zigong,,29.33617,104.781138,191,113,26,15,23,9,15,12,0,82,1,20141106170000
180,"Jiushi Hill, Luzhou",,28.955347,105.434207,160,76,31,22,6,0,15,14,0,89,1,20141106170000
181,"Xiaoshishang Port, Luzhou",,28.899583,105.447192,164,73,27,25,14,10,15,14,0,89,1,20141106170000
182,"Lantianxian Bridge, Luzhou",,28.852766,105.4358,151,68,25,32,6,7,15,14,0,89,1,20141106170000
183,"City Environment Monitoring Station, Luzhou",,28.895898,105.435802,161,68,15,28,4,10,15,14,0,89,1,20141106170000
184,Luzhou,,28.868782,105.445938,164,76,31,32,14,10,15,14,0,89,1,20141106170000
185,"City Committee, Nanchong",,30.799993,106.082906,155,78,23,11,11,6,15,14,1021,100,2,20141106170000
186,"Refinery Factory, Nanchong",,30.819412,106.10712,153,69,29,17,15,4,15,14,1021,100,2,20141106170000
187,"Gaoping District Monitoring Station, Nanchong",,30.783291,106.110417,173,62,9,16,6,10,15,14,1021,100,2,20141106170000
188,"Jialing District EPB, Nanchong",,30.761255,106.06818,154,65,11,29,25,5,15,14,1021,100,2,20141106170000
189,"City Environmental Monitoring Station, Nanchong",,30.836519,106.11272,144,61,9,19,11,8,15,14,1021,100,2,20141106170000
190,Nanchong,,30.835511,106.114717,173,78,29,29,25,10,15,14,1021,100,2,20141106170000
1249,"City Monitoring Station, Neijiang",,29.592673,105.036234,181,92,21,10,19,8,15,13,0,84,1,20141106170000
1250,"Dongxing District Government , Neijiang",,29.592148,105.074966,182,79,24,7,8,5,15,13,0,84,1,20141106170000
1251,"No 2 middle school, Neijiang",,29.579135,105.068548,182,91,24,11,7,6,15,13,0,84,1,20141106170000
1252,Neijiang,,29.577653,105.06166,182,92,24,16,19,8,15,13,0,84,1,20141106170000
1253,"City Monitoring Station, Suining",,30.610641,105.683583,153,75,44,12,12,31,15,13,0,83,1,20141106170000
1254,"Administrative center , Suining",,30.63206,105.819747,-,-,-,-,-,-,-,-,0,-,-,20141106170000
1255,Suining,,30.530053,105.596307,161,77,44,12,14,31,15,13,0,83,1,20141106170000
1256,"City Monitoring Station, Leshan",,29.560651,103.759211,173,86,21,16,8,11,15,11,0,73,1,20141106170000
1257,"Leshan Giant Buddha Scenic Area , Leshan",,29.543938,103.772706,173,87,26,18,7,9,15,11,0,73,1,20141106170000
1258,Leshan,,29.54935,103.767777,175,88,26,23,9,11,15,11,0,73,1,20141106170000
1259,"Heilongtan , Meishan",,30.047726,103.900649,163,74,42,7,3,5,14,12,1022,88,3,20141106170000
1260,"Bureau of Meteorology, Meishan",,30.084591,103.843715,174,95,24,36,11,7,14,12,1022,88,3,20141106170000
1261,"Xuguang Community , Meishan",,30.066277,103.8516,178,95,35,37,9,7,14,12,1022,88,3,20141106170000
1262,"City Monitoring Station, Meishan",,30.059205,103.836229,175,88,31,30,9,7,14,12,1022,88,3,20141106170000
1263,Meishan,,30.072618,103.85064,178,95,42,37,11,7,14,12,1022,88,3,20141106170000
1264,"Ziyang middle school, Ziyang",,30.147763,104.638024,132,60,36,5,26,5,15,13,0,84,1,20141106170000
1265,Ziyang,,30.126054,104.63004,147,60,36,9,26,5,15,13,0,84,1,20141106170000
191,Shenyang US Consulate,,41.785668,123.432865,184,98,,33,54,,-4,-12,1032,54,1,20141106170000
192,"Huishan, Shenyang",,41.835421,123.647773,163,78,35,6,4,3,-2,-12,1032,47,3,20141106170000
193,"Hunnan, Shenyang",,41.758263,123.540809,182,114,19,36,24,5,-4,-12,1032,54,1,20141106170000
194,"Zhangshi, Shenyang",,41.771679,123.289859,197,137,8,33,46,7,-2,-12,1032,47,3,20141106170000
195,"Artillery College, Shenyang",,41.835749,123.547799,129,100,22,31,7,6,-4,-12,1032,54,1,20141106170000
196,"Beiling, Shenyang",,41.849633,123.434146,276,187,9,30,12,7,-4,-12,1032,54,1,20141106170000
197,"Wenyi Road, Shenyang",,41.767444,123.416144,185,98,18,33,54,6,-4,-12,1032,54,1,20141106170000
198,"Xiaoheyan, Shenyang",,41.779828,123.484015,177,103,15,36,58,6,-2,-12,1032,47,3,20141106170000
199,"Taiyuan Street, Shenyang",,41.799646,123.406146,199,128,6,34,51,8,-2,-12,1032,47,3,20141106170000
200,"Ermao, Shenyang",,41.783011,123.366679,188,123,21,37,52,6,-4,-12,1032,54,1,20141106170000
201,"Liaoning University, Shenyang",,41.830704,123.361071,246,124,15,25,11,7,-4,-12,1032,54,1,20141106170000
202,Shenyang,,41.808126,123.437611,199,128,6,34,51,8,-2,-12,1032,47,3,20141106170000
1104,"wenhua street, Shenyang , Shenyang",,41.774139,123.441839,185,98,18,33,54,6,-2,-12,1032,47,3,20141106170000
1105,"Tanglin Road , Shenyang , Shenyang",,41.823665,123.562317,129,100,22,31,7,6,-2,-12,1032,47,3,20141106170000
203,"Ganjingzi, Dalian",,38.9747,121.616893,91,67,22,7,4,2,4,-8,1031,42,4,20141106170000
204,"Zhoushuizi, Dalian",,38.951928,121.569981,72,53,21,10,9,7,4,-9,1031,39,6,20141106170000
205,"Xinghai No 3 station, Dalian",,38.885779,121.568864,85,55,18,9,6,7,4,-8,1031,42,4,20141106170000
206,"Qingniwa Bridge, Dalian",,38.91274,121.638018,82,48,17,13,11,4,4,-9,1031,39,6,20141106170000
207,"Fujiazhuang, Dalian",,38.864647,121.629947,78,51,14,10,16,3,4,-9,1031,39,6,20141106170000
208,"Qixianling, Dalian",,38.856978,121.523169,78,47,5,12,3,7,4,-9,1031,39,6,20141106170000
209,"Lushun, Dalian",,38.808946,121.264063,82,37,24,4,2,4,4,-8,1031,42,4,20141106170000
210,"Jinzhou, Dalian",,39.132192,121.753259,89,53,13,5,2,2,4,-8,1031,42,4,20141106170000
211,"BDA, Dalian",,39.05213,121.782022,87,51,15,8,5,5,4,-8,1031,42,4,20141106170000
212,"D&D Port, Dalian",,39.064087,121.981874,104,55,12,5,2,3,4,-8,1031,42,4,20141106170000
213,Dalian,,38.91478,121.619625,82,48,17,13,11,4,-,-,0,-,-,20141106170000
214,"Bearing Factory, Dandong",,40.068929,124.345703,65,48,22,4,13,5,3,-10,1027,24,5,20141106170000
215,"Financial school, Dandong",,40.158723,124.432593,61,30,22,5,9,7,3,-10,1027,24,5,20141106170000
216,"Yuanbaoshan water, Dandong",,40.149431,124.391698,55,21,23,3,12,8,3,-10,1027,24,5,20141106170000
217,"Experimental Primary School, Dandong",,39.887343,124.158056,70,41,20,5,6,8,3,-10,1027,24,5,20141106170000
218,Dandong,,40.002046,124.360479,70,41,22,5,9,8,3,-10,1027,24,5,20141106170000
1106,"minzhu bridge, Dandong , Dandong",,40.112974,124.373604,70,41,20,5,6,8,3,-10,1027,24,5,20141106170000
1107,"yuanbaoshan, Dandong , Dandong",,40.146298,124.399081,55,21,24,3,12,8,3,-10,1027,24,5,20141106170000
1108,"linjiang houjie, Dandong , Dandong",,40.152757,124.431745,61,30,22,5,9,7,3,-10,1027,24,5,20141106170000
219,"BDA, Panjin",,41.157144,122.06645,114,57,12,13,9,15,0,-10,0,48,3,20141106170000
220,"Xinglongtai, Panjin",,41.140948,122.111343,104,51,10,12,17,9,0,-10,0,48,3,20141106170000
221,"Dingxiang, Panjin",,41.16139,121.928781,78,56,15,18,9,6,0,-10,0,48,3,20141106170000
222,Panjin,,41.122089,122.076206,114,57,12,13,9,15,0,-10,0,48,3,20141106170000
223,"No.3 water company, Yingkou",,40.682052,122.385352,76,42,24,9,9,4,0,-8,1032,41,5,20141106170000
224,"Yingkou University, Yingkou",,40.683689,122.388285,78,44,20,12,8,5,0,-8,1032,41,5,20141106170000
225,"Botanical garden, Yingkou",,40.711674,122.281568,80,29,21,13,26,4,0,-8,1032,41,5,20141106170000
226,Yingkou,,40.668578,122.24059,80,44,24,13,26,5,0,-8,1032,41,5,20141106170000
1109,"jinghu west street, Yingkou , Yingkou",,40.653831,122.221943,76,42,24,9,9,4,0,-8,1032,41,5,20141106170000
1110,"Daqing Road , Yingkou , Yingkou",,40.709181,122.28243,80,29,21,13,26,5,0,-8,1032,41,5,20141106170000
227,"Xishanpo, Huludao",,40.724078,120.921974,82,55,10,11,12,12,,,0,,,20141106170000
228,"Huagong hospital, Huludao",,40.755662,120.848435,50,35,10,17,21,7,,,0,,,20141106170000
229,"New district park, Huludao",,40.723415,120.853801,55,40,13,10,27,3,,,0,,,20141106170000
230,"Lianshan district governement, Huludao",,40.775488,120.872292,50,30,18,7,10,9,,,0,,,20141106170000
231,Huludao,,40.712501,120.842107,82,55,13,17,27,12,,,0,,,20141106170000
1111,"Dongcheng District , Huludao , Huludao",,40.775362,120.871706,50,30,18,7,10,9,,,0,,,20141106170000
1112,"huagong street, Huludao , Huludao",,40.758901,120.842935,50,35,10,17,21,7,,,0,,,20141106170000
232,Anshan,,41.110466,123.000147,194,128,22,28,58,17,-2,-12,1032,47,3,20141106170000
233,"Qianshan Park, Anshan",,41.033486,123.143897,163,83,22,12,14,4,-3,-12,1032,51,3,20141106170000
234,"Tiexi, Anshan",,41.121636,122.97506,194,128,7,22,58,17,-3,-12,1032,51,3,20141106170000
235,"Taiping Station, Anshan",,41.153322,123.052433,174,97,10,17,37,11,-3,-12,1032,51,3,20141106170000
236,"Central Station, Anshan",,41.106731,123.002736,169,82,17,28,56,10,-3,-12,1032,51,3,20141106170000
237,"Shengou Temple, Anshan",,41.137157,123.031901,184,95,13,25,35,10,-2,-12,1032,47,3,20141106170000
1113,"Qianshan , Anshan , Anshan",,41.014521,123.122538,163,83,22,12,14,4,-2,-12,1032,47,3,20141106170000
1114,"Tiexi Sandao jie, Anshan",,41.103264,122.978613,194,128,7,22,58,17,-2,-12,1032,47,3,20141106170000
1115,"Taiyang, Anshan",,41.094946,123.019037,169,82,17,28,56,10,-2,-12,1032,47,3,20141106170000
238,Fushun,,41.883028,123.962984,183,98,32,31,20,13,-2,-12,1032,47,3,20141106170000
239,"Shenfu new town, Fushun",,41.804638,123.631684,167,85,21,12,6,4,-2,-12,1032,47,3,20141106170000
240,"Reservoir, Fushun",,41.8464,123.802857,153,70,32,13,5,6,-2,-12,1032,47,3,20141106170000
241,"Train Station, Fushun",,41.89726,124.017604,157,84,27,8,10,11,-2,-12,1032,47,3,20141106170000
242,"Dongzhou, Fushun",,41.855578,124.044738,155,78,30,10,6,6,-2,-12,1032,47,3,20141106170000
243,"Xinhua, Fushun",,41.888598,123.932932,183,98,18,31,10,13,-2,-12,1032,47,3,20141106170000
244,"Wanghua, Fushun",,41.888825,123.093723,179,87,23,20,20,8,-2,-12,1032,47,3,20141106170000
245,Benxi,,41.296267,123.772371,171,60,65,16,34,23,-2,-12,1032,47,3,20141106170000
246,"Weining, Benxi",,41.349663,123.826071,171,94,65,16,3,7,-2,-12,1032,47,3,20141106170000
247,"Occupational disease hospital, Benxi",,41.305432,123.74645,155,60,26,8,9,6,-3,-12,1032,51,3,20141106170000
248,"Dongming, Benxi",,41.292369,123.765058,154,55,18,13,34,23,-2,-12,1032,47,3,20141106170000
249,"Caitun, Benxi",,41.301591,123.746039,162,89,13,20,13,20,-2,-12,1032,47,3,20141106170000
250,"Xihu, Benxi",,41.331332,123.773537,139,60,30,8,7,13,-2,-12,1032,47,3,20141106170000
251,"Dayu, Benxi",,41.308091,123.818442,154,58,30,9,9,8,-2,-12,1032,47,3,20141106170000
1116,"Xinlitun , Benxi , Benxi",,41.264104,123.811523,155,60,26,8,9,6,-2,-12,1032,47,3,20141106170000
252,Jinzhou,,41.097169,121.132647,93,52,15,23,54,27,1,-10,1033,30,3,20141106170000
253,"Beihu Park, Jinzhou",,41.141447,121.137339,65,35,15,7,22,7,1,-10,1033,30,3,20141106170000
254,"Monitoring station, Jinzhou",,41.113441,121.140911,70,46,10,16,47,4,1,-10,1033,30,3,20141106170000
255,"Nanshan, Jinzhou",,41.570689,122.046753,93,46,15,14,26,17,1,-10,1033,30,3,20141106170000
1118,"BDA, Jinzhou",,40.853915,121.061756,85,45,6,23,54,10,1,-10,1033,30,3,20141106170000
1119,"tianan street, Jinzhou , Jinzhou",,41.124468,121.126119,70,46,10,16,47,4,1,-10,1033,30,3,20141106170000
1120,"baigu street, Jinzhou, Jinzhou",,41.12214,121.21027,85,52,10,17,16,27,1,-10,1033,30,3,20141106170000
1121,Chaoyang,,41.576022,120.456053,142,96,6,18,28,34,-,-,0,-,-,20141106170000
472,"Fukang road, Tianjin",,39.098136,117.157621,95,52,16,32,6,12,4,0,1032,75,1,20141106170000
1122,"Agricultural Area, Chaoyang",,43.93968,125.247371,53,18,5,8,1,13,2,-10,1034,26,1,20141106170000
1123,Tieling,,42.225197,123.732174,229,97,23,30,23,8,-,-,0,-,-,20141106170000
260,"Waterpark, Tieling",,42.297031,123.880748,177,89,11,25,14,8,-2,-12,1032,47,3,20141106170000
1124,"Huigong Street West , Tieling , Tieling",,42.311115,123.845614,201,104,18,28,29,9,-4,-12,1032,54,1,20141106170000
1125,Liaoyang,,41.269312,123.24268,185,94,9,27,34,7,-,-,0,-,-,20141106170000
1126,"Riverside Road , Liaoyang , Liaoyang",,41.176884,123.419859,154,59,18,11,17,11,-2,-12,1032,47,3,20141106170000
1127,Fuxin,,42.02373,121.675733,65,48,13,20,28,6,-,-,0,-,-,20141106170000
266,"Agricultural Area, Fuxin",,42.071291,121.696445,82,41,4,15,23,4,-2,-11,0,51,2,20141106170000
267,"Industrial Area, Fuxin",,42.041052,121.715554,72,78,3,12,8,9,-2,-11,0,51,2,20141106170000
1128,"Yulong Metro , Fuxin , Fuxin",,42.035091,121.666531,87,75,5,12,8,11,-2,-11,0,51,2,20141106170000
1129,"Dongyuan , Fuxin , Fuxin",,42.029119,121.681553,122,45,12,23,27,5,-2,-11,0,51,2,20141106170000
268,"City Monitoring Station, Jinan",,36.662614,117.054645,119,60,8,16,33,5,7,1,1031,59,3,20141106170000
269,"Shandong Institute of Economics, Jinan",,36.63819,117.074975,119,63,16,20,43,3,7,1,1031,59,3,20141106170000
270,"Quancheng Plaza, Jinan",,36.661711,117.027043,82,52,11,12,28,6,7,1,1031,59,3,20141106170000
271,"Kegansuo, Jinan",,36.611582,116.99384,76,55,12,25,42,8,7,1,1031,59,3,20141106170000
272,"Agriculture Science Institute, Jinan",,36.663115,116.95063,97,61,8,25,28,9,7,1,1031,59,3,20141106170000
273,"Lanxiang technical school, Jinan",,36.700421,116.95342,97,53,10,30,27,6,7,1,1031,59,3,20141106170000
274,"Chemical factory, Jinan",,36.687463,116.994406,153,72,7,17,37,8,7,1,1031,59,3,20141106170000
275,"Provincial Seed Warehouse, Jinan",,36.685706,117.066348,97,58,5,24,40,6,7,1,1031,59,3,20141106170000
276,"Shandong Architecture University, Jinan",,36.681732,117.191868,93,52,10,15,46,6,7,1,1031,59,3,20141106170000
277,"Baosheng cable company, Jinan",,36.724638,117.130855,149,60,4,32,38,7,7,1,1031,59,3,20141106170000
278,"Paomaling, Jinan",,36.47869,117.219027,57,19,29,4,16,2,7,1,1031,59,3,20141106170000
279,"Changqing District Communist Party School, Jinan",,36.548797,116.770859,89,65,13,28,41,6,7,1,1031,59,3,20141106170000
280,"BDA, Jinan",,36.685835,117.130851,72,49,25,22,29,7,7,1,1031,59,3,20141106170000
281,Jinan,,36.651426,117.126625,119,60,8,16,33,5,7,1,1031,59,3,20141106170000
282,"Shinan district No. 1, Qingdao",,36.065534,120.40839,42,23,15,8,7,16,6,-1,1029,61,4,20141106170000
283,"Shibei district No. 1, Qingdao",,36.069919,120.341264,63,55,14,14,12,8,6,-1,1029,61,4,20141106170000
284,"Shibei district No. 2, Qingdao",,36.104146,120.36637,59,40,13,19,9,8,6,-1,1029,61,4,20141106170000
285,"Huangdao District No. 1, Qingdao",,35.958935,120.191041,42,61,16,16,15,5,6,-1,1029,61,4,20141106170000
286,"Huangdao District No. 2, Qingdao",,35.970487,120.160339,50,30,18,18,7,2,6,-1,1029,61,4,20141106170000
287,"Laoshan District No. 1, Qingdao",,36.085881,120.451839,50,35,19,14,7,11,6,-1,1029,61,4,20141106170000
288,"Laoshan District No. 2, Qingdao",,36.091075,120.490388,42,28,28,11,11,2,6,-1,1029,61,4,20141106170000
289,"Licang District No. 1, Qingdao",,36.184872,120.38533,70,52,14,14,10,9,6,-1,1029,61,4,20141106170000
290,"Licang District No. 2, Qingdao",,36.154369,120.432287,87,30,16,12,3,4,6,-1,1029,61,4,20141106170000
291,"Chengyang District No. 1, Qingdao",,36.308502,120.40008,61,23,18,12,11,2,6,-1,1029,61,4,20141106170000
292,"Chengyang District No. 2, Qingdao",,36.308429,120.465806,57,20,21,11,6,5,6,-1,1029,61,4,20141106170000
293,Qingdao,,36.067358,120.387773,42,23,15,8,7,16,6,-1,1029,61,4,20141106170000
294,"Zichuan Meteo. Stations, Zibo",,36.637916,117.960222,-,-,-,-,-,-,-,-,0,-,-,20141106170000
295,"Dongfeng Chemical factory, Zibo",,36.838576,118.050785,124,73,6,33,56,13,5,0,0,67,2,20141106170000
296,"Boshan shuangshan, Zibo",,36.497278,117.853581,132,62,6,29,46,16,5,0,0,67,2,20141106170000
297,"Linzi Putian Park, Zibo",,36.820171,118.315022,61,50,11,29,11,7,5,0,0,67,2,20141106170000
298,"Qilu Petrochemical, Zibo",,36.765907,118.254967,78,38,5,28,13,8,5,0,0,67,2,20141106170000
299,"Zhoucun sanjin Group, Zibo",,36.8044,117.85694,82,34,14,34,18,15,5,0,0,67,2,20141106170000
300,"Vocational College, Zibo",,36.825208,117.926305,76,48,5,36,24,15,5,0,0,67,2,20141106170000
301,"BDA, Zibo",,36.905214,118.021824,85,37,5,18,14,9,5,0,0,67,2,20141106170000
302,Zibo,,36.813618,118.060948,165,88,247,33,64,16,5,0,0,67,2,20141106170000
303,"Shizhong District Government, Zaozhuang",,34.850397,117.569545,85,78,22,13,24,6,11,4,1029,53,3,20141106170000
304,"Sewage treatment plant, Zaozhuang",,34.818951,117.595345,134,67,18,18,43,6,11,4,1029,53,3,20141106170000
305,"Xuecheng EPA, Zaozhuang",,34.790214,117.272455,151,70,17,16,23,7,11,4,1029,53,3,20141106170000
306,"Yicheng District government, Zaozhuang",,34.772806,117.57647,104,94,20,25,55,6,11,4,1029,53,3,20141106170000
307,"Taierzhuang EPA, Zaozhuang",,34.579462,117.741067,99,48,14,22,21,10,11,4,1029,53,3,20141106170000
308,"Shanting EPA, Zaozhuang",,35.070373,117.457691,112,72,24,11,13,9,11,4,1029,53,3,20141106170000
309,"City EPA, Zaozhuang",,34.809466,117.320608,122,70,23,14,18,5,11,4,1029,53,3,20141106170000
310,"High-tech zone, Zaozhuang",,34.821779,117.363495,38,487,26,14,33,7,11,4,1029,53,3,20141106170000
311,Zaozhuang,,34.809693,117.329634,85,78,22,13,24,6,11,4,1029,53,3,20141106170000
312,"City EPA, Dongying",,37.432052,118.672871,38,28,17,14,6,8,8,1,0,60,5,20141106170000
313,"Vocational College, Dongying",,37.438653,118.630567,57,41,18,26,13,7,8,1,0,59,5,20141106170000
314,"Xianhe Oil Production Plant, Dongying",,37.442419,118.510222,59,48,19,22,14,7,8,1,0,59,5,20141106170000
315,"Gengjin village, Dongying",,37.445072,118.55839,55,36,16,13,6,4,8,1,0,60,5,20141106170000
316,"City environmental company, Dongying",,37.466599,118.508012,70,46,15,28,14,5,8,1,0,59,5,20141106170000
317,"Hekou  district, Dongying",,37.883786,118.522171,46,25,23,16,6,4,8,1,0,59,5,20141106170000
318,"BDA, Dongying",,37.435162,118.701827,42,26,24,12,4,9,8,1,0,59,5,20141106170000
319,Dongying,,37.435429,118.680434,38,28,17,14,6,8,8,1,0,60,5,20141106170000
320,"Bearing Factory, Yantai",,37.544126,121.376956,102,61,15,11,11,6,,,0,,,20141106170000
321,"Xijiao Chemical Station, Yantai",,37.547148,121.323695,99,52,18,12,15,7,,,0,,,20141106170000
322,"Fushan Monitoring Stations, Yantai",,37.472245,121.260116,53,37,31,8,6,4,,,0,,,20141106170000
323,"Mouping EPA, Yantai",,37.376681,121.586509,59,49,20,6,4,7,,,0,,,20141106170000
324,"Laishan EPA, Yantai",,37.478422,121.44829,82,37,29,9,8,3,,,0,,,20141106170000
325,"Laishan Shengquan Industrial Park, Yantai",,37.4271,121.408386,78,43,24,12,13,1,,,0,,,20141106170000
326,"China Agricultural University, Yantai",,37.423568,121.511838,76,54,26,4,4,4,,,0,,,20141106170000
327,"BDA EPA, Yantai",,37.560827,121.257954,70,34,20,2,5,5,,,0,,,20141106170000
329,"Dajijia, Yantai",,37.673849,121.071465,87,46,22,85,12,6,,,0,,,20141106170000
330,Yantai,,37.464793,121.453142,102,61,15,11,11,6,,,0,,,20141106170000
331,"BDA, Weifang",,36.720022,119.054064,80,46,9,29,14,3,,,0,,,20141106170000
332,"Business School, Weifang",,36.682442,119.105909,89,78,12,23,11,2,,,0,,,20141106170000
333,"Hanting District, Weifang",,36.773484,119.199705,74,42,20,13,8,3,,,0,,,20141106170000
334,"Gongda Company, Weifang",,36.657635,119.167266,61,40,22,17,13,3,,,0,,,20141106170000
335,"City EPA, Weifang",,36.701272,119.16838,50,37,18,17,9,4,,,0,,,20141106170000
336,"City Arbitration Committee, Weifang",,36.702422,119.145927,61,34,23,11,11,5,,,0,,,20141106170000
337,"Xinhui Group, Weifang",,36.641581,119.11679,93,54,17,28,9,4,,,0,,,20141106170000
338,"Jincheng Middle School, Weifang",,36.773611,119.115539,65,35,28,9,7,2,,,0,,,20141106170000
339,Weifang,,36.707217,119.167638,97,60,13,29,16,7,,,0,,,20141106170000
340,"City Monitoring Station, Jining",,35.408443,116.623917,97,57,5,21,14,13,11,4,1029,54,2,20141106170000
1090,"Shengdi Hollidays Resort, Jining",,35.424746,116.699093,154,63,14,15,20,9,11,4,1029,54,2,20141106170000
341,"Sewage treatment plant, Jining",,35.364286,116.609177,114,59,13,16,15,11,11,4,1029,54,2,20141106170000
342,"Electrochemical Factory, Jining",,35.390473,116.552956,112,63,8,13,12,13,11,4,1029,54,2,20141106170000
343,"Rencheng BDA, Jining",,35.390484,116.662995,119,45,18,18,13,13,11,4,1029,54,2,20141106170000
344,"Agricultural School, Jining",,35.44235,116.601682,137,62,5,27,42,9,11,4,1029,54,2,20141106170000
345,"BDA Huojucheng, Jining",,35.436377,116.642953,124,59,8,19,19,13,11,4,1029,54,2,20141106170000
346,Jining,,35.414473,116.59239,97,57,5,21,14,13,11,4,1029,54,2,20141106170000
347,"Taishan monitoring station, Taian",,36.194362,117.159648,78,52,11,11,16,9,2,-12,0,22,4,20141106170000
348,"Shandong Electric Power School, Taian",,36.176071,117.12413,87,41,31,21,19,10,2,-12,0,22,4,20141106170000
349,"Population Education school, Taian",,36.194417,117.104131,95,51,16,6,13,9,2,-12,0,22,4,20141106170000
350,"Houfeng company, Taian",,36.204863,117.19015,85,72,15,15,19,14,2,-12,0,22,4,20141106170000
351,"Nongda new campus, Taian",,36.170179,117.165191,99,61,6,32,55,16,2,-12,0,22,4,20141106170000
352,"Transportation technical school, Taian",,36.202126,117.047068,70,46,12,6,12,15,2,-12,0,22,4,20141106170000
353,"ICT Technology, Taian",,36.116621,117.107458,46,49,10,17,15,13,2,-12,0,22,4,20141106170000
354,Taian,,36.200502,117.093682,78,52,11,11,16,9,2,-12,0,22,4,20141106170000
355,"City Environmental Monitoring Station, Weihai",,37.513939,122.067058,76,55,24,9,7,4,8,2,0,64,8,20141106170000
356,"Woodworking Factory, Weihai",,37.325455,122.160777,72,53,20,10,7,2,8,2,0,64,8,20141106170000
357,"Lantian Hotel, Weihai",,37.514641,122.146276,74,50,24,9,8,5,8,2,0,64,8,20141106170000
358,"Zhang village government, Weihai",,37.485561,122.049436,68,27,18,7,6,5,8,2,0,64,8,20141106170000
359,"Gao District Bank, Weihai",,37.534919,122.056294,85,55,23,6,4,3,8,2,0,64,8,20141106170000
360,"Huxia technical school, Weihai",,37.427951,122.130811,114,55,23,8,4,3,8,2,0,64,8,20141106170000
361,Weihai,,37.5141,122.125477,87,56,24,9,7,4,8,2,0,64,8,20141106170000
362,"City governement square, Rizhao",,35.4075,119.526008,46,25,23,1,7,3,7,2,1030,58,3,20141106170000
363,"Port Authority, Rizhao",,35.381297,119.55396,-,-,-,-,-,-,-,-,0,-,-,20141106170000
364,"City Monitoring Station, Rizhao",,35.388683,119.496405,42,34,21,12,8,3,7,2,1030,58,3,20141106170000
365,"Professor Garden, Rizhao",,35.462161,119.574193,57,40,27,9,6,6,7,2,1030,58,3,20141106170000
366,"Vocational and Technical College, Rizhao",,35.441939,119.538187,50,24,26,7,7,4,7,2,1030,58,3,20141106170000
367,"Lanshan EPA branch, Rizhao",,35.293405,119.345716,55,37,19,12,9,4,7,2,1030,58,3,20141106170000
368,"Jinma Industrial Park, Rizhao",,35.373339,119.514108,53,33,21,11,10,3,7,2,1030,58,3,20141106170000
369,Rizhao,,35.416089,119.532316,46,25,23,12,7,3,7,2,1030,58,3,20141106170000
370,"Vegetable oil factory, Laiwu",,36.205028,117.700917,124,42,11,18,10,13,5,1,1031,68,2,20141106170000
371,"Nursing home, Laiwu",,36.266067,117.652769,154,58,12,17,26,10,5,1,1031,68,2,20141106170000
372,"Xinyi middle school, Laiwu",,36.245086,117.739025,104,30,8,18,8,13,5,1,1031,68,2,20141106170000
373,"Risheng International School, Laiwu",,36.208125,117.730959,109,41,9,11,10,7,5,1,1031,68,2,20141106170000
374,"Gangcheng EPA, Laiwu",,36.066836,117.871823,173,119,2,25,66,35,5,1,1031,68,2,20141106170000
375,"City EPA, Laiwu",,36.228913,117.694797,91,57,6,2,15,13,5,1,1031,68,2,20141106170000
376,Laiwu,,36.213688,117.682612,124,42,11,18,10,13,-,-,0,-,-,20141106170000
377,"Lunan Pharmaceutical Factory, Linyi",,35.061671,118.299527,61,37,23,11,7,4,5,1,0,70,4,20141106170000
378,"Yihe compound, Linyi",,35.056752,118.34739,65,40,13,12,6,7,5,1,0,70,4,20141106170000
379,"Linyi University, Linyi",,35.114777,118.293414,82,49,10,14,29,14,6,1,0,70,4,20141106170000
380,City EPA,Nanfang,35.104871,118.353518,99,39,19,9,7,7,6,1,0,70,4,20141106170000
381,"Xinguang woolen factory, Linyi",,34.981004,118.282,89,36,24,9,8,7,6,1,0,70,4,20141106170000
382,"Hongfu Baijiu Factory, Linyi",,34.998788,118.257275,55,31,13,8,8,9,6,1,0,70,4,20141106170000
384,"Hedong insurance company, Linyi",,35.089354,118.40812,107,36,13,20,14,5,6,1,0,70,4,20141106170000
385,"Jianghua vehicule center, Linyi",,35.010082,118.435749,57,14,15,16,14,9,6,1,0,70,4,20141106170000
386,Linyi,,35.10428,118.362202,61,37,23,11,7,4,5,1,0,70,4,20141106170000
387,"Heima group, Dezhou",,37.466063,116.314134,70,21,18,10,9,7,8,0,1031,44,3,20141106170000
388,"Monitoring station, Dezhou",,37.433107,116.377312,38,24,17,10,6,8,8,0,1031,44,3,20141106170000
389,"Supervision Station, Dezhou",,37.449689,116.324709,93,23,17,12,10,8,8,0,1031,44,3,20141106170000
390,"Huayu technical school, Dezhou",,37.462809,116.357559,50,21,18,10,7,3,8,0,1031,44,3,20141106170000
391,"Shuangyi group, Dezhou",,37.478848,116.316362,82,50,18,15,4,7,8,0,1031,44,3,20141106170000
392,Dezhou,,37.434959,116.363366,70,21,18,10,9,7,8,0,1031,44,3,20141106170000
393,"Dongchang District Government, Liaocheng",,36.444473,115.971733,129,63,17,32,34,12,10,3,1030,55,3,20141106170000
394,"Light Machinery Factory No. 2, Liaocheng",,36.456788,116.002383,-,-,-,-,-,-,-,-,0,-,-,20141106170000
395,"City committee communist party school, Liaocheng",,36.479537,115.989288,107,60,15,25,21,9,10,3,1030,55,3,20141106170000
396,"Customs, Liaocheng",,36.431933,115.956974,153,83,18,30,36,12,10,3,1030,55,3,20141106170000
397,"Hongshun Garden, Liaocheng",,36.471124,115.960319,122,80,9,33,32,10,10,3,1030,55,3,20141106170000
398,"BDA, Liaocheng",,36.459407,116.043621,124,65,12,24,24,14,10,3,1030,55,3,20141106170000
399,Liaocheng,,36.456792,115.991051,129,63,17,32,34,12,10,3,1030,55,3,20141106170000
400,"City EPA, Binzhou",,37.38024,118.026895,65,35,8,15,33,17,6,0,1032,54,2,20141106170000
401,"Beizhong new school, Binzhou",,37.38374,117.988996,76,39,8,16,30,24,6,0,1032,54,2,20141106170000
402,"No.2 water factory, Binzhou",,37.36155,118.002648,80,37,8,12,10,8,6,0,1032,54,2,20141106170000
403,"Keling Chemical factory, Binzhou",,37.396138,117.943609,59,22,7,10,15,12,6,0,1032,54,2,20141106170000
404,"Yinhe logistics company, Binzhou",,37.356122,117.943326,72,32,11,7,9,8,6,0,1032,54,2,20141106170000
405,"Bilin compond, Binzhou",,37.36815,117.978964,74,41,10,17,2,11,6,0,1032,54,2,20141106170000
406,Binzhou,,37.382639,117.976606,65,35,8,15,33,17,6,0,1032,54,2,20141106170000
407,"Bureau of Meteorology, Heze",,35.248625,115.428775,153,77,40,18,20,9,9,3,0,63,4,20141106170000
408,"Sewage treatment plant, Heze",,35.222517,115.531511,154,102,15,24,36,11,9,3,0,63,4,20141106180000
409,"Municipal CPPCC, Heze",,35.237125,115.480591,151,75,14,21,27,12,9,3,0,65,3,20141106180000
410,"Huarun Pharmaceutical Company, Heze",,35.261463,115.524873,152,91,10,21,25,14,9,3,0,65,3,20141106180000
411,"Heze University, Heze",,35.269706,115.460934,149,83,15,17,29,9,9,3,0,65,3,20141106180000
412,Heze,,35.233354,115.486503,153,77,40,18,20,9,9,3,0,63,4,20141106180000
413,"Shiji Park, Shijiazhuang",,38.03155,114.547873,114,65,11,10,11,6,5,1,1031,76,1,20141106180000
414,"Xinan College, Shijiazhuang",,38.012764,114.473163,104,58,6,9,9,4,5,1,1031,76,1,20141106180000
415,"Chemical College, Shijiazhuang",,38.055503,114.569816,132,64,4,13,5,5,5,1,1031,76,1,20141106180000
416,"Worker hospital, Shijiazhuang",,38.051784,114.461209,154,103,11,17,13,10,5,1,1031,76,1,20141106180000
417,"Northwest Water Company, Shijiazhuang",,38.140638,114.508038,155,81,14,26,14,5,5,1,1031,76,1,20141106180000
418,"High-tech zone, Shijiazhuang",,38.040482,114.610775,132,102,7,19,12,5,5,1,1031,76,1,20141106180000
419,"Fenglong Montain, Shijiazhuang",,37.910829,114.360264,162,75,26,18,20,3,5,1,1031,76,1,20141106180000
1130,"Zhengding Unicom, Shijiazhuang",,38.159458,114.59879,151,70,7,24,17,8,5,1,1031,76,1,20141106180000
1131,"Luancheng Communications, Shijiazhuang",,37.906534,114.638785,149,61,15,8,8,4,5,1,1031,76,1,20141106180000
1132,"Gaocheng Experimental School, Shijiazhuang",,38.039518,114.867812,97,54,8,9,14,7,5,1,1031,76,1,20141106180000
1133,"Wuji EPA, Shijiazhuang",,38.17862,114.997012,129,53,9,13,9,6,5,1,1031,76,1,20141106180000
1134,"Shenze Power Supply Bureau, Shijiazhuang",,38.197674,115.219126,124,55,11,9,9,7,5,1,1031,76,1,20141106180000
1135,"Zhaoxian EPA, Shijiazhuang",,37.77171,114.775957,122,65,11,15,10,4,5,1,1031,76,1,20141106180000
1136,"Gaoyi County City Hall, Shijiazhuang",,37.623535,114.612729,151,65,12,16,11,6,5,1,1031,76,1,20141106180000
1137,"Zanhuang County City Hall, Shijiazhuang",,37.672898,114.398269,122,66,12,15,13,4,5,1,1031,76,1,20141106180000
1138,"Jingxing Bureau of Meteorology, Shijiazhuang",,38.038788,114.158406,132,96,17,31,37,5,5,1,1031,76,1,20141106180000
1139,"Pingshan Ye River, Shijiazhuang",,38.266657,114.210275,161,97,11,28,6,5,5,1,1031,76,1,20141106180000
420,Shijiazhuang,,38.042926,114.520834,97,66,9,10,14,3,5,1,1031,76,1,20141106180000
421,"No. 12 middle school, Tangshan",,39.659306,118.190271,,,,,,,-,-,0,-,-,20141106180000
422,"Ceramics Company, Tangshan",,39.669255,118.225185,156,79,6,33,43,14,4,0,1032,75,1,20141106180000
423,"Commodities Bureau, Tangshan",,39.642301,118.191265,134,70,6,27,24,18,4,-3,1032,61,1,20141106180000
424,"Leidazhanzi Station, Tangshan",,39.644375,118.150383,144,76,6,33,26,22,4,0,1032,75,1,20141106180000
425,"Supply and marketing cooperatives, Tangshan",,39.632334,118.17232,149,66,5,27,20,18,4,0,1032,75,1,20141106180000
1140,"Guye District City Hall, Tangshan",,39.741379,118.460246,104,64,13,13,10,9,4,-3,1032,61,1,20141106180000
1141,"Kaiping Stations, Tangshan",,39.675246,118.275149,102,60,5,28,54,18,4,-3,1032,61,1,20141106180000
1142,"Fengnan District City Hall, Tangshan",,39.5834,118.097454,147,88,6,32,55,38,4,-3,1032,61,1,20141106180000
1143,"Fengrun City Hall, Tangshan",,39.840355,118.175338,168,92,7,22,10,16,4,-3,1032,61,1,20141106180000
1144,"Qianxi EPA, Tangshan",,40.153339,118.317265,151,79,7,25,8,15,4,-3,1032,61,1,20141106180000
1145,"Caofeidian Xinli  Primary School, Tangshan",,39.291232,118.462182,161,91,5,30,5,6,4,-3,1032,61,1,20141106180000
1146,"Zunhua EPA, Tangshan",,40.206249,117.997315,139,56,8,20,2,10,4,-3,1032,61,1,20141106180000
1147,"Qianan No.1 middle school, Tangshan",,40.004248,118.717055,76,39,17,9,3,3,4,-3,1032,61,1,20141106180000
1266,"Luannan County , Tangshan",,39.511132,118.686928,137,54,11,26,24,10,4,-3,1032,61,1,20141106180000
1267,"Yutian County , Tangshan",,39.908249,117.751417,163,84,8,23,7,13,4,-3,1032,61,1,20141106180000
426,Tangshan,,39.632175,118.186472,134,70,6,27,24,18,-,-,0,-,-,20141106180000
427,"City Monitoring Station, Qinhuangdao",,39.958109,119.607773,80,44,8,31,26,9,,,0,,,20141106180000
428,"Beidaihe, Qinhuangdao",,39.829209,119.53194,5,32,8,7,12,12,,,0,,,20141106180000
429,"Shanhai Pass, Qinhuangdao",,40.019298,119.767898,91,30,4,27,9,5,,,0,,,20141106180000
430,"Contruction Plazz, Qinhuangdao",,39.943187,119.542912,57,79,22,28,22,1,,,0,,,20141106180000
431,"City government, Qinhuangdao",,39.93711,119.612769,80,87,5,18,51,4,,,0,,,20141106180000
1148,"Qinglong EPA, Qinhuangdao",,40.419223,118.958002,72,26,17,2,19,3,,,0,,,20141106180000
1149,"Changli EPA, Qinhuangdao",,39.714369,119.173237,70,52,10,29,14,4,,,0,,,20141106180000
1268,"Lulong County Bureau of Meteorology , Qinhuangdao",,39.901091,118.904857,104,51,10,1,15,8,,,0,,,20141106180000
432,Qinhuangdao,,39.936485,119.606263,80,87,5,18,51,4,,,0,,,20141106180000
433,"CongTai Park, Handan",,36.620197,114.501891,89,52,19,11,17,2,,,0,,,20141106180000
434,"City EPA, Handan",,36.618145,114.518822,107,61,22,11,13,6,,,0,,,20141106180000
435,"East Sewage Factory, Handan",,36.616064,114.548714,102,60,11,27,18,1,,,0,,,20141106180000
436,"Mine Hospital, Handan",,36.578149,114.509854,107,56,21,12,5,3,,,0,,,20141106180000
1150,"Fengfeng mine Inland Revenue Department, Handan",,36.423085,114.245994,124,69,15,11,34,0,,,0,,,20141106180000
1151,"Shexian EPA, Handan",,36.589084,113.692341,129,88,12,28,18,16,,,0,,,20141106180000
1152,"Ci County Vocational Education Center, Handan",,36.380247,114.390119,164,80,17,12,40,3,,,0,,,20141106180000
1153,"Yongnian government guesthouse, Handan",,36.783297,114.502905,112,62,11,20,4,0,,,0,,,20141106180000
1154,"Wuan BDA, Handan",,36.686223,114.269009,154,115,4,33,22,3,,,0,,,20141106180000
1085,Handan,,36.625683,114.544812,102,60,11,27,18,1,,,0,,,20141106180000
437,"Road and Bridge Corporation, Xingtai",,37.096415,114.538799,122,70,5,13,11,4,10,2,1031,50,1,20141106180000
438,"Dahuo fontain, Xingtai",,37.097563,114.488001,132,71,8,11,13,5,10,2,1031,50,1,20141106180000
439,"Xingtai Normal College, Xingtai",,37.053404,114.531819,137,57,8,28,14,5,10,2,1031,50,1,20141106180000
440,"Environment protection office, Xingtai",,37.06253,114.490985,82,70,11,12,11,4,10,2,1031,50,1,20141106180000
1155,"Cultural centers within the mound, Xingtai",,37.293569,114.524873,119,54,15,10,1,16,10,2,1031,50,1,20141106180000
383,Xingtai,,37.071066,114.510749,82,70,11,12,11,4,10,2,1031,50,1,20141106180000
441,"City Monitoring Station, Baoding",,38.871737,115.527103,124,71,13,15,7,0,8,-5,1032,26,2,20141106180000
442,"Surface water Company, Baoding",,38.842891,115.467326,152,62,12,22,8,8,8,-5,1032,26,2,20141106180000
443,"Huadian II, Baoding",,38.896748,115.528102,152,60,12,26,30,1,8,-5,1032,26,2,20141106180000
444,"Reception Center, Baoding",,38.911905,115.477301,109,49,10,10,11,8,8,-5,1032,26,2,20141106180000
445,"Film Factory, Baoding",,38.876949,115.448383,139,56,16,16,6,6,8,-5,1032,26,2,20141106180000
446,"Natatorium, Baoding",,38.863815,115.499212,151,60,38,5,5,3,8,-5,1032,26,2,20141106180000
1156,"Qingyuan City Hall, Baoding",,38.771758,115.502189,151,80,12,24,21,6,8,-5,1032,26,2,20141106180000
1157,"Xushui EPA, Baoding",,39.025781,115.668023,154,75,20,27,3,5,8,-5,1032,26,2,20141106180000
1158,"Zhouzhou Monitoring Stations, Baoding",,39.493241,116.040187,129,65,13,20,12,7,8,-5,1032,26,2,20141106180000
1159,"Gaobeidian EPA, Baoding",,39.3329,115.885891,139,68,16,21,40,6,8,-5,1032,26,2,20141106180000
447,Baoding,,38.874791,115.471124,139,56,16,16,6,6,8,-5,1032,26,2,20141106180000
448,"Century Compound, Zhangjiakou",,40.770279,114.909106,70,48,6,15,12,7,1,-10,1032,29,1,20141106180000
449,"North Pumping Station, Zhangjiakou",,40.874362,114.910119,63,14,18,4,1,6,1,-10,1032,29,1,20141106180000
450,"Hardware Warehouse, Zhangjiakou",,40.81232,114.887119,68,34,38,6,21,15,1,-10,1032,29,1,20141106180000
451,"Tanji Chang, Zhangjiakou",,40.796301,114.89811,68,20,14,9,17,3,1,-10,1032,29,1,20141106180000
1160,"Xiahuayuan EPA, Zhangjiakou",,40.509345,115.302442,78,44,17,11,6,2,1,-10,1032,29,1,20141106180000
1161,"Huaian EPA, Zhangjiakou",,40.68157,114.398646,93,47,11,47,12,12,1,-10,1032,29,1,20141106180000
1162,"Huailai Fuqian Primary School, Zhangjiakou",,40.422204,115.530285,80,32,11,8,1,6,1,-10,1032,29,1,20141106180000
1269,"Zhangbei EPA , Zhangjiakou",,41.166775,114.732369,97,48,14,15,6,4,1,-10,1032,29,1,20141106180000
1270,"Kangbao County Environmental Protection Agency , Zhangjiakou",,41.837866,114.591246,65,36,16,3,7,5,1,-10,1032,29,1,20141106180000
1271,"Guyuan County welfare , Zhangjiakou",,41.669984,115.687401,102,47,13,10,5,6,1,-10,1032,29,1,20141106180000
1272,"Shangyi County Environmental Protection Bureau , Zhangjiakou",,41.086638,113.984688,95,45,15,20,11,8,1,-10,1032,29,1,20141106180000
1273,"Yuxian Secondary School , Zhangjiakou",,39.84699,114.601986,91,49,28,11,14,3,1,-10,1032,29,1,20141106180000
1274,"Yang County Vocational Education Center , Zhangjiakou",,40.106343,114.134732,93,51,17,19,8,13,1,-10,1032,29,1,20141106180000
1275,"Wan county Environmental Protection Agency , Zhangjiakou",,40.770459,114.75033,80,37,22,11,7,3,1,-10,1032,29,1,20141106180000
473,"Nankou road, Tianjin",,39.174022,117.199688,93,60,9,35,18,13,3,-2,1032,70,1,20141106180000
1276,"Zhuolu County Environmental Protection Agency , Zhangjiakou",,40.374273,115.221393,114,48,10,1,10,10,1,-10,1032,29,1,20141106180000
452,Zhangjiakou,,40.825744,114.893659,61,18,20,3,14,2,1,-10,1032,29,1,20141106180000
453,"Railway, Chengde",,40.917557,117.972331,91,51,2,19,9,6,-2,-12,1034,32,1,20141106180000
454,"Cultural Center, Chengde",,40.974625,117.824437,102,58,4,17,7,8,-2,-12,1034,32,1,20141106180000
455,"Bank of China, Chengde",,40.985582,117.958304,139,48,4,19,7,9,-2,-12,1034,32,1,20141106180000
456,"BDA, Chengde",,40.937567,117.969325,65,55,8,14,12,7,-2,-12,1034,32,1,20141106180000
457,"Ligong, Chengde",,41.012579,117.94428,104,61,14,18,4,4,-2,-12,1034,32,1,20141106180000
1163,"Chengde County EPA, Chengde",,40.776643,118.17646,151,52,8,20,13,12,-2,-12,1034,32,1,20141106180000
1164,"Xinglong County City Hall, Chengde",,40.424301,117.513488,114,52,12,17,5,13,-2,-12,1034,32,1,20141106180000
1165,"Luanping EPA, Chengde",,40.950792,117.350715,97,51,8,23,12,7,-2,-12,1034,32,1,20141106180000
1166,"Fengning County City Hall, Chengde",,41.216739,116.658037,159,77,8,15,23,23,-2,-12,1034,32,1,20141106180000
1277,"Longhua EPA , Chengde",,41.311956,117.739605,142,58,7,22,13,23,-2,-12,1034,32,1,20141106180000
458,Chengde,,40.955652,117.968737,65,55,8,14,12,7,-2,-12,1034,32,1,20141106180000
459,"Municipal EPB, Cangzhou",,38.323507,116.876746,65,40,14,30,6,4,4,-3,1032,61,1,20141106180000
460,"Cangxian Urban Construction Bureau, Cangzhou",,38.299495,116.890734,97,59,7,21,31,2,3,-2,1032,70,1,20141106180000
461,"TV Broadcast Station, Cangzhou",,38.325525,116.863761,85,34,16,12,1,7,4,0,1032,75,1,20141106180000
1167,"Qing County City Hall, Cangzhou",,38.589643,116.815876,80,30,17,12,34,9,4,-3,1032,61,1,20141106180000
1168,"Poyoushi City Hall, Cangzhou",,38.089516,116.590575,119,57,13,17,1,7,4,-3,1032,61,1,20141106180000
1169,"Huanghua Finance Bureau Training Center, Cangzhou",,38.377793,117.343356,127,53,2,28,5,2,4,-3,1032,61,1,20141106180000
462,Cangzhou,,38.305035,116.844625,82,31,14,18,1,6,4,0,1032,75,1,20141106180000
463,"Environmental Monitoring Supervision Center, Langfang",,39.558157,116.720995,109,59,15,23,15,7,4,-3,1032,61,1,20141106180000
464,"TCM Medical Material Company, Langfang",,39.519096,116.689914,102,57,11,19,15,8,3,-2,1032,70,1,20141106180000
465,"BDA, Langfang",,39.576175,116.779041,122,59,7,33,15,10,3,-2,1032,70,1,20141106180000
466,"North China Institute of Aerospace, Langfang",,39.53517,116.743027,124,62,11,28,12,9,4,-3,1032,61,1,20141106180000
1170,"Guan Party School, Langfang",,39.446185,116.311026,156,77,16,27,12,7,4,-3,1032,61,1,20141106180000
1171,"Xianghe EPA, Langfang",,39.76725,117.015252,167,96,17,49,16,12,4,-3,1032,61,1,20141106180000
1172,"Wenan County EPA, Langfang",,38.880927,116.47001,154,60,16,22,10,8,4,-3,1032,61,1,20141106180000
1173,"Three Rivers Department of Transportation, Langfang",,39.989419,117.091528,153,82,13,26,10,9,4,-3,1032,61,1,20141106180000
1278,"Yongqing EPA , Langfang",,39.329071,116.510917,165,87,12,28,13,8,4,-3,1032,61,1,20141106180000
1279,"Dacheng EPA, Langfang",,38.712628,116.665751,109,59,16,38,6,6,4,-3,1032,61,1,20141106180000
467,Langfang,,39.539148,116.689668,102,57,11,19,15,8,3,-2,1032,70,1,20141106180000
468,"Hengshui City EPB, Hengshui",,37.739679,115.695929,65,43,14,10,4,4,6,-4,0,44,2,20141106180000
469,"Environmental Monitoring Station, Hengshui",,37.738593,115.648837,109,59,17,26,12,5,6,-4,0,44,2,20141106180000
470,"Electrical Machine North Factory, Hengshui",,37.758686,115.70094,70,46,14,17,6,4,6,-4,0,44,2,20141106180000
1174,"Anping EPA, Hengshui",,38.238559,115.537988,91,38,15,11,5,5,6,-4,0,44,3,20141106180000
1175,"Jizhou EPA, Hengshui",,37.548552,115.58679,97,52,19,13,8,5,6,-4,0,44,3,20141106180000
1280,"Zaoqiang EPA, Hengshui",,37.520698,115.714936,89,50,41,14,7,3,6,-4,0,44,3,20141106180000
1281,"Wuyi EPA, Hengshui",,37.801554,115.898697,87,43,19,9,10,4,6,-4,0,44,3,20141106180000
1282,"Wuqiang EPA , Hengshui",,38.03557,115.959767,74,47,14,1,10,6,6,-4,0,44,3,20141106180000
1283,"Raoyang EPA , Hengshui",,38.230652,115.741041,97,52,19,1,6,5,6,-4,0,44,3,20141106180000
1284,"Gucheng County , Hengshui",,37.347569,115.966707,87,33,20,11,5,4,6,-4,0,44,3,20141106180000
471,Hengshui,,37.739562,115.676066,70,46,14,17,6,4,6,-4,0,44,2,20141106180000
1176,"Xinji City Hall, Xinji",,37.949711,115.230084,107,50,16,5,5,4,6,-4,0,44,3,20141106180000
474,"Qinjian street, Tianjin",,39.166588,117.15104,85,55,11,35,11,13,3,-2,1032,70,1,20141106180000
475,"Nanjing Road, Tianjin",,39.120958,117.195112,59,44,7,28,9,12,3,-2,1032,70,1,20141106180000
476,"Dazhigu No.8 road, Tianjin",,39.111811,117.25147,99,70,16,34,13,18,3,-2,1032,70,1,20141106180000
477,"Qianjin street, Tianjin",,39.09371,117.207981,82,49,6,33,12,11,3,-2,1032,70,1,20141106180000
478,"Huaihe street, Tianjin",,39.227167,117.191293,137,65,4,36,17,11,3,-2,1032,70,1,20141106180000
479,"Xiangshan street, Tianjin",,39.134752,117.275125,99,78,6,26,15,18,3,-2,1032,70,1,20141106180000
480,"Yuejin Road, Tianjin",,39.088177,117.320884,173,82,4,35,19,19,3,-2,1032,70,1,20141106180000
481,"Zhujiang street, Tianjin",,39.064463,117.231268,-,-,-,-,-,-,-,-,0,-,-,20141106180000
482,"No.4 street, Tianjin",,39.035228,117.713424,104,70,3,27,9,8,3,-2,1032,70,1,20141106180000
483,"Yongming road, Tianjin",,38.840392,117.463805,151,69,17,30,9,15,3,-2,1032,70,1,20141106180000
484,"Xinhua street, Tianjin",,39.138671,117.010083,102,65,5,17,12,7,4,0,1032,75,1,20141106180000
485,"Jingu Road, Tianjin",,38.985659,117.381254,129,62,10,33,9,13,4,0,1032,75,1,20141106180000
486,"Tanggu Yingkou street, Tianjin",,39.021768,117.656454,102,53,5,24,5,8,4,0,1032,75,1,20141106180000
487,"Hexi Yijing road, Tianjin",,39.248392,117.798043,-,-,-,-,-,-,-,-,0,-,-,20141106180000
488,"Jianshe Road, Tianjin",,39.720075,117.310588,107,61,11,30,9,11,4,0,1032,75,1,20141106180000
489,"Quanzhou South road, Tianjin",,39.373857,117.050329,127,69,5,37,17,22,4,0,1032,75,1,20141106180000
490,"Donghuan road, Tianjin",,40.043144,117.451062,89,54,12,19,4,13,4,0,1032,75,1,20141106180000
491,"Tuanpowa, Tianjin",,38.920418,117.16299,99,54,14,31,7,8,3,-2,1032,70,1,20141106180000
493,"Beiwei No.2 road, Tianjin",,38.943857,116.920624,151,60,10,36,24,7,4,0,1032,75,1,20141106180000
494,"Haitai fazhan No.2 road, Tianjin",,39.079608,117.096583,147,64,8,41,25,13,4,0,1032,75,1,20141106180000
495,"Hangtian road, Tianjin",,39.152244,117.381309,107,60,2,35,11,13,3,-2,1032,70,1,20141106180000
496,"Hanbei road, Tianjin",,39.159768,117.770477,80,44,5,22,8,11,3,-2,1032,70,1,20141106180000
497,"Baobai highway, Tianjin",,39.51757,117.349635,158,68,11,17,6,11,4,0,1032,75,1,20141106180000
498,Tianjin,,39.085164,117.207281,82,49,6,33,12,11,4,0,1032,75,1,20141106180000
499,"Wolong bridge, Hangzhou",,30.24371,120.132762,165,88,27,21,8,7,14,10,1025,77,1,20141106180000
500,"Hemu primary school, Hangzhou",,30.309669,120.124507,163,100,8,36,7,13,14,10,1025,77,1,20141106180000
501,"Zhejiang Agricultural University, Hangzhou",,30.265601,120.197583,162,85,11,44,9,11,15,10,1025,72,2,20141106180000
502,"Xiasha, Hangzhou",,30.303516,120.352618,208,105,5,41,16,9,14,10,1025,77,1,20141106180000
503,"Yunqi, Hangzhou",,30.178555,120.093142,155,65,11,14,3,7,14,10,1025,77,1,20141106180000
504,"Xixi, Hangzhou",,30.272425,120.068144,156,69,5,28,5,10,14,10,1025,77,1,20141106180000
505,"Chengxiang town, Hangzhou",,30.179493,120.274184,159,81,5,38,7,9,14,10,1025,77,1,20141106180000
506,"Qiandao lake, Hangzhou",,29.638139,119.031092,129,40,34,4,5,5,14,10,1025,77,1,20141106180000
507,"Linping town, Hangzhou",,30.415948,120.305059,195,118,25,30,22,10,14,10,1025,77,1,20141106180000
509,"No.2 Middle School, Hangzhou",,30.044303,119.956356,156,91,13,21,6,11,15,10,1025,72,2,20141106180000
510,"City Hall, Hangzhou",,30.234185,119.723503,158,66,30,17,23,10,15,10,1025,72,2,20141106180000
511,"No. 4 middle school, Hangzhou",,30.229428,119.699591,151,84,10,16,6,12,15,10,1025,72,2,20141106180000
512,Hangzhou,,30.271756,120.159765,169,89,5,45,5,11,15,10,1025,72,2,20141106180000
513,"City Station, Wenzhou",,28.009715,120.679129,160,71,33,12,7,8,14,12,0,87,3,20141106180000
514,"Ouhai, Wenzhou",,28.001846,120.641982,164,76,16,33,7,11,14,12,0,87,3,20141106180000
515,"Longwan, Wenzhou",,27.968122,120.768393,158,78,29,46,6,8,14,12,0,87,3,20141106180000
516,"Nanpu, Wenzhou",,27.981763,120.683685,165,78,30,29,7,12,14,12,0,87,3,20141106180000
517,Wenzhou,,27.990985,120.703425,165,78,30,29,7,12,14,12,0,87,3,20141106180000
518,"Monitoring station, Jiaxing",,30.75437,120.767373,194,120,24,32,17,12,15,12,1024,82,4,20141106180000
519,"Jiaxing University, Jiaxing",,30.745099,120.735004,216,137,25,21,10,12,15,12,1024,82,4,20141106180000
520,"Qinghe Primary School, Jiaxing",,30.775685,120.747969,187,120,21,21,16,13,15,12,1024,82,4,20141106180000
521,Jiaxing,,30.751627,120.762862,194,120,24,32,17,12,15,13,1024,88,4,20141106180000
522,"Chengbei water plant, Huzhou",,30.891155,120.096593,169,97,27,12,9,11,15,11,1024,77,5,20141106180000
523,"Jishan new village, Huzhou",,30.859939,120.120168,177,101,22,13,10,14,15,11,1024,77,5,20141106180000
524,"Town west water plant, Huzhou",,30.862371,120.084577,177,93,4,48,11,13,15,11,1024,77,5,20141106180000
525,Huzhou,,30.892304,120.091694,169,97,27,12,9,11,15,11,1024,77,5,20141106180000
526,"Donghu middle school, Shaoxing",,29.990447,120.647547,167,95,17,25,16,8,15,10,1025,72,2,20141106180000
527,"City EPA station, Shaoxing",,30.001695,120.584318,178,94,12,34,24,8,14,10,1025,77,1,20141106180000
528,"Chengdong BDA committee, Shaoxing",,29.986643,120.613578,173,86,15,22,13,9,14,10,1025,77,1,20141106180000
529,"Paojiang station, Shaoxing",,30.07574,120.62154,183,112,16,45,50,12,14,10,1025,77,1,20141106180000
530,"Shaoxing technical school, Shaoxing",,29.930983,120.577131,161,82,18,25,12,9,15,10,1025,72,2,20141106180000
531,"Library, Shaoxing",,29.706266,120.253183,164,75,9,26,5,13,15,10,1025,72,2,20141106180000
532,"Transporation management station, Shaoxing",,29.726405,120.221602,158,0,14,21,5,12,15,10,1025,72,2,20141106180000
533,"Dongpu Town Governement, Shaoxing",,30.049601,120.539893,195,132,13,31,48,9,15,10,1025,72,2,20141106180000
534,Shaoxing,,29.993122,120.590182,178,94,12,34,24,8,-,-,0,-,-,20141106180000
535,"City Monitoring Station, Jinhua",,29.100031,119.690373,154,79,16,23,19,12,10,8,0,87,2,20141106180000
536,"No.15 middle school, Jinhua",,29.074022,119.652121,154,79,17,26,10,10,10,8,0,87,2,20141106180000
537,"No.4 middle school, Jinhua",,29.110109,119.653654,169,82,11,28,13,10,10,8,0,87,2,20141106180000
538,"Beiyuan, Jinhua",,29.332898,120.083351,162,85,14,28,46,17,10,8,0,87,2,20141106180000
539,"Jiangdong, Jinhua",,29.302486,120.095291,165,84,20,36,14,15,10,8,0,87,2,20141106180000
540,Jinhua,,29.076083,119.65215,154,79,17,26,10,10,10,8,0,87,2,20141106180000
541,"EPA building, Quzhou",,28.937291,118.876081,154,88,23,26,25,10,14,13,1025,95,3,20141106180000
542,"Experimental school, Quzhou",,28.961502,118.880916,156,70,18,22,9,9,14,13,1025,95,3,20141106180000
543,"Quzhou University, Quzhou",,28.971452,118.860052,168,72,9,25,7,11,14,13,1025,95,3,20141106180000
544,Quzhou,,28.966994,118.864252,156,72,9,25,7,11,14,13,1025,95,3,20141106180000
545,"Putuo east port, Zhoushan",,29.951412,122.317679,74,22,61,1,3,5,13,11,1024,88,2,20141106180000
546,"Dinghai tanfeng, Zhoushan",,30.018014,122.126566,78,35,62,9,3,5,13,11,1024,88,2,20141106180000
547,Zhoushan,,29.983049,122.210763,78,41,47,8,3,6,13,11,1024,88,2,20141106180000
548,"Taizhou EPA building, Taizhou",,28.651216,121.42331,195,118,35,17,11,8,13,11,0,86,3,20141106180000
549,"Luqiao Tian Yang Wang, Taizhou",,28.574364,121.381194,181,97,33,10,9,10,13,11,0,86,3,20141106180000
550,"Huangyan EPA building, Taizhou",,28.656151,121.285064,443,0,11,26,7,11,13,11,0,86,3,20141106180000
551,"Yu Zhuang Qian, Lishui",,28.419638,119.883884,159,66,14,22,3,7,13,12,1025,87,1,20141106180000
552,"Monitoring station building, Lishui",,28.444379,119.923103,160,68,18,24,6,8,13,12,1025,87,1,20141106180000
553,"Liandu primary school, Lishui",,28.450912,119.939332,168,82,21,11,2,9,13,12,1025,87,1,20141106180000
554,Lishui,,28.464224,119.927201,160,68,18,24,6,8,13,12,1025,87,1,20141106180000
1248,Jingningxian,,27.977454,119.634837,149,-,13,22,5,7,,,,,,20141106180000
555,Taigu Primary School,,29.864178,121.60022,206,148,21,32,23,13,14,11,1025,82,2,20141106180000
556,Qianhu shuihan,,29.862459,121.5328,206,149,16,34,22,14,13,11,1024,88,2,20141106180000
557,Sanjiang secondary schools,,29.891563,121.568427,210,124,16,30,18,14,12,11,1024,94,1,20141106180000
558,Longsai Hospital,,29.957301,121.726734,188,100,34,23,22,11,12,11,1024,94,1,20141106180000
559,Beilun District EPB,,29.911633,121.850773,198,123,10,38,13,12,12,11,1024,94,1,20141106180000
560,Wanli University,,29.821314,121.574364,207,133,20,12,20,12,12,11,1024,94,1,20141106180000
561,Qianhu water plant,,29.774416,121.648136,200,116,15,33,12,14,12,11,1024,94,1,20141106180000
562,Municipal management station,,29.899182,121.626691,224,143,11,17,12,14,12,11,1024,94,1,20141106180000
1177,Daxie Literary Museum,,29.9027,121.986447,89,39,46,7,5,7,14,11,1025,82,2,20141106180000
1178,Cixi EPB,,30.165807,121.248991,234,133,17,39,19,14,12,11,1024,94,1,20141106180000
1179,Cixi Experimently Primary School,,30.179808,121.268672,197,130,18,27,22,14,12,11,1024,94,1,20141106180000
1180,"Yongsan Park, Yuyao",,30.050842,121.162477,174,110,6,38,10,16,12,11,1024,94,1,20141106180000
1181,"Qilupu Water Company, Yuyao",,30.039112,121.133416,186,113,3,34,12,13,12,11,1024,94,1,20141106180000
1182,Fenghua EPB,,29.666557,121.42069,200,99,23,29,12,12,12,11,1024,94,1,20141106180000
1183,"Yuelong station, Ninghai",,29.296505,121.445872,175,91,16,18,9,10,12,11,1024,94,1,20141106180000
1184,"Wenfeng Primary School, Xiangshan",,29.470908,121.889544,237,123,34,27,14,12,12,11,1024,94,1,20141106180000
1185,"Chengnan Primary School, Ninghai",,29.293812,121.43666,175,95,16,17,11,11,12,11,1024,94,1,20141106180000
1186,"Xingang Primary School, Xiangshan",,29.203878,121.952514,97,63,71,9,6,8,12,11,1024,94,1,20141106180000
1356,Haishu City Monitoring Center,,29.86835,121.539341,199,142,14,33,13,14,12,11,1024,94,1,20141106180000
1357,Fenghua Xikou government,,29.693164,121.29331,172,78,15,22,5,10,12,11,1024,94,1,20141106180000
1294,Ningbo,,29.865766,121.548164,224,143,11,17,12,14,12,11,1024,94,1,20141106180000
1187,Fuyang,,30.046157,119.96468,156,91,13,21,6,11,-,-,0,-,-,20141106180000
1188,Yiwu,,29.304353,120.079794,163,86,16,31,27,17,-,-,0,-,-,20141106180000
1189,Zhuji,,29.711185,120.240748,164,75,14,26,5,13,15,10,1025,72,2,20141106180000
563,"Shanxi Road , Nanjing",,32.06795,118.779216,171,99,24,25,14,0,10,9,1026,94,1,20141106180000
564,"Ruijin Road , Nanjing",,32.029321,118.80817,164,90,16,21,12,0,10,9,1026,94,1,20141106180000
565,"Xuanwu Lake, Nanjing",,32.075423,118.800188,162,84,14,31,10,0,10,9,1026,94,1,20141106180000
566,"Olympic Center, Nanjing",,32.007171,118.742217,164,95,31,7,3,0,10,9,1026,94,1,20141106180000
567,"Xianlin University Town , Nanjing",,32.106958,118.919882,169,95,24,14,8,0,10,9,1026,94,1,20141106180000
568,Nanjing,,32.058179,118.802061,159,90,22,21,8,0,10,9,1026,94,1,20141106180000
569,"Shangfang hill , Suzhou",,31.24502,120.565211,181,91,24,21,10,0,15,12,1024,82,4,20141106180000
570,"Wuzhong District , Suzhou",,31.268105,120.61717,190,129,31,20,13,0,15,12,1024,82,4,20141106180000
571,"Suzhou New District , Suzhou",,31.297277,120.547262,191,137,22,38,33,0,15,12,1024,82,4,20141106180000
572,"Suzhou Industrial Area, Suzhou",,31.307603,120.673257,178,84,25,15,12,0,15,12,1024,82,4,20141106180000
573,"Xiangcheng district, Suzhou",,31.368674,120.645209,181,98,30,15,16,0,15,12,1024,82,4,20141106180000
574,Suzhou,,31.296701,120.589493,191,95,31,38,33,0,15,13,1024,88,4,20141106180000
575,"South suburb , Nantong",,31.957836,120.917218,176,91,49,12,20,0,13,10,0,80,4,20141106180000
576,"Xinghu park, Nantong",,31.927873,120.944254,189,123,50,15,11,0,13,10,0,80,4,20141106180000
577,"Zilang school, Nantong",,32.039638,120.814358,176,102,44,17,10,0,13,10,0,80,4,20141106180000
578,Nantong,,31.978005,120.898555,189,123,50,20,20,0,13,10,0,80,4,20141106180000
579,Lianyungang,,34.595509,119.226814,152,84,21,27,10,7,8,8,1016,96,0,20141106180000
580,"Hongmen police substation, Lianyungang",,34.588692,119.146693,46,57,10,7,9,0,7,3,1030,69,5,20141106180000
581,"Xugou Nuclear Expert Village , Lianyungang",,34.749957,119.373707,9,32,22,4,9,0,7,3,1030,69,5,20141106180000
582,"Hengrui pharmaceutical company, BDA, Lianyungang",,34.697574,119.353668,25,31,20,7,9,0,7,3,1030,69,5,20141106180000
583,"City Monitoring Station, Lianyungang",,34.586791,119.186929,25,37,16,10,12,0,7,3,1030,69,5,20141106180000
584,"Yellow river new village , Xuzhou",,34.271542,117.177241,70,66,10,22,28,0,11,4,1029,53,3,20141106180000
585,"Tongshan Veterinary Hospital , Xuzhou",,34.307086,117.197766,72,68,9,30,29,0,8,3,1030,60,3,20141106180000
586,"New Town , Xuzhou",,34.213992,117.261718,46,57,19,11,7,0,8,3,1030,60,3,20141106180000
587,"Taoyuan road, Xuzhou",,34.289822,117.249721,74,68,11,24,45,0,8,3,1030,60,3,20141106180000
588,"Agricultural Science Academy , Xuzhou",,34.27655,117.299079,65,57,11,8,27,0,8,3,1030,60,3,20141106180000
589,"Tongshan EPA, Xuzhou",,34.179384,117.171798,61,64,12,10,15,0,8,3,1030,60,3,20141106180000
590,Xuzhou,,34.20346,117.289825,74,68,19,30,45,0,8,3,1030,60,3,20141106180000
591,Yangzhou,,32.39233,119.418446,159,69,10,19,10,5,11,9,0,90,6,20141106180000
592,"Hanjiang Monitoring Station, Yangzhou",,32.374218,119.394484,127,74,31,10,8,0,11,9,0,84,4,20141106180000
593,"No. 4 Hospital, Yangzhou",,32.401394,119.44444,158,82,34,7,12,0,11,9,0,84,4,20141106180000
594,"City Monitoring Station, Yangzhou",,32.406588,119.41591,153,86,25,2,19,0,11,9,0,84,4,20141106180000
595,"University Town , Wuxi",,31.484752,120.273571,174,110,39,17,25,0,15,12,1024,82,4,20141106180000
596,"Shibei High School , Wuxi",,31.619969,120.279584,177,110,29,19,34,0,15,12,1024,82,4,20141106180000
597,"Yuhong Elementary School , Wuxi",,31.561155,120.249588,169,100,32,22,26,0,15,12,1024,82,4,20141106180000
598,Wuxi,,31.488746,120.31575,187,110,39,29,34,0,-,-,0,-,-,20141106180000
599,Changzhou,,31.808037,119.979205,172,86,6,22,36,13,11,9,0,88,5,20141106180000
600,"Chengjian School, Changzhou",,31.776476,119.937681,159,76,37,13,11,0,13,10,0,86,4,20141106180000
601,"Changzhou Engineering Institute , Changzhou",,31.806828,119.966724,160,76,35,12,10,0,13,10,0,86,4,20141106180000
602,"Wujin Monitoring Station, Changzhou",,31.701788,119.939676,183,84,35,12,12,0,13,10,0,86,4,20141106180000
603,"City Monitoring Station, Changzhou",,31.777201,119.979426,163,76,38,15,11,0,13,10,0,86,4,20141106180000
604,Zhenjiang,,32.18597,119.431281,170,79,4,39,15,13,9,8,0,93,5,20141106180000
605,"New District Administrative office , Zhenjiang",,32.186174,119.685021,152,80,40,19,8,0,10,9,1026,94,1,20141106180000
606,"Vocational Education Center , Zhenjiang",,32.212973,119.496253,147,73,37,20,4,0,10,9,1026,94,1,20141106180000
607,"Dantu Monitoring Station , Zhenjiang",,32.130026,119.435432,154,77,34,12,9,0,9,9,1026,100,1,20141106180000
608,"City Monitoring Station, Zhenjiang",,32.202178,119.439766,157,76,29,17,7,0,9,9,1026,100,1,20141106180000
609,"Gaogang Adminstrative office , Taizhoushi",,32.300768,119.886757,169,93,38,9,15,0,11,9,0,85,4,20141106180000
610,"Students Innovation Park , Taizhoushi",,32.461672,119.892761,159,36,35,8,19,0,11,9,0,85,4,20141106180000
611,Taizhoushi,,32.453555,119.927852,173,96,38,18,21,0,11,9,0,85,4,20141106180000
612,"Yancheng power station , Yancheng",,33.400859,120.123067,157,80,30,17,6,0,,,0,,,20141106180000
613,Yancheng,,33.345939,120.168504,144,52,30,5,3,7,11,10,1016,95,4,20141106180000
614,"Wenfeng Middle School , Yancheng",,33.370531,120.134041,157,84,42,14,31,0,,,0,,,20141106180000
615,"BDA Management Committe, Yancheng",,33.393191,120.22978,102,53,30,12,6,0,,,0,,,20141106180000
616,"City Monitoring Station, Yancheng",,33.390623,120.164423,160,82,23,11,10,0,,,0,,,20141106180000
617,Suqian,,33.960666,118.281004,160,87,24,7,5,7,11,10,0,91,6,20141106180000
618,"Suqian College , Suqian",,33.951472,118.298523,68,48,21,17,2,0,8,3,0,71,5,20141106180000
619,"Suqian Middle School , Suqian",,33.95784,118.249505,72,58,17,12,7,0,8,3,0,71,5,20141106180000
620,"Suyu District Environmental Protection Agency , Suqian",,33.94932,118.326569,80,50,23,10,4,0,8,3,0,71,5,20141106180000
621,"City Monitoring Station, Suqian",,33.956982,118.277022,102,50,12,8,30,0,8,3,0,71,5,20141106180000
622,Taizhou,,28.653436,121.425185,195,118,35,17,11,8,13,11,0,86,3,20141106180000
623,Donghu Liyuan,,30.572324,114.377844,109,48,13,22,4,7,12,10,1025,88,3,20141106180000
624,Yuehu Lake,,30.554662,114.256937,122,68,9,28,3,7,12,10,1025,88,3,20141106180000
625,Hankou Huaqiao ,,30.61724,114.287652,119,52,10,22,5,11,12,10,1025,88,3,20141106180000
626,Wuchang Ziyang ,,30.530801,114.309438,122,74,8,33,6,6,12,10,1025,88,3,20141106180000
627,Qingshan Ganghua,,30.622435,114.375599,127,53,9,27,11,14,12,10,1025,88,3,20141106180000
628,Dunkou Xinou,,30.480091,114.162176,119,108,8,37,8,12,12,10,1025,88,3,20141106180000
629,Donghu Gaoxin,,30.48095,114.40724,149,95,12,38,7,11,12,10,1025,88,3,20141106180000
630,Wujianshan,,30.63114,114.135907,129,55,7,19,6,17,12,10,1025,88,3,20141106180000
631,Yuanshun Road,,30.297142,113.858587,109,62,13,27,8,4,12,10,1025,88,3,20141106180000
632,Wuhan,,30.590689,114.310838,95,53,10,11,1,8,12,10,1025,88,3,20141106180000
1190,"Silingsan Factory, Yichang",,30.713288,111.306585,1,1,5,0,0,7,14,12,1026,89,1,20141106180000
633,Yichang,,30.689528,111.292131,1,1,9,0,0,9,14,12,1026,89,1,20141106180000
633,Yichang,,30.689528,111.292131,1,1,9,0,0,9,14,12,1026,89,1,20141106180000
1191,"City Library , Jingzhou",,30.31494,112.260844,1,1,5,0,0,7,14,11,1024,73,2,20141106180000
1192,"City committee communist party school, Jingzhou",,30.35054,112.20743,1,1,7,0,0,8,14,11,1024,73,2,20141106180000
1193,"kerong EPA, Jingzhou",,30.302965,112.29443,137,1,18,0,9,9,14,11,1024,73,2,20141106180000
634,Jingzhou,,30.332608,112.245451,139,67,18,21,11,9,14,11,1024,73,2,20141106180000
634,Jingzhou,,30.332608,112.245451,139,67,18,21,11,9,14,11,1024,73,2,20141106180000
635,Huangshi,,30.19723,115.043908,156,76,9,22,10,22,13,,1028,92,3,20141106180000
635,Huangshi,,30.19723,115.043908,156,76,9,22,10,22,13,,1028,92,3,20141106180000
1194,"Chenjiaying, Huangshi",,30.232823,115.067923,153,78,5,22,8,20,13,,1028,92,3,20141106180000
1195,"Chenjiawan , Huangshi",,30.200422,115.082138,156,76,11,23,9,26,13,,1028,92,3,20141106180000
1196,"Xinxialu, Huangshi",,30.17332,114.954357,153,79,10,28,11,21,13,,1028,92,3,20141106180000
1197,"Tie montian, Huangshi",,30.203885,114.906439,160,70,11,10,12,19,13,,1028,92,3,20141106180000
1198,"BDA, Huangshi",,30.207491,115.031739,156,75,7,31,11,25,13,,1028,92,3,20141106180000
636,Shiyan,,32.627208,110.803311,154,65,32,7,9,5,5,,0,91,1,20141106180000
636,Shiyan,,32.627208,110.803311,154,65,32,7,9,5,5,,0,91,1,20141106180000
1199,"Wudang Mountain , Shiyan",,32.392921,111.047655,127,47,32,5,6,5,11,,0,70,2,20141106180000
1200,"Riverside Village , Shiyan",,32.647286,110.785335,153,62,33,11,11,3,5,,0,91,1,20141106180000
1201,"Liujiagou , Shiyan",,32.636732,110.731129,159,65,23,7,9,6,5,,0,91,1,20141106180000
637,Xiangyang,,32.007029,112.128496,97,45,14,11,5,8,6,,1029,73,3,20141106180000
637,Xiangyang,,32.007029,112.128496,97,45,14,11,5,8,6,,1029,73,3,20141106180000
638,Ezhou,,30.389244,114.899884,155,72,6,17,4,10,11,,1035,100,3,20141106180000
638,Ezhou,,30.389244,114.899884,155,72,6,17,4,10,11,,1035,100,3,20141106180000
1203,"City government, Ezhou",,30.391836,114.892822,152,66,4,19,6,13,11,,1035,100,3,20141106190000
1204,"Zhaojiaba, Ezhou",,30.368966,114.90365,155,74,6,18,3,8,11,,1035,100,3,20141106190000
1205,"Fankou BDA, Ezhou",,30.410759,114.818225,158,76,9,12,4,8,11,,1035,100,3,20141106190000
639,Jingmen,,31.033208,112.205093,158,93,5,24,21,10,10,,1020,88,1,20141106190000
639,Jingmen,,31.033208,112.205093,158,93,5,24,21,10,10,,1020,88,1,20141106190000
640,Xiaogan,,30.922089,113.922387,129,63,11,7,2,14,12,,1025,87,3,20141106190000
640,Xiaogan,,30.922089,113.922387,129,63,11,7,2,14,12,,1025,87,3,20141106190000
1206,"wenhua street, Shenyang , Xiaogan",,30.925856,113.92104,137,67,8,12,1,21,12,,1025,87,3,20141106190000
1207,"Dongcheng District , Huludao , Xiaogan",,30.917963,113.943904,122,60,13,1,3,7,12,,1025,87,3,20141106190000
641,Huanggang,,30.45124,114.877378,147,64,15,11,2,17,11,,1035,100,3,20141106190000
641,Huanggang,,30.45124,114.877378,147,64,15,11,2,17,11,,1035,100,3,20141106190000
1208,"Dazhou Island, Huanggang",,30.446205,114.900323,147,74,9,17,1,17,11,,1035,100,3,20141106190000
1209,"Workers Center , Huanggang",,30.469244,114.912504,149,55,21,5,3,17,11,,1035,100,3,20141106190000
642,Xianning,,29.838978,114.327898,142,65,16,9,30,21,12,,999,70,2,20141106190000
642,Xianning,,29.838978,114.327898,142,65,16,9,30,21,12,,999,70,2,20141106190000
1210,"Municipal Development and Reform Commission , Xianning",,29.818645,114.328461,152,65,20,11,62,21,12,,999,70,2,20141106190000
1211,"Xianan District Governement, Xianning",,29.51107,114.181864,151,69,3,9,3,24,12,,1008,83,2,20141106190000
1212,"Yangtze River Industrial Park , Xianning",,29.883098,114.32909,134,67,19,11,21,21,12,,999,70,2,20141106190000
1213,"Qianshan Park, Xianning",,29.815351,114.328689,124,60,21,6,7,18,12,,999,70,2,20141106190000
643,Suizhou,,31.688342,113.388675,114,62,13,14,8,18,7,,1022,84,3,20141106190000
643,Suizhou,,31.688342,113.388675,114,62,13,14,8,18,7,,1022,84,3,20141106190000
1338,"City committee communist party school, Suizhou",,31.725316,113.3648,119,65,8,18,2,11,8,,1022,75,2,20141106190000
1339,"Forestry Bureau, Suizhou",,31.690065,113.383157,114,59,20,6,8,16,8,,1022,75,2,20141106190000
645,Xiantao,,30.360228,113.460616,152,83,10,6,25,16,12,,1036,71,5,20141106190000
645,Xiantao,,30.360228,113.460616,152,83,10,6,25,16,12,,1036,71,5,20141106190000
1214,"Xiangcheng Yundong Street, Xiangfan",,32.017716,112.16102,97,46,10,10,4,4,6,,1029,73,3,20141106190000
1359,"Fancheng Xinhua Road , Xiangfan",,32.0544,112.145224,99,44,19,12,6,12,6,,1029,73,3,20141106190000
655,"City Environmental Monitoring Station, Baotou",,40.657201,109.886738,165,87,6,34,20,12,,,0,,,20141106190000
656,"Donghe EPB, Baotou",,40.586213,110.002224,155,128,7,11,18,16,,,0,,,20141106190000
657,"Baotou shopping mall, Baotou",,40.508334,109.819085,175,102,5,37,25,13,,,0,,,20141106190000
658,"Huilong logistics, Baotou",,40.633436,109.879821,168,94,7,35,17,13,,,0,,,20141106190000
659,Baotou,,40.658597,109.846051,175,139,8,37,25,16,,,0,,,20141106190000
660,"Huatai Automobile Mall, Eerduosi",,39.837048,109.972209,80,58,43,21,13,7,3,-7,1025,33,3,20141106190000
661,"Olympus Garden, Eerduosi",,39.789171,109.987742,65,46,34,19,13,8,3,-7,1025,33,3,20141106190000
662,Eerduosi,,39.609284,109.78704,89,58,43,28,22,9,3,-7,1025,33,3,20141106190000
663,"Tianyi Road, Chifeng",,42.275552,118.88507,124,57,17,9,8,10,-7,-16,1037,36,1,20141106190000
664,"Songshan No.1 Middle School, Chifeng",,42.329307,118.793045,117,67,14,10,25,11,-7,-16,1037,36,1,20141106190000
665,"Hada Street, Chifeng",,42.280714,118.988235,147,65,9,9,13,10,-7,-16,1037,36,1,20141106190000
666,"Songshan Road, Chifeng",,42.171487,118.89501,72,55,27,6,18,9,-7,-16,1037,36,1,20141106190000
667,Chifeng,,42.259752,118.893027,147,67,27,10,25,11,-7,-16,1037,36,1,20141106190000
674,Fuzhou,,26.071406,119.301294,164,74,44,22,3,8,20,14,1020,68,9,20141106190000
675,"Xidong, Xiamen",,24.815345,118.161848,117,49,31,2,5,7,22,16,1019,69,6,20141106190000
676,"Hongwen, Xiamen",,24.473969,118.156281,109,57,40,9,5,8,22,16,1019,69,6,20141106190000
677,"Gulangyu, Xiamen",,24.443168,118.068571,99,46,42,6,8,6,22,16,1019,69,6,20141106190000
678,"Huli, Xiamen",,24.51235,118.099146,124,51,59,6,7,5,22,16,1019,69,6,20141106190000
679,Xiamen,,24.477187,118.094402,124,51,59,6,7,5,-,-,0,-,-,20141106190000
680,"Qingyuan Montain, Quanzhou",,24.939503,118.598337,89,38,31,5,3,5,22,16,1019,69,6,20141106190000
681,"Tushan Street, Quanzhou",,24.90867,118.586397,97,37,49,6,2,4,22,16,1019,69,6,20141106190000
682,"Wanan, Quanzhou",,24.304154,118.070903,93,33,30,5,2,7,22,16,1019,69,6,20141106190000
683,Quanzhou,,24.87179,118.68001,97,47,49,8,5,7,22,16,1019,69,6,20141106190000
687,"Jiancaoping, Taiyuan",,37.887889,112.528383,55,51,9,8,9,8,6,-8,1027,36,4,20141106190000
688,"Jianhe, Taiyuan",,37.910779,112.579258,74,56,5,9,25,7,6,-8,1027,36,5,20141106190000
689,"Shanglan, Taiyuan",,38.011589,112.440679,76,47,12,16,25,4,6,-8,1027,36,4,20141106190000
690,"Jinyuan, Taiyuan",,37.713164,112.475552,78,52,14,17,30,1,6,-8,1027,36,4,20141106190000
691,"Xiaodian, Taiyuan",,37.782137,112.483533,72,52,12,18,51,9,6,-8,1027,36,4,20141106190000
692,"Taoyuan, Taiyuan",,37.869752,112.543332,61,45,6,16,11,8,6,-8,1027,36,4,20141106190000
693,"Wucheng, Taiyuan",,37.819998,112.576252,97,67,6,17,37,5,6,-8,1027,36,5,20141106190000
694,"Nanzhai, Taiyuan",,37.985902,112.555312,70,40,16,5,11,2,6,-8,1027,36,4,20141106190000
695,"Jinsheng, Taiyuan",,37.781205,112.494494,65,55,11,17,60,10,6,-8,1027,36,5,20141106190000
696,Taiyuan,,37.871115,112.555178,61,45,6,16,11,8,-,-,0,-,-,20141106190000
697,"Monitoring station, Changzhi",,36.194062,113.10389,151,87,19,16,12,18,,,0,,,20141106190000
698,"Auditing bureau, Changzhi",,36.212787,113.095221,152,67,25,15,9,17,,,0,,,20141106190000
699,"Qinghua station, Changzhi",,36.154328,113.116385,99,75,20,18,9,19,,,0,,,20141106190000
700,"No.8 middle school, Changzhi",,36.185451,113.099481,124,65,15,14,17,12,,,0,,,20141106190000
701,Changzhi,,36.195553,113.12292,152,87,25,23,17,20,,,0,,,20141106190000
702,"Yungang Hotel, Datong",,40.076997,113.278079,34,29,28,5,13,14,2,-10,1029,27,2,20141106190000
703,"college of education, Datong",,40.085608,113.27808,53,18,15,3,10,8,3,-10,1031,23,3,20141106190000
704,Datong,,40.078016,113.307143,74,35,11,16,11,9,2,-10,1029,27,2,20141106190000
705,"Technical Schools, Linfen",,36.07131,111.509046,142,60,11,17,23,20,5,-1,0,62,3,20141106190000
706,"Municipal party committee, Linfen",,36.087425,111.508771,122,40,14,8,10,20,5,-1,0,62,3,20141106190000
1073,"City Monitoring Station, Linfen",,36.097676,111.518739,89,43,9,12,16,16,5,-1,0,62,3,20141106190000
707,"South Airport, Linfen",,36.041614,111.497968,154,70,25,12,30,11,5,-1,0,62,3,20141106190000
708,Linfen,,36.087944,111.525098,154,38,35,14,26,20,5,-1,0,62,3,20141106190000
709,"City center, Yangquan",,37.848012,113.578636,156,71,10,12,38,8,6,-8,1027,36,3,20141106190000
710,Yangquan,,37.857475,113.586921,156,71,18,12,46,14,6,-8,1027,36,3,20141106190000
711,"Water Company, Jincheng",,35.504787,112.857245,122,49,8,9,15,7,10,-4,1029,24,2,20141106190000
712,"Baiyun shopping mall, Jincheng",,35.492858,112.841566,119,70,6,23,19,67,10,-4,1029,24,2,20141106190000
713,"City EPA, Jincheng",,35.488422,112.858528,93,67,7,15,9,15,10,-4,1029,24,2,20141106190000
714,"Institute of Technology, Jincheng",,35.484844,112.878073,134,60,6,11,22,9,10,-4,1029,24,2,20141106190000
715,"No.1 middle school, Jincheng",,35.478725,112.838636,107,48,8,12,13,6,10,-4,1029,24,2,20141106190000
716,Jincheng,,35.490287,112.85794,134,70,8,23,22,67,10,-4,1029,24,2,20141106190000
718,"District Government, Shuozhou",,39.320857,112.430641,154,31,6,23,45,19,3,-8,1030,32,1,20141106190000
719,"City EPA, Shuozhou",,39.331495,112.407997,-,65,-,22,31,-,3,-8,1030,32,1,20141106190000
720,"No.2 middle school, Shuozhou",,39.377963,112.432877,159,94,15,28,50,14,3,-8,1030,32,1,20141106190000
721,Shuozhou,,39.332756,112.439672,182,197,15,28,56,19,3,-8,1030,32,1,20141106190000
722,"Jinlun compound, Jinzhong",,37.697891,112.771017,70,40,14,6,20,12,6,-8,1027,36,5,20141106190000
723,"Hydraulic Component Factory, Jinzhong",,37.688355,112.725844,85,54,15,18,56,6,6,-8,1027,36,3,20141106190000
724,"Nandu compound, Jinzhong",,37.713148,112.732036,76,55,5,5,64,3,6,-8,1027,36,3,20141106190000
725,"Yuci district government, Jinzhong",,37.698228,112.714167,72,46,6,2,21,9,6,-8,1027,36,3,20141106190000
726,Jinzhong,,37.687705,112.759187,85,55,15,18,64,12,6,-8,1027,36,3,20141106190000
727,"Yuncheng Middle School, Yuncheng",,35.012345,111.003215,152,93,29,7,21,13,13,2,1026,33,4,20141106190000
728,"Yudou BDA, Yuncheng",,35.05065,111.029571,164,100,21,4,17,13,13,2,1026,33,4,20141106190000
730,"Regional Technical School, Yuncheng",,35.028727,110.974076,-,-,-,-,-,-,-,-,0,-,-,20141106190000
731,"Airport new district, Yuncheng",,35.084515,111.05339,151,83,23,5,20,22,13,2,1026,33,4,20141106190000
732,Yuncheng,,35.025675,111.013344,164,100,29,7,21,22,-,-,0,-,-,20141106190000
733,"Jiyin, Xinzhou",,38.413292,112.742432,99,40,19,9,2,7,6,-8,1027,36,3,20141106190000
734,"BDA, Xinzhou",,38.450069,112.736723,65,30,9,2,16,8,6,-8,1027,36,3,20141106190000
735,"Convention Center, Xinzhou",,38.492043,112.709772,109,51,13,22,16,24,6,-9,1027,34,4,20141106190000
736,Xinzhou,,38.417244,112.740742,99,49,19,26,16,8,6,-8,1027,36,3,20141106190000
737,"City EPA, Luliang",,37.522189,111.144365,168,118,2,23,61,33,13,12,0,90,2,20141106190000
738,"Soybean factory, Luliang",,37.51689,111.135101,179,142,2,41,63,42,13,12,0,90,2,20141106190000
739,"Water Company, Luliang",,37.53394,111.138834,181,146,8,13,62,37,13,12,0,90,2,20141106190000
740,Luliang,,25.027007,103.668566,181,146,3,13,62,37,13,12,0,90,2,20141106190000
741,"City government, Sanmenxia",,34.776251,111.198781,97,65,13,12,10,11,12,0,1025,31,3,20141106190000
743,"BDA, Sanmenxia",,34.800434,111.204332,109,62,25,13,15,10,12,0,1025,31,3,20141106190000
744,Sanmenxia,,34.771506,111.206129,109,67,26,13,15,12,12,0,1025,31,3,20141106190000
745,"Food Factory, Changchun",,43.919094,125.329521,134,68,4,24,36,8,-8,-14,1030,63,3,20141106190000
746,"Bus Factory, Changchun",,43.912337,125.293431,158,78,4,32,18,9,-8,-14,1030,63,3,20141106190000
747,"Institute of Posts and Telecommunications, Changchun",,43.842368,125.285005,161,78,2,28,29,29,-7,-14,1031,58,2,20141106190000
748,"Laodong Park, Changchun",,43.877293,125.371519,157,103,4,33,26,8,-8,-14,1030,63,3,20141106190000
749,"Forest area, Changchun",,43.871825,125.331519,156,82,2,27,20,16,-8,-14,1030,63,3,20141106190000
750,"Jinyuetan, Changchun",,43.79031,125.460561,139,58,11,18,5,13,-8,-14,1030,63,3,20141106190000
751,"Shuaiwanzi, Changchun",,43.552321,125.639086,162,97,8,17,3,9,-8,-14,1030,63,3,20141106190000
752,"Economic Development Zone Sanitation Department, Changchun",,43.869221,125.42365,198,142,8,31,18,6,-8,-14,1030,63,3,20141106190000
753,"High-tech Zone Administrative Committee, Changchun",,43.819064,125.256375,175,131,5,21,5,19,-8,-14,1030,63,3,20141106190000
754,"Daishan Park, Changchun",,43.852365,125.223399,174,129,6,26,12,10,-8,-14,1030,63,3,20141106190000
755,Changchun,,43.819415,125.329977,163,95,2,27,21,29,-,-,0,-,-,20141106190000
756,"Hadawan, Jilin",,43.888081,126.545727,167,88,9,18,9,15,-4,-16,0,38,2,20141106190000
757,"Fengman, Jilin",,43.768169,126.678802,132,56,21,6,5,8,-4,-16,0,38,2,20141106190000
758,"Electric Power College, Jilin",,43.827403,126.502281,153,63,9,17,8,10,-4,-16,0,38,2,20141106190000
759,"Jiangnan Park, Jilin",,43.83531,126.556519,173,79,9,22,7,8,-4,-16,0,38,2,20141106190000
760,"Dongjuzi, Jilin",,43.838597,126.590068,157,75,6,13,4,9,-4,-16,0,38,2,20141106190000
763,Jilin,,43.840137,126.555262,192,108,21,22,9,15,-4,-16,0,38,2,20141106190000
764,"Lingbei, Haerbin",,45.756979,126.548008,190,112,25,22,12,18,-8,-12,1028,73,3,20141106190000
765,"Songbei Commercial University, Haerbin",,45.818624,126.566963,212,129,25,16,16,17,-8,-12,1028,73,3,20141106190000
766,"Acheng huining, Haerbin",,45.544286,126.985183,336,166,20,15,5,8,-8,-12,1028,73,3,20141106190000
767,"Nangang College Street, Haerbin",,45.724121,126.604906,198,170,30,18,8,22,-8,-12,1028,73,3,20141106190000
768,"Taiping Hongwei Park, Haerbin",,45.775332,126.695101,188,115,24,24,33,13,-8,-12,1028,73,3,20141106190000
769,"Daowai Chengde Square, Haerbin",,45.768637,126.640955,196,151,27,35,61,13,-8,-12,1028,73,3,20141106190000
770,"Xiangfang Hongqi Street, Haerbin",,45.733936,126.691083,184,116,23,13,17,15,-8,-12,1028,73,3,20141106190000
771,"Dongli Heping Road, Haerbin",,45.727765,126.651974,193,121,24,33,42,11,-8,-12,1028,73,3,20141106190000
772,"Daoli Jianguo Road, Haerbin",,45.749715,126.59891,194,133,27,35,32,11,-8,-12,1028,73,3,20141106190000
773,"Pingfang Light Factory, Haerbin",,45.611951,126.620898,228,151,6,29,12,14,-8,-12,1028,73,3,20141106190000
774,"Hulan Normal College, Haerbin",,45.983745,126.616553,254,290,34,20,4,16,-8,-12,1028,73,3,20141106190000
775,"Provincial Academy of Agricultural Sciences, Haerbin",,45.686141,126.626517,264,155,19,28,24,12,-8,-12,1028,73,3,20141106190000
776,Haerbin,,45.805757,126.541007,212,129,25,16,16,17,-,-,0,-,-,20141106190000
777,"Anju Compound, Qiqihaer",,47.365672,123.937016,91,93,31,6,3,10,-5,-12,1028,45,3,20141106190000
778,"Farming Vehicule Factory, Qiqihaer",,47.326793,123.961427,82,13,20,13,45,6,-5,-12,1028,45,3,20141106190000
779,"Fuqu EPA, Qiqihaer",,47.1853,123.62322,183,82,26,-,5,10,-5,-12,1028,45,3,20141106190000
780,"City Center Square, Qiqihaer",,47.343096,123.96192,63,20,24,2,3,5,-5,-12,1028,45,3,20141106190000
1217,"City Environmental Monitoring Station, Qiqihaer",,47.303639,123.957551,78,47,18,3,5,5,-5,-12,1028,45,3,20141106190000
781,Qiqihaer,,47.356387,123.924736,183,82,31,13,45,10,-5,-12,1028,45,3,20141106190000
782,"Saertu District, Daqing",,46.582368,125.152904,76,30,37,3,13,5,-4,-12,1030,51,4,20141106190000
783,"Datong District, Daqing",,46.036786,124.842115,63,29,27,3,5,6,-4,-12,1030,51,4,20141106190000
784,"Honggang District, Daqing",,46.418381,124.88973,80,28,41,11,7,5,-4,-12,1030,51,4,20141106190000
785,"Longfeng District, Daqing",,46.535426,125.107043,76,27,24,22,19,9,-4,-12,1030,51,4,20141106190000
786,"Ranghulu District, Daqing",,46.635123,124.85648,65,28,27,6,6,4,-4,-12,1030,51,4,20141106190000
787,Daqing,,46.591414,125.110838,80,30,41,22,19,9,-4,-12,1030,51,4,20141106190000
788,"Locomotive Factory, Mudanjiang",,44.610589,129.652672,201,99,29,14,5,3,-8,-14,1030,46,1,20141106190000
789,"No. 1 hospital, Mudanjiang",,44.567775,129.617043,181,110,32,13,2,5,-8,-14,1030,46,1,20141106190000
1220,"EPA building, Mudanjiang",,44.567777,129.620658,244,74,26,8,5,4,-8,-14,1030,46,1,20141106190000
1221,"Cultural Square, Mudanjiang",,44.586388,129.623164,192,110,20,17,5,3,-8,-14,1030,46,1,20141106190000
790,Mudanjiang,,44.553619,129.640246,244,110,32,17,13,5,-8,-14,1030,46,1,20141106190000
791,"Mingzhu Plaza, Hefei",,31.782847,117.201512,183,106,49,19,12,13,10,7,1026,82,3,20141106190000
792,"Sanli Street, Hefei",,31.874637,117.312573,187,104,35,17,10,10,10,7,1026,82,3,20141106190000
793,"Hupo Compound, Hefei",,31.868583,117.264491,178,85,33,7,10,18,10,7,1026,82,3,20141106190000
794,"Dongpu Reservoir, Hefei",,31.90319,117.165584,179,84,39,3,9,6,10,7,1026,82,3,20141106190000
795,"Changjiang middle road, Hefei",,31.855185,117.255484,179,88,6,8,12,19,10,7,1026,82,3,20141106190000
796,"Luyang District, Hefei",,31.941771,117.271504,181,81,5,1,15,9,10,7,1026,82,3,20141106190000
797,"Yaohai District, Hefei",,31.856595,117.341644,185,84,17,16,21,14,10,7,1026,82,3,20141106190000
798,"Baohe District, Hefei",,31.793644,117.307554,198,102,4,7,9,17,10,7,1026,82,3,20141106190000
799,"Lake district, Hefei",,31.736619,117.283501,179,95,25,13,9,9,10,7,1026,82,3,20141106190000
800,"High-tech zone, Hefei",,31.849755,117.129624,184,97,10,11,8,8,10,7,1026,82,3,20141106190000
801,Hefei,,31.819449,117.232753,179,88,6,8,12,19,-,-,0,-,-,20141106190000
802,"Hudong Road No.4 Elementary School, Maanshan",,31.684121,118.511017,155,57,37,13,10,12,9,9,1026,100,1,20141106190000
803,"Tianping Garment Factory, Maanshan",,31.64197,118.488043,165,70,53,11,15,18,9,9,1026,100,1,20141106190000
804,"City education base, Maanshan",,31.711216,118.648913,95,40,17,1,3,8,9,9,1026,100,1,20141106190000
805,"Cihu No.2 elementary school, Maanshan",,31.748546,118.515729,157,91,37,11,12,14,9,9,1026,100,1,20141106190000
806,"Maanshan steel factory power plant, Maanshan",,31.690864,118.48528,153,97,21,8,14,13,9,9,1026,100,1,20141106190000
807,Maanshan,,31.668461,118.511939,165,97,53,13,15,18,9,9,1026,100,1,20141106190000
808,"Science Innovation Center, Wuhu",,31.417056,118.375406,153,57,13,9,5,16,9,9,1026,100,1,20141106190000
809,"No.4 Water Plant, Wuhu",,31.315914,118.376231,158,60,29,14,4,15,9,9,1026,100,1,20141106190000
810,"Monitoring station, Wuhu",,31.348955,118.358154,154,58,14,16,8,23,9,9,1026,100,1,20141106190000
811,"Wuqierling Factory, Wuhu",,31.382068,118.407639,144,52,37,5,9,8,9,9,1026,100,1,20141106190000
812,Wuhu,,31.351007,118.438322,158,60,37,16,9,23,9,9,1026,100,1,20141106190000
813,"Jiangxi Foreign Affairs Office, Nanchang",,28.678027,115.903436,177,117,13,1,2,14,15,11,1023,65,2,20141106190000
814,"Provincial forestry company, Nanchang",,28.69065,115.898546,165,79,15,2,1,6,15,11,1023,65,2,20141106190000
815,"Institute of Forestry, Nanchang",,28.731518,115.82478,112,58,21,1,2,5,15,11,1023,65,2,20141106190000
816,"Jingdong town government, Nanchang",,28.680659,115.972736,159,63,17,1,2,6,15,11,1023,65,2,20141106190000
817,"Contruction Industry College, Nanchang",,28.684018,115.865891,147,68,18,13,9,7,15,11,1023,65,2,20141106190000
818,"Xianghu, Nanchang",,28.637831,115.9033,155,79,24,14,21,8,15,11,1023,65,2,20141106190000
819,"Martial Arts School, Nanchang",,28.794538,115.752876,-,-,-,-,-,-,-,-,0,-,-,20141106190000
820,"Petrifaction Company, Nanchang",,28.608634,115.912999,167,70,18,10,1,6,16,11,1024,64,2,20141106190000
821,"Provincial Station, Nanchang",,28.677155,115.941896,154,80,19,1,1,5,16,11,1024,64,2,20141106190000
822,Nanchang,,28.679883,115.863022,177,117,24,13,20,14,15,11,1023,65,2,20141106190000
939,Sanya,,18.251142,109.515993,50,28,24,4,1,6,24,22,1014,89,3,20141106190000
823,"Lushan Mountain Observatory, Jiujiang",,29.5751,115.998926,57,23,37,11,2,6,8,5,1024,80,7,20141106190000
824,"Shili, Jiujiang",,29.668119,115.992381,155,63,26,10,9,8,8,5,1024,80,7,20141106190000
825,"Maoshantou, Jiujiang",,29.700819,115.967192,119,55,19,13,4,6,8,5,1024,80,7,20141106190000
826,"Xiyuan, Jiujiang",,29.723929,115.998206,119,60,23,13,4,6,8,5,1024,80,7,20141106190000
827,"Wuqierling Factory, Jiujiang",,29.640802,116.022713,147,73,27,12,18,6,8,5,1024,80,7,20141106190000
828,"Water Scientific Research Institute, Jiujiang",,29.679179,116.068081,147,66,23,12,6,7,8,5,1024,80,7,20141106190000
829,"Zonghe Industrial Park, Jiujiang",,29.592047,115.916335,134,63,26,19,12,5,8,5,1024,80,7,20141106190000
830,"Petrochemical General Plant, Jiujiang",,29.738832,116.09463,124,44,23,17,12,6,8,5,1024,80,7,20141106190000
831,Jiujiang,,29.70254,116.007025,155,73,37,19,18,7,8,5,1024,80,7,20141106190000
1332,"Feiyu, Xinyu",,27.844697,115.000136,-,-,-,-,-,,-,,0,-,-,20141106190000
1333,"Beigang, Xinyu",,27.932491,115.103767,-,-,-,-,-,,-,,0,-,-,20141106190000
1334,"No.2 water factory, Xinyu",,27.839577,114.933915,-,-,-,-,-,,-,,0,-,-,20141106190000
1335,"Bureau of Meteorology, Xinyu",,27.81048,114.936507,-,-,-,-,-,,-,,0,-,-,20141106190000
1336,Xinyu,,27.814351,114.922194,-,-,-,-,-,,-,,0,-,-,20141106190000
832,"Tobacco Factory, Zhengzhou",,34.753419,113.687131,109,56,17,22,20,28,10,2,1028,58,3,20141106190000
833,"Textile Machinery Factory, Zhengzhou",,34.773366,113.647067,119,65,10,17,29,24,10,2,1028,58,3,20141106190000
834,"Banking College, Zhengzhou",,34.800856,113.681126,119,64,9,16,24,10,10,2,1028,58,3,20141106190000
835,"Water Supply Company, Zhengzhou",,34.807188,113.571089,127,58,18,19,28,6,10,2,1028,58,3,20141106190000
836,"Economic Development Zone Management Committee, Zhengzhou",,34.717652,113.733182,119,50,9,12,24,12,10,2,1028,58,3,20141106190000
837,"No. 47 middle school, Zhengzhou",,34.772211,113.74009,117,55,12,20,20,10,10,2,1028,58,3,20141106190000
838,"City Monitoring Station, Zhengzhou",,34.748404,113.60514,127,46,27,22,19,33,10,2,1028,58,3,20141106190000
839,"Henan Medical University, Zhengzhou",,34.752637,113.641658,117,69,15,19,10,7,10,2,1028,58,3,20141106190000
840,"Gangli Reservoir, Zhengzhou",,34.952652,113.64248,119,68,15,15,16,11,10,2,1028,58,3,20141106190000
841,Zhengzhou,,34.745417,113.631415,117,69,15,19,10,7,-,-,0,-,-,20141106190000
842,"Henan University No.1 Hospital, Kaifeng",,34.799302,114.352706,80,56,15,13,12,7,10,3,1029,62,3,20141106190000
843,"Maternity And Child Hospital, Kaifeng",,34.795803,114.386103,109,55,14,17,15,8,10,3,1029,62,3,20141106190000
844,"Cancer Hospital, Kaifeng",,34.775428,114.350292,95,57,9,11,21,8,10,3,1029,62,3,20141106190000
845,"Yellow River Conservancy Institute, Kaifeng",,34.826066,114.324772,53,44,28,9,32,5,10,3,1029,62,3,20141106190000
846,"Shijixing Kindergarden, Kaifeng",,34.793606,114.302744,68,53,8,12,16,4,10,3,1029,62,3,20141106190000
847,Kaifeng,,34.796346,114.313426,80,56,15,13,12,7,10,3,1029,62,3,20141106190000
852,Jiaozuo,,35.215381,113.248188,95,55,13,23,10,9,10,3,1029,62,3,20141106190000
853,"Cotton Research Institute, Anyang",,36.081435,114.486451,72,47,10,15,26,3,9,2,1030,52,2,20141106190000
854,"Hongmiao Street, Anyang",,36.086733,114.326,13,6,,,,,9,2,1030,52,2,20141106190000
855,"Yinxing Compound, Anyang",,36.056519,114.36495,78,52,13,16,30,6,9,2,1030,52,2,20141106190000
856,"Tiefo Temple, Anyang",,36.110041,114.309309,80,54,4,23,21,8,9,2,1030,52,2,20141106190000
857,Anyang,,36.097767,114.398846,80,54,16,23,30,8,9,2,1030,52,2,20141106190000
858,"City Monitoring Station, Luoyang",,34.669055,112.439633,89,38,8,16,23,16,10,,1029,68,5,20141106190000
859,"BDA Management Committee, Luoyang",,34.622084,112.390759,109,59,17,49,23,12,10,,1029,68,5,20141106190000
860,"New municipal office, Luoyang",,34.623745,112.432973,104,52,18,10,22,9,10,,1029,68,5,20141106190000
861,"City committee communist party school, Luoyang",,34.650169,112.400212,152,63,10,11,21,5,10,,1029,68,5,20141106190000
862,"Henan Forestry College, Luoyang",,34.685566,112.509429,117,60,15,16,28,13,10,,1029,68,5,20141106190000
863,"CITIC No.2 Elementary School, Luoyang",,34.668212,112.36907,119,59,13,16,24,13,10,,1029,68,5,20141106190000
864,"Yuxi Hotel, Luoyang",,34.685949,112.472611,89,109,16,9,22,12,10,,1029,68,5,20141106190000
865,Luoyang,,34.617424,112.46054,152,109,18,49,28,16,10,,1029,68,5,20141106190000
866,"City Planning Design Institute, Pingdingshan",,33.7352,113.297916,155,73,22,16,29,10,10,3,1029,62,3,20141106190000
867,"Xinhua Hotel, Pingdingshan",,33.737754,113.328814,151,70,18,15,61,12,10,3,1029,62,3,20141106190000
868,"Engineering College, Pingdingshan",,33.772474,113.188235,137,72,16,17,30,9,10,3,1029,62,3,20141106190000
869,"High Voltage Switchgear Factory, Pingdingshan",,33.719941,113.312665,153,76,20,14,28,11,10,3,1029,62,3,20141106190000
870,Pingdingshan,,33.764754,113.199082,155,76,22,17,30,11,10,3,1029,62,3,20141106190000
1303,"City Monitoring Station, Hebi",,35.748411,114.313927,153,75,11,23,47,10,7,,1036,71,3,20141106190000
1304,"BDA, Xinxiang",,35.281373,113.908605,74,58,8,14,18,1,6,,985,69,2,20141106190000
1305,"Environment protection office, Puyang",,35.851321,115.512901,70,54,9,18,26,16,6,,1040,79,3,20141106190000
1306,"BDA, Xuchang",,33.998574,113.802968,117,67,9,26,13,11,6,,1017,87,2,20141106190000
