locationid,stationname,chinesename,latitude,longitude,pm25,pm10,o3,no2,so2,co,temperature,dewpoint,pressure,humidity,wind,est_time
1,Dongcheng Dongsi,,39.9304,116.423239,155,91,3,36,10,12,2,-9,1028,44,2,20141114170000
2,"Temple of Heaven, Dongcheng",,39.887403,116.41324,156,82,4,33,4,13,2,-9,1028,44,2,20141114170000
3,West Park officials,,39.930333,116.345162,163,88,2,43,12,10,2,-9,1028,44,2,20141114170000
4,West Wanshou Nishinomiya,,39.879354,116.358183,174,104,2,41,9,13,2,-9,1028,44,2,20141114170000
5,Chaoyang Olympic Sports Center,,39.983406,116.403253,172,102,2,45,15,11,2,-9,1028,44,2,20141114170000
6,Chaoyang Agricultural Exhibition Hall,,39.938331,116.46715,187,128,2,48,15,11,2,-9,1028,44,2,20141114170000
7,Haidian Wanliu,,39.988245,116.293062,169,115,1,42,11,14,2,-9,1028,44,2,20141114170000
8,The Haidian northern New Area,,40.091313,116.180194,183,101,2,31,10,18,2,-9,1028,44,2,20141114170000
9,Haidian Beijing Botanical Garden,,40.003252,116.213097,151,63,7,31,7,8,2,-9,1028,44,2,20141114170000
10,Fengtai garden,,39.86423,116.285037,179,121,2,41,16,15,2,-9,1028,44,2,20141114170000
11,Fengtai Yungang,,39.82535,116.152237,161,85,2,37,14,11,2,-9,1028,44,2,20141114170000
12,Shijingshan city,,39.915286,116.190144,157,81,4,32,10,16,2,-9,1028,44,2,20141114170000
13,"Fangshan, Liangxiang",,39.743357,116.14225,193,122,3,35,9,15,2,-9,1028,44,2,20141114170000
14,"Huangcunzhen, Daxing",,39.719389,116.410219,186,103,3,37,20,10,2,-9,1028,44,2,20141114170000
15,BDA,,39.796197,116.51197,165,68,7,33,12,8,2,-9,1028,44,2,20141114170000
16,Tongzhou New Town,,39.887113,116.6689,284,174,2,42,43,16,2,-9,1028,44,2,20141114170000
17,Shunyi New Town ,,40.128111,116.660908,185,119,5,34,16,14,2,-9,1028,44,2,20141114170000
18,Changping Town,,40.218245,116.236084,164,88,5,32,13,12,2,-9,1028,44,2,20141114170000
19,"Mentougou, Longquan Town",,39.938397,116.112323,147,63,4,28,10,15,2,-9,1028,44,2,20141114170000
20,Pinggu town,,40.144433,117.106563,144,53,10,14,6,9,2,-9,1028,44,2,20141114170000
21,Huairou town,,40.329104,116.63387,81,49,6,15,5,9,2,-9,1028,44,2,20141114170000
22,The town of Miyun,,40.371186,116.838053,152,57,3,22,10,9,2,-9,1028,44,2,20141114170000
23,Yanqing town,,40.454217,115.978106,173,72,6,24,11,14,2,-9,1028,44,2,20141114170000
24,Changping Dingling,,40.293269,116.226108,122,56,5,19,7,8,2,-9,1028,44,2,20141114170000
25,Badaling Northwest,,40.36623,115.994146,80,39,8,19,9,6,2,-9,1028,44,2,20141114170000
26,Miyun Reservoir,,40.500157,116.91701,56,14,23,6,2,3,2,-9,1028,44,2,20141114170000
27,"Donggaocun Zhen, Pinggu",,40.10142,117.126556,102,48,23,14,8,4,2,-9,1028,44,2,20141114170000
28,"Yongledianzhen, Tongzhou",,39.713192,116.78905,185,85,5,42,11,11,2,-9,1028,44,2,20141114170000
29,"Yufazhen, Daxing",,39.521203,116.306026,182,95,6,33,6,9,2,-9,1028,44,2,20141114170000
30,"Liulihezhen, Fangshan",,39.581169,116.006089,273,161,10,35,9,12,2,-9,1028,44,2,20141114170000
31,"Qianmen E St, Dongcheng",,39.900402,116.401242,175,99,2,36,16,16,2,-9,1028,44,2,20141114170000
32,Yongdingmen Inner St,,39.877401,116.400238,178,105,2,41,16,17,2,-9,1028,44,2,20141114170000
33,Xizhimen N St,,39.955352,116.355187,169,115,2,36,15,13,2,-9,1028,44,2,20141114170000
34,South Ring Road,,39.857377,116.37421,192,127,1,41,19,16,2,-9,1028,44,2,20141114170000
35,East Fourth Ring Road,,39.940273,116.489075,194,133,2,41,4,16,2,-9,1028,44,2,20141114170000
36,Beijing,,39.955906,116.474246,194,80,5,34,9,11,2,-9,1028,44,2,20141114170000
37,Putuo,,31.232979,121.415378,117,69,21,37,10,5,12,2,1028,51,2,20141114170000
38,Yangpu Sipiao,,31.263795,121.540311,154,73,17,57,9,7,12,2,1028,51,2,20141114170000
39,Shanghai Normal College Primary Division,,31.199031,121.487719,152,71,18,59,12,10,12,2,1028,51,2,20141114170000
40,Dianshan Lake,,31.091338,120.982293,165,80,15,51,11,8,12,2,1028,51,2,20141114170000
41,Hongkou Liangcheng,,31.298906,121.47155,153,69,17,55,12,8,12,2,1028,51,2,20141114170000
42,Jingan,,31.224251,121.429637,142,63,23,35,12,8,12,2,1028,51,2,20141114170000
43,Shanghai Normal University,,31.163531,121.416643,156,78,14,66,10,10,12,2,1028,51,2,20141114170000
44,Chuansha,,31.188626,121.707342,142,63,15,39,7,6,12,2,1028,51,2,20141114170000
45,Zhangjiang,,31.204896,121.581215,147,68,15,42,8,7,12,2,1028,51,2,20141114170000
46,Lingshan Road,,31.226286,121.537317,151,68,61,42,7,6,12,2,1028,51,2,20141114170000
1080,City average,,31.228451,121.478227,151,69,18,47,10,7,12,2,1028,51,2,20141114170000
47,Shanghai,,31.202842,121.453493,149,75,21,59,12,7,12,2,1028,51,2,20141114170000
48,Guangzhou,,23.138517,113.263701,132,47,17,28,2,12,18,15,1020,83,1,20141114170000
49,"Huadu town, Guangzhou",,23.389121,113.220062,155,60,23,33,15,8,18,15,1020,83,2,20141114170000
50,"Luogang Zhenlong, Guangzhou",,23.308027,113.567032,124,46,28,8,6,9,18,15,1020,83,2,20141114170000
51,"LuHu, Guangzhou",,23.151743,113.281842,102,45,11,22,3,11,18,15,1020,83,2,20141114170000
52,"Tianhu, Guangzhou",,23.647433,113.629715,112,50,33,4,6,7,18,15,1020,83,2,20141114170000
53,"Zhudong, Guangzhou",,23.418406,113.078552,155,60,28,33,15,8,18,15,1020,83,2,20141114170000
54,"Modiesha station, Guangzhou",,23.103814,113.338238,91,62,22,32,5,3,18,15,1020,83,2,20141114170000
55,Zhuhai,,22.2677,113.581765,153,53,31,14,2,12,22,18,1019,78,3,20141114170000
1075,"Huicai technical school, Foshan",,23.039667,113.105492,97,51,21,39,9,6,18,15,1020,83,2,20141114170000
56,"Sanshuiyun donghai, Foshan",,23.185788,112.865368,160,65,25,34,16,10,18,15,1020,83,2,20141114170000
57,"Nanhai Bureau of Meteorology, Foshan",,23.046836,113.145764,102,53,17,34,7,16,18,15,1020,83,2,20141114170000
58,"Sanshui Monitoring Station, Foshan",,23.163551,112.890843,155,57,18,33,13,14,18,15,1020,83,2,20141114170000
1087,Foshan,,23.018995,113.126899,102,53,17,34,7,16,18,15,1020,83,2,20141114170000
59,"Ronggui street committee, Shunde",,22.762729,113.258356,155,62,19,34,11,14,18,15,1020,83,2,20141114170000
60,Shunde,,22.80246,113.298701,152,65,15,37,21,9,-,-,0,-,-,20141114170000
61,"Donghu, Jiangmen",,22.590411,113.087351,159,61,16,36,8,10,22,18,1019,78,3,20141114170000
62,"Taoyuan Atmosphere Premier Station, Jiangmen",,22.72489,112.93404,172,91,32,23,10,13,22,18,1019,78,3,20141114170000
63,Jiangmen,,22.576047,113.087351,159,61,16,36,8,10,22,18,1019,78,3,20141114170000
64,"Kengkouzi station, Zhaoqing",,23.158865,112.570287,164,80,28,23,21,11,18,15,1020,83,1,20141114170000
65,"Mugangzi station, Zhaoqing",,23.067961,112.431934,161,83,23,32,19,11,18,15,1020,83,1,20141114170000
67,Zhaoqing,,23.044571,112.470346,164,92,33,24,22,9,18,15,1020,83,1,20141114170000
68,"Jinguo Bay, Huizhou",,22.937223,114.385567,129,58,29,9,6,8,21,15,1020,68,3,20141114170000
1091,"Xiabu, Huizhou",,23.077493,114.410275,142,71,16,12,9,5,21,15,1019,68,4,20141114170000
69,"Xijiao, Huizhou",,23.338178,114.112867,112,44,19,9,8,11,21,15,1020,68,3,20141114170000
70,"Jiangbei, Huizhou",,23.111706,114.415274,119,58,21,11,10,5,21,15,1019,68,4,20141114170000
71,"Huiyang chuanhu, Huizhou",,22.814485,114.329292,149,55,15,19,7,9,21,15,1019,68,4,20141114170000
72,"Daya bay management committee, Huizhou",,22.739283,114.53631,152,70,18,26,5,8,21,15,1019,68,4,20141114170000
73,Huizhou,,23.109349,114.421164,119,58,21,11,10,5,21,15,1019,68,4,20141114170000
74,"Guancheng No.2 water plant, Dongguan",,23.057294,113.753254,132,57,17,12,15,11,21,15,1019,68,4,20141114170000
75,"Dongcheng Shijing, Dongguan",,23.010039,113.799529,151,57,20,16,14,8,21,15,1019,68,4,20141114170000
76,"Nancheng Xiping, Dongguan",,22.963051,113.743494,154,62,12,27,11,11,21,15,1019,68,4,20141114170000
77,"Nancheng Yuanling, Dongguan",,23.025058,113.751308,142,61,20,18,16,12,21,15,1019,68,4,20141114170000
78,Dongguan,,23.017813,113.756958,142,61,20,18,16,12,21,15,1019,68,4,20141114170000
79,"Zimaling, Zhongshan",,22.505112,113.407183,152,72,15,22,11,9,22,18,1019,78,3,20141114170000
80,"Yangtze River tourist area, Zhongshan",,22.48589,113.439054,153,54,17,17,4,9,22,18,1019,78,3,20141114170000
81,"Huabai Park, Zhongshan",,22.51839,113.374362,50,73,14,24,11,13,22,18,1019,78,3,20141114170000
82,Zhongshan,,22.513997,113.398277,152,72,15,22,11,9,22,18,1019,78,3,20141114170000
83,"No.8 middle school, Shaoguan",,24.767777,113.583537,160,69,24,12,12,12,17,10,1022,54,2,20141114170000
83,"No.8 middle school, Shaoguan",,24.767777,113.583537,160,69,24,12,12,12,17,10,1022,54,2,20141114170000
84,"Forest area, Shaoguan",,24.796107,113.612131,153,62,25,12,10,10,17,10,1022,54,2,20141114170000
84,"Forest area, Shaoguan",,24.796106,113.612131,153,62,25,12,10,10,17,10,1022,54,2,20141114170000
137,Nanyou,,22.513802,113.928051,151,83,20,35,6,15,21,15,1020,68,3,20141114170000
86,"Shaoguan University, Shaoguan",,24.790864,113.646599,153,74,28,13,9,7,17,10,1022,54,2,20141114170000
86,"Shaoguan University, Shaoguan",,24.790864,113.646598,153,74,28,13,9,7,17,10,1022,54,2,20141114170000
88,"Qujiang Monitoring Station, Shaoguan",,24.683042,113.60157,162,79,23,34,10,10,17,10,1022,54,2,20141114170000
88,"Qujiang Monitoring Station, Shaoguan",,24.683042,113.60157,162,79,23,34,10,10,17,10,1022,54,2,20141114170000
89,Shaoguan,,24.807342,113.602712,153,62,25,12,10,10,17,10,1022,54,2,20141114170000
90,"Chaonanzi Station, Shantou",,23.251213,116.406762,93,41,34,12,4,11,17,14,1021,82,2,20141114170000
91,Shantou,,23.350642,116.686306,93,44,44,13,5,10,17,14,1021,82,2,20141114170000
92,"City Environmental Monitoring Station, Zhanjiang",,21.220431,110.397317,132,52,49,8,4,8,22,18,1018,74,3,20141114170000
93,"EPB Dormitory, Zhanjiang",,21.197376,110.406487,95,57,48,12,6,5,22,18,1018,74,3,20141114170000
94,"Xiashan Swimming Park, Zhanjiang",,21.200431,110.415655,132,55,43,8,11,10,22,18,1018,74,3,20141114170000
95,"Zhanjiang Theatre, Zhanjiang",,21.268177,110.366445,157,60,46,5,5,3,22,18,1018,74,3,20141114170000
96,"Mazhang EPA, Zhanjiang",,21.265486,110.335993,151,55,15,7,7,14,22,18,1018,74,3,20141114170000
97,"Potou District EPB, Zhanjiang",,21.247604,110.454508,153,64,43,7,4,15,22,18,1018,74,3,20141114170000
98,Zhanjiang,,21.26832,110.363883,157,60,46,5,5,3,22,18,1018,74,3,20141114170000
99,"Maogang sub-office EPB, Maoming",,21.466435,111.033462,160,70,58,5,6,7,21,17,0,78,5,20141114170000
100,"Petrochemical No. 7 elementaty school, Maoming",,21.648905,110.937861,162,69,44,9,6,9,21,17,0,78,5,20141114170000
101,"Jiankang road, Maoming",,21.662211,110.909482,158,71,31,15,6,12,21,17,0,78,5,20141114170000
102,"Gaoling, Maoming",,21.690558,110.871146,158,74,32,17,40,9,21,17,0,78,5,20141114170000
1094,Maoming,,21.660223,110.929968,158,71,31,15,6,12,21,17,0,78,5,20141114170000
103,"Jiaying University, Meizhou",,24.325415,116.12816,119,41,16,10,5,12,17,14,1021,82,2,20141114170000
104,"Mexian new town, Meizhou",,24.269283,116.084546,127,56,10,10,5,12,17,14,1021,82,2,20141114170000
105,"Environmental Monitoring Center, Meizhou",,24.262778,116.129621,119,54,11,12,5,11,17,14,1021,82,2,20141114170000
1095,Meizhou,,24.285988,116.127065,119,54,11,12,5,11,17,14,1021,82,2,20141114170000
106,"City EPA, Shanwei",,22.772349,115.370227,107,47,57,4,7,11,20,16,1021,74,1,20141114170000
107,"City government, Shanwei",,22.787161,115.375536,122,54,51,6,8,9,20,16,1021,74,1,20141114170000
108,"Xincheng Middle School, Shanwei",,22.789851,115.367124,112,54,38,6,4,12,20,16,1021,74,1,20141114170000
1099,Shanwei,,22.783576,115.38022,112,54,38,6,4,12,20,16,1021,74,1,20141114170000
109,"No.3 elementary school, Heyuan",,23.75435,114.703514,112,38,14,12,8,11,17,13,1021,69,1,20141114170000
109,"No.3 elementary school, Heyuan",,23.755946,114.699091,112,38,14,12,8,11,17,13,1021,69,1,20141114170000
111,"City water company, Heyuan",,23.754246,114.682459,158,62,10,22,9,12,17,13,1021,69,1,20141114170000
111,"City water company, Heyuan",,23.688709,114.954652,158,62,10,22,9,12,17,13,1021,69,1,20141114170000
113,"Heyuan high school, Heyuan",,23.720037,114.699563,114,46,16,10,9,10,17,13,1021,69,1,20141114170000
113,"Heyuan high school, Heyuan",,23.720666,114.693879,114,46,16,10,9,10,17,13,1021,69,1,20141114170000
115,Heyuan,,23.740888,114.705147,114,46,16,10,9,10,17,13,1021,69,1,20141114170000
116,"Yuanyang Lake, Yangjiang",,21.855869,111.983676,182,100,44,25,18,9,19,13,1019,59,7,20141114170000
1100,Yangjiang,,21.855227,111.987308,182,100,44,25,18,9,19,13,1019,59,7,20141114170000
118,"Town governement, Qingyuan",,23.708005,113.026215,57,42,19,12,11,14,18,15,1020,83,1,20141114170000
119,"Fupin district, Qingyuan",,23.624781,113.067713,70,50,15,17,10,18,18,15,1020,83,1,20141114170000
121,"Environment protection office, Qingyuan",,23.685931,113.053239,72,20,29,11,10,9,18,15,1020,83,1,20141114170000
121,"Environment protection office, Qingyuan",,23.691109,113.047948,72,20,29,11,10,9,18,15,1020,83,1,20141114170000
123,"Fengcheng Subdistrict, Qingyuan",,23.695447,113.068189,57,42,19,12,11,14,18,15,1020,83,1,20141114170000
124,Qingyuan,,23.679304,113.061513,72,54,29,11,10,9,18,15,1020,83,1,20141114170000
125,"Xiyuan Road, Chaozhou",,23.668654,116.638272,152,62,39,6,8,9,17,14,1021,82,2,20141114170000
126,"Archives Bureau, Chaozhou",,23.667881,116.649104,134,60,44,12,9,5,17,15,1021,88,2,20141114170000
127,"Municipal Corporation, Chaozhou",,23.65035,116.621859,142,59,36,13,7,13,17,14,1021,82,2,20141114170000
1101,Chaozhou,,23.654204,116.626969,142,59,36,13,7,13,17,14,1021,82,2,20141114170000
128,"Donghu Park, Jieyang",,23.532877,116.374427,124,42,42,30,11,10,17,14,1021,82,2,20141114170000
129,"Yuhu Middle School, Jieyang",,23.52682,116.414123,107,32,35,14,8,7,17,14,1021,82,2,20141114170000
130,"Experimental Primary School, Jieyang",,23.571473,116.364137,104,45,33,16,12,10,17,14,1021,82,2,20141114170000
1102,Jieyang,,23.547596,116.37754,124,42,42,30,11,10,17,14,1021,82,2,20141114170000
131,"City Environmental Monitoring Station, Yunfu",,22.936779,112.042248,85,61,22,18,8,14,18,15,1020,83,1,20141114170000
132,"The new city government headquarters, Yunfu",,22.914275,112.044475,161,67,27,12,9,23,18,15,1020,83,1,20141114170000
133,"Muyang police sub-station, Yunfu",,22.951267,112.05923,161,106,27,30,12,17,18,15,1020,83,1,20141114170000
1103,Yunfu,,22.912436,112.049811,161,67,27,12,9,23,18,15,1020,83,1,20141114170000
134,Yantian,,22.587949,114.266899,122,58,34,21,9,14,21,15,1020,68,3,20141114170000
135,Kwai Chung,,22.572837,113.867166,155,84,12,36,4,15,21,15,1020,68,3,20141114170000
135,Kwai Chung,,22.354168,114.134558,155,84,12,36,4,15,21,15,1020,68,3,20141114170000
138,Meisha,,22.59611,114.318345,129,54,28,9,6,11,21,15,1020,68,3,20141114170000
139,Xi xiang,,22.717524,114.252304,157,66,17,21,7,16,21,15,1020,68,3,20141114170000
140,Liyuan,,22.54732,114.101205,153,74,8,38,3,13,21,15,1020,68,3,20141114170000
1072,Kwai Chung,,22.627947,114.428875,149,62,19,7,2,7,21,15,1020,68,3,20141114170000
1072,Kwai Chung,,22.354168,114.134558,149,62,19,7,2,7,21,15,1020,68,3,20141114170000
141,OCT,,22.539549,113.992458,152,69,20,25,10,15,21,15,1020,68,3,20141114170000
142,Honghu,,22.559647,114.121976,129,53,8,37,2,11,21,15,1020,68,3,20141114170000
143,Mission Hills,,22.694131,114.050496,124,62,23,22,5,10,21,15,1020,68,3,20141114170000
144,Shenzhen,,22.540382,114.062982,157,84,34,38,10,16,-,-,0,-,-,20141114170000
145,Chengdu,,30.622581,104.069564,164,77,6,29,5,10,12,10,1024,88,1,20141114170000
146,"Jinquan lianghe, Chengdu",,30.710359,103.974209,154,73,4,18,1,9,12,10,1024,88,0,20141114170000
147,"Shilidian, Chengdu",,30.684718,104.17845,158,74,6,20,4,7,12,10,1024,88,0,20141114170000
148,"Sanwayao, Chengdu",,30.568159,104.081524,127,71,,,,9,12,10,1024,88,0,20141114170000
149,"Shahepu, Chengdu",,30.633685,104.120536,157,78,6,28,5,10,12,10,1024,88,0,20141114170000
150,"Liang Lane, Chengdu",,30.682601,104.076522,157,75,14,26,6,8,12,10,1024,88,0,20141114170000
151,"Caotang Temple, Chengdu",,30.651891,104.0284,156,77,6,29,5,10,12,10,1024,88,0,20141114170000
152,"Lingyansi, Chengdu",,31.025729,103.615022,87,51,26,8,3,3,12,10,1024,88,0,20141114170000
153,"Fuleshan, Mianyang",,31.472493,104.7806,102,56,15,16,5,7,12,10,1022,78,2,20141114170000
154,"High-tech Zone Water Company, Mianyang",,31.463309,104.674293,109,54,10,24,11,8,12,10,1022,78,2,20141114170000
155,"No.3 water company, Mianyang",,31.505002,104.731054,127,59,12,22,4,4,12,10,1022,78,2,20141114170000
156,Mianyang,,31.465174,104.681731,129,59,15,24,11,8,12,10,1022,78,2,20141114170000
157,"Dongshan Park, Deyang",,31.118648,104.424587,89,59,7,12,5,6,12,10,1024,88,0,20141114170000
158,"Xixiaoqu, Deyang",,31.131159,104.390972,129,59,6,17,2,10,12,10,1024,88,0,20141114170000
159,"City Procuratorate, Deyang",,31.114554,104.407986,122,54,4,12,1,11,12,10,1024,88,0,20141114170000
160,"Refractory Factory, Deyang",,31.108606,104.356506,134,52,16,16,2,6,12,10,1024,88,0,20141114170000
161,Deyang,,31.124715,104.400703,134,59,16,17,5,11,12,10,1024,88,0,20141114170000
162,"Nongnongping, Panzhihua",,26.566698,101.695438,137,57,18,31,3,11,14,9,0,62,2,20141114170000
163,"Hemenkou, Panzhihua",,26.589072,101.578312,170,83,20,17,19,16,14,9,0,62,2,20141114170000
164,"Bingcaogang, Panzhihua",,26.58143,101.718473,80,96,16,34,13,22,14,9,0,62,2,20141114170000
165,"Renhe, Panzhihua",,26.498166,101.746887,76,40,12,19,4,17,14,9,0,62,2,20141114170000
166,"Jinjina, Panzhihua",,26.553226,101.84862,99,48,22,12,21,17,14,9,0,62,2,20141114170000
167,Panzhihua,,26.578779,101.720211,170,96,22,34,21,22,14,9,0,62,2,20141114170000
168,"Shima Middle School, Yibin",,28.815979,104.599199,139,57,6,12,12,9,12,11,1024,93,1,20141114170000
169,"Municipal party committee, Yibin",,28.762654,104.624834,124,53,4,14,10,9,12,11,1024,93,1,20141114170000
170,"No. 4 middle school, Yibin",,28.783257,104.608407,151,57,4,15,8,8,12,11,1024,93,1,20141114170000
171,"City government, Yibin",,28.760477,104.644079,155,62,4,17,10,9,12,11,1024,93,1,20141114170000
172,"Huangjinzui, Yibin",,28.712319,104.578389,149,71,5,15,8,11,12,11,1024,93,1,20141114170000
173,"Shaping Middle School, Yibin",,28.795569,104.681393,122,51,12,9,11,8,12,11,1024,93,1,20141114170000
174,Yibin,,28.748384,104.645766,155,71,12,17,12,11,12,11,1024,93,1,20141114170000
175,"Datang Hill, Zigong",,29.359969,104.757388,158,70,15,10,3,8,15,10,0,72,3,20141114170000
176,"Yanma Road, Zigong",,29.355752,104.724036,180,75,21,10,3,6,15,10,0,72,3,20141114170000
177,"Tanmulin Street, Zigong",,29.353555,104.777397,162,73,18,7,9,8,15,10,0,72,3,20141114170000
178,"Chunhua Road, Zigong",,29.33825,104.771895,165,72,13,7,9,10,15,10,0,72,3,20141114170000
179,Zigong,,29.33617,104.781138,180,75,21,10,9,10,15,10,0,72,3,20141114170000
180,"Jiushi Hill, Luzhou",,28.955347,105.434207,139,57,13,8,6,5,15,11,0,76,2,20141114170000
181,"Xiaoshishang Port, Luzhou",,28.899583,105.447192,139,55,9,10,7,9,15,11,0,76,2,20141114170000
182,"Lantianxian Bridge, Luzhou",,28.852766,105.4358,107,55,10,15,4,4,15,11,0,76,2,20141114170000
183,"City Environment Monitoring Station, Luzhou",,28.895898,105.435802,147,54,6,15,4,6,15,11,0,76,2,20141114170000
184,Luzhou,,28.868782,105.445938,147,57,13,15,7,9,15,11,0,76,2,20141114170000
185,"City Committee, Nanchong",,30.799993,106.082906,152,64,21,7,3,5,14,12,1022,88,1,20141114170000
186,"Refinery Factory, Nanchong",,30.819412,106.10712,153,68,10,6,2,3,14,12,1022,88,1,20141114170000
187,"Gaoping District Monitoring Station, Nanchong",,30.783291,106.110417,157,68,10,17,5,10,14,12,1022,88,1,20141114170000
188,"Jialing District EPB, Nanchong",,30.761255,106.06818,155,67,15,15,3,7,14,12,1022,88,1,20141114170000
189,"City Environmental Monitoring Station, Nanchong",,30.836519,106.11272,153,63,7,23,7,8,14,12,1022,88,1,20141114170000
190,Nanchong,,30.835511,106.114717,157,68,21,23,7,10,14,12,1022,88,1,20141114170000
1249,"City Monitoring Station, Neijiang",,29.592673,105.036234,159,61,11,5,3,8,15,10,0,72,3,20141114170000
1250,"Dongxing District Government , Neijiang",,29.592148,105.074966,167,60,9,7,3,6,15,10,0,72,3,20141114170000
1251,"No 2 middle school, Neijiang",,29.579135,105.068548,165,64,8,11,1,7,15,10,0,72,3,20141114170000
1252,Neijiang,,29.577653,105.06166,167,66,11,11,7,8,15,10,0,72,3,20141114170000
338,"Jincheng Middle School, Weifang",,36.773611,119.115539,221,169,23,49,60,13,,,0,,,20141114170000
1253,"City Monitoring Station, Suining",,30.610641,105.683583,117,68,15,11,12,8,15,10,0,69,3,20141114170000
1254,"Administrative center , Suining",,30.63206,105.819747,127,63,18,13,5,8,15,10,0,69,3,20141114170000
1255,Suining,,30.530053,105.596307,134,68,18,13,12,8,15,10,0,69,3,20141114170000
1256,"City Monitoring Station, Leshan",,29.560651,103.759211,159,63,12,13,4,9,11,9,0,82,2,20141114170000
1257,"Leshan Giant Buddha Scenic Area , Leshan",,29.543938,103.772706,109,51,16,6,2,7,11,9,0,82,2,20141114170000
1258,Leshan,,29.54935,103.767777,159,63,16,21,6,9,11,9,0,82,2,20141114170000
1259,"Heilongtan , Meishan",,30.047726,103.900649,156,67,14,11,1,5,12,10,1024,88,0,20141114170000
1260,"Bureau of Meteorology, Meishan",,30.084591,103.843715,159,72,11,29,5,9,12,10,1024,88,0,20141114170000
1261,"Xuguang Community , Meishan",,30.066277,103.8516,160,67,15,30,5,8,12,10,1024,88,0,20141114170000
1262,"City Monitoring Station, Meishan",,30.059205,103.836229,161,64,10,27,6,7,12,10,1024,88,0,20141114170000
1263,Meishan,,30.072618,103.85064,161,72,14,30,6,9,12,10,1024,88,0,20141114170000
1264,"Ziyang middle school, Ziyang",,30.147763,104.638024,158,65,19,11,18,3,15,10,0,70,3,20141114170000
1265,Ziyang,,30.126054,104.63004,159,76,19,12,18,8,15,10,0,70,3,20141114170000
191,Shenyang US Consulate,,41.785668,123.432865,169,107,,38,54,,-4,-14,1028,46,2,20141114170000
192,"Huishan, Shenyang",,41.835421,123.647773,171,89,13,30,35,8,-4,-14,1028,46,3,20141114170000
193,"Hunnan, Shenyang",,41.758263,123.540809,180,105,4,35,63,13,-4,-14,1028,46,2,20141114170000
194,"Zhangshi, Shenyang",,41.771679,123.289859,209,145,4,41,53,18,-4,-14,1028,46,2,20141114170000
195,"Artillery College, Shenyang",,41.835749,123.547799,124,126,6,35,56,12,-4,-14,1028,46,2,20141114170000
196,"Beiling, Shenyang",,41.849633,123.434146,193,122,4,40,90,9,-4,-14,1028,46,3,20141114170000
197,"Wenyi Road, Shenyang",,41.767444,123.416144,190,107,13,38,54,9,-4,-14,1028,46,2,20141114170000
198,"Xiaoheyan, Shenyang",,41.779828,123.484015,178,101,6,37,64,10,-4,-14,1028,46,3,20141114170000
199,"Taiyuan Street, Shenyang",,41.799646,123.406146,189,115,3,41,87,13,-4,-14,1028,46,3,20141114170000
200,"Ermao, Shenyang",,41.783011,123.366679,196,133,13,44,56,11,-4,-14,1028,46,2,20141114170000
201,"Liaoning University, Shenyang",,41.830704,123.361071,179,90,5,35,63,9,-4,-14,1028,46,2,20141114170000
202,Shenyang,,41.808126,123.437611,189,115,3,41,87,13,-4,-14,1028,46,3,20141114170000
1104,"wenhua street, Shenyang , Shenyang",,41.774139,123.441839,190,107,13,38,54,9,-4,-14,1028,46,3,20141114170000
1105,"Tanglin Road , Shenyang , Shenyang",,41.823665,123.562317,124,126,6,35,56,12,-4,-14,1028,46,3,20141114170000
203,"Ganjingzi, Dalian",,38.9747,121.616893,85,48,16,28,15,5,0,-6,1029,64,1,20141114170000
204,"Zhoushuizi, Dalian",,38.951928,121.569981,164,73,3,26,59,14,0,-6,1029,64,1,20141114170000
205,"Xinghai No 3 station, Dalian",,38.885779,121.568864,119,59,4,41,61,9,0,-6,1029,64,1,20141114170000
206,"Qingniwa Bridge, Dalian",,38.91274,121.638018,109,53,6,38,29,9,0,-6,1030,64,1,20141114170000
207,"Fujiazhuang, Dalian",,38.864647,121.629947,93,55,2,33,72,5,0,-6,1029,64,1,20141114170000
208,"Qixianling, Dalian",,38.856978,121.523169,80,46,4,19,21,9,0,-6,1030,64,1,20141114170000
209,"Lushun, Dalian",,38.808946,121.264063,80,35,15,12,14,6,0,-6,1029,64,1,20141114170000
210,"Jinzhou, Dalian",,39.132192,121.753259,78,40,7,7,4,4,0,-6,1029,64,1,20141114170000
211,"BDA, Dalian",,39.05213,121.782022,109,58,4,37,25,9,0,-6,1029,64,1,20141114170000
212,"D&D Port, Dalian",,39.064087,121.981874,57,20,12,2,2,2,0,-6,1030,64,1,20141114170000
213,Dalian,,38.91478,121.619625,109,53,6,38,29,9,-,-,0,-,-,20141114170000
214,"Bearing Factory, Dandong",,40.068929,124.345703,151,155,,20,51,,-5,-16,1026,31,1,20141114170000
215,"Financial school, Dandong",,40.158723,124.432593,97,52,10,25,27,12,-4,-12,1030,41,1,20141114170000
216,"Yuanbaoshan water, Dandong",,40.149431,124.391698,82,40,18,12,22,11,-4,-12,1030,41,1,20141114170000
217,"Experimental Primary School, Dandong",,39.887343,124.158056,122,62,5,27,28,17,-4,-12,1030,41,1,20141114170000
218,Dandong,,40.002046,124.360479,122,62,18,27,28,17,-4,-12,1030,41,1,20141114170000
1106,"minzhu bridge, Dandong , Dandong",,40.112974,124.373604,122,62,5,27,28,17,-4,-12,1030,41,1,20141114170000
1107,"yuanbaoshan, Dandong , Dandong",,40.146298,124.399081,82,40,18,12,22,11,-4,-12,1030,41,1,20141114170000
1108,"linjiang houjie, Dandong , Dandong",,40.152757,124.431745,97,52,10,25,27,13,-4,-12,1030,41,1,20141114170000
219,"BDA, Panjin",,41.157144,122.06645,97,34,8,18,8,19,-1,-14,0,38,2,20141114170000
220,"Xinglongtai, Panjin",,41.140948,122.111343,87,30,11,10,8,11,-1,-14,0,38,2,20141114170000
221,"Dingxiang, Panjin",,41.16139,121.928781,55,23,29,4,3,5,-1,-14,0,38,2,20141114170000
222,Panjin,,41.122089,122.076206,97,34,8,18,8,19,-1,-14,0,38,2,20141114170000
223,"No.3 water company, Yingkou",,40.682052,122.385352,91,54,17,33,20,7,0,-6,1029,53,3,20141114170000
224,"Yingkou University, Yingkou",,40.683689,122.388285,137,54,17,38,24,8,0,-6,1029,53,3,20141114170000
225,"Botanical garden, Yingkou",,40.711674,122.281568,107,41,13,39,34,8,0,-6,1029,53,3,20141114170000
226,Yingkou,,40.668578,122.24059,151,77,24,38,10,6,0,-6,1029,53,3,20141114170000
1109,"jinghu west street, Yingkou , Yingkou",,40.653831,122.221943,91,54,17,33,20,7,0,-6,1029,53,3,20141114170000
1110,"Daqing Road , Yingkou , Yingkou",,40.709181,122.28243,107,41,13,39,34,8,0,-6,1029,53,3,20141114170000
227,"Xishanpo, Huludao",,40.724078,120.921974,117,63,14,28,51,16,,,0,,,20141114170000
228,"Huagong hospital, Huludao",,40.755662,120.848435,155,83,8,20,15,27,,,0,,,20141114170000
229,"New district park, Huludao",,40.723415,120.853801,162,91,8,28,24,15,,,0,,,20141114170000
230,"Lianshan district governement, Huludao",,40.775488,120.872292,154,81,3,23,17,21,,,0,,,20141114170000
231,Huludao,,40.712501,120.842107,162,91,14,28,51,27,,,0,,,20141114170000
1111,"Dongcheng District , Huludao , Huludao",,40.775362,120.871706,154,81,3,23,17,21,,,0,,,20141114170000
1112,"huagong street, Huludao , Huludao",,40.758901,120.842935,155,83,8,20,15,27,,,0,,,20141114170000
232,Anshan,,41.110466,123.000147,155,69,21,22,29,17,-4,-14,1028,46,3,20141114170000
233,"Qianshan Park, Anshan",,41.033486,123.143897,147,57,22,8,13,5,-4,-14,1028,46,3,20141114170000
234,"Tiexi, Anshan",,41.121636,122.97506,160,92,4,32,47,21,-4,-14,1028,46,3,20141114170000
235,"Taiping Station, Anshan",,41.153322,123.052433,159,87,4,24,53,21,-4,-14,1028,46,3,20141114170000
236,"Central Station, Anshan",,41.106731,123.002736,158,77,9,31,54,22,-4,-14,1028,46,3,20141114170000
237,"Shengou Temple, Anshan",,41.137157,123.031901,155,69,10,22,29,17,-4,-14,1028,46,3,20141114170000
1113,"Qianshan , Anshan , Anshan",,41.014521,123.122538,151,58,21,10,12,6,-4,-14,1028,46,3,20141114170000
1114,"Tiexi Sandao jie, Anshan",,41.103264,122.978613,160,92,4,32,47,21,-4,-14,1028,46,3,20141114170000
1115,"Taiyang, Anshan",,41.094946,123.019037,158,77,9,31,54,22,-4,-14,1028,46,3,20141114170000
238,Fushun,,41.883028,123.962984,181,118,5,34,40,23,-4,-14,1028,46,3,20141114170000
239,"Shenfu new town, Fushun",,41.804638,123.631684,171,106,5,31,24,13,-4,-14,1028,46,2,20141114170000
240,"Reservoir, Fushun",,41.8464,123.802857,151,72,10,25,13,20,-4,-14,1028,46,2,20141114170000
241,"Train Station, Fushun",,41.89726,124.017604,190,103,6,33,26,11,-4,-14,1028,46,2,20141114170000
242,"Dongzhou, Fushun",,41.855578,124.044738,156,103,6,31,26,13,-4,-14,1028,46,2,20141114170000
243,"Xinhua, Fushun",,41.888598,123.932932,161,73,3,41,30,26,-4,-14,1028,46,2,20141114170000
244,"Wanghua, Fushun",,41.888825,123.093723,206,115,6,37,52,22,-4,-14,1028,46,2,20141114170000
245,Benxi,,41.296267,123.772371,195,197,55,80,68,39,-4,-14,1028,46,3,20141114170000
246,"Weining, Benxi",,41.349663,123.826071,185,98,50,36,3,36,-4,-14,1028,46,3,20141114170000
247,"Occupational disease hospital, Benxi",,41.305432,123.74645,142,59,6,13,20,15,-4,-14,1028,46,3,20141114170000
248,"Dongming, Benxi",,41.292369,123.765058,167,70,4,80,61,33,-4,-14,1028,46,3,20141114170000
249,"Caitun, Benxi",,41.301591,123.746039,173,112,6,36,31,42,-4,-14,1028,46,3,20141114170000
250,"Xihu, Benxi",,41.331332,123.773537,195,197,9,28,68,22,-4,-14,1028,46,3,20141114170000
251,"Dayu, Benxi",,41.308091,123.818442,161,79,7,27,37,17,-4,-14,1028,46,3,20141114170000
1116,"Xinlitun , Benxi , Benxi",,41.264104,123.811523,151,63,5,8,23,16,-4,-14,1028,46,3,20141114170000
252,Jinzhou,,41.097169,121.132647,172,98,4,19,11,31,0,-10,1000,35,1,20141114170000
253,"Beihu Park, Jinzhou",,41.141447,121.137339,189,88,4,32,64,15,0,-10,1000,35,1,20141114170000
254,"Monitoring station, Jinzhou",,41.113441,121.140911,182,134,5,32,56,10,0,-10,1000,35,1,20141114170000
255,"Nanshan, Jinzhou",,41.570689,122.046753,214,111,5,27,46,32,0,-10,1000,35,1,20141114170000
1118,"BDA, Jinzhou",,40.853915,121.061756,170,100,5,39,36,16,0,-10,1000,35,1,20141114170000
1119,"tianan street, Jinzhou , Jinzhou",,41.124468,121.126119,182,134,5,32,56,10,0,-10,1000,35,1,20141114170000
1120,"baigu street, Jinzhou, Jinzhou",,41.12214,121.21027,172,98,4,19,11,31,0,-10,1000,35,1,20141114170000
1121,Chaoyang,,41.576022,120.456053,153,75,8,26,14,57,-,-,0,-,-,20141114170000
472,"Fukang road, Tianjin",,39.098136,117.157621,165,91,7,44,49,20,4,-1,1029,70,1,20141114170000
1122,"Agricultural Area, Chaoyang",,43.93968,125.247371,152,64,5,10,4,21,-3,-17,1028,21,1,20141114170000
1123,Tieling,,42.225197,123.732174,172,88,21,28,20,7,-,-,0,-,-,20141114170000
260,"Waterpark, Tieling",,42.297031,123.880748,156,93,5,25,52,12,-4,-14,1028,46,3,20141114170000
1124,"Huigong Street West , Tieling , Tieling",,42.311115,123.845614,169,82,5,34,58,9,-4,-14,1028,46,3,20141114170000
1125,Liaoyang,,41.269312,123.24268,151,102,6,35,56,26,-,-,0,-,-,20141114170000
1126,"Riverside Road , Liaoyang , Liaoyang",,41.176884,123.419859,87,56,5,14,26,16,-4,-14,1028,46,3,20141114170000
1127,Fuxin,,42.02373,121.675733,153,94,10,32,77,16,-,-,0,-,-,20141114170000
266,"Agricultural Area, Fuxin",,42.071291,121.696445,157,86,5,22,63,17,-3,-20,0,25,2,20141114170000
267,"Industrial Area, Fuxin",,42.041052,121.715554,127,112,4,20,21,24,-3,-20,0,25,2,20141114170000
1128,"Yulong Metro , Fuxin , Fuxin",,42.035091,121.666531,157,134,3,18,38,22,-3,-20,0,25,2,20141114170000
1129,"Dongyuan , Fuxin , Fuxin",,42.029119,121.681553,153,94,10,32,77,16,-3,-20,0,25,2,20141114170000
268,"City Monitoring Station, Jinan",,36.662614,117.054645,181,118,5,46,42,17,6,-5,1029,32,2,20141114170000
269,"Shandong Institute of Economics, Jinan",,36.63819,117.074975,167,90,15,20,47,7,6,-5,1029,32,2,20141114170000
270,"Quancheng Plaza, Jinan",,36.661711,117.027043,178,124,8,39,33,18,6,-5,1029,32,2,20141114170000
271,"Kegansuo, Jinan",,36.611582,116.99384,167,141,12,45,35,21,6,-5,1029,32,2,20141114170000
272,"Agriculture Science Institute, Jinan",,36.663115,116.95063,256,348,6,64,36,31,6,-5,1029,32,2,20141114170000
273,"Lanxiang technical school, Jinan",,36.700421,116.95342,232,200,10,77,42,19,6,-5,1029,32,2,20141114170000
274,"Chemical factory, Jinan",,36.687463,116.994406,232,187,7,58,47,21,6,-5,1029,32,2,20141114170000
275,"Provincial Seed Warehouse, Jinan",,36.685706,117.066348,177,142,4,39,41,12,6,-5,1029,32,2,20141114170000
276,"Shandong Architecture University, Jinan",,36.681732,117.191868,169,134,10,38,29,12,6,-5,1029,32,2,20141114170000
277,"Baosheng cable company, Jinan",,36.724638,117.130855,232,416,5,40,23,16,6,-5,1029,32,2,20141114170000
278,"Paomaling, Jinan",,36.47869,117.219027,157,83,26,19,56,8,6,-5,1029,32,2,20141114170000
279,"Changqing District Communist Party School, Jinan",,36.548797,116.770859,169,115,18,52,34,10,6,-5,1029,32,2,20141114170000
280,"BDA, Jinan",,36.685835,117.130851,168,122,15,39,23,10,6,-5,1029,32,2,20141114170000
281,Jinan,,36.651426,117.126625,181,118,12,77,42,29,6,-5,1029,32,2,20141114170000
282,"Shinan district No. 1, Qingdao",,36.065534,120.40839,139,65,5,1,43,10,3,-5,1030,56,1,20141114170000
283,"Shibei district No. 1, Qingdao",,36.069919,120.341264,155,88,7,49,11,10,3,-5,1030,56,1,20141114170000
284,"Shibei district No. 2, Qingdao",,36.104146,120.36637,167,133,9,56,21,16,3,-5,1030,56,1,20141114170000
285,"Huangdao District No. 1, Qingdao",,35.958935,120.191041,171,100,12,75,24,8,3,-5,1030,56,1,20141114170000
286,"Huangdao District No. 2, Qingdao",,35.970487,120.160339,161,86,15,40,10,8,3,-5,1030,56,1,20141114170000
287,"Laoshan District No. 1, Qingdao",,36.085881,120.451839,153,70,9,54,33,12,3,-5,1030,56,1,20141114170000
288,"Laoshan District No. 2, Qingdao",,36.091075,120.490388,151,76,20,12,52,7,3,-5,1030,56,1,20141114170000
289,"Licang District No. 1, Qingdao",,36.184872,120.38533,132,112,8,42,24,9,3,-5,1030,56,1,20141114170000
290,"Licang District No. 2, Qingdao",,36.154369,120.432287,187,97,9,35,33,12,3,-5,1030,56,1,20141114170000
291,"Chengyang District No. 1, Qingdao",,36.308502,120.40008,160,61,7,44,16,16,3,-5,1030,56,1,20141114170000
292,"Chengyang District No. 2, Qingdao",,36.308429,120.465806,134,43,22,11,12,10,3,-5,1030,56,1,20141114170000
293,Qingdao,,36.067358,120.387773,139,65,11,45,43,10,3,-5,1030,56,1,20141114170000
294,"Zichuan Meteo. Stations, Zibo",,36.637916,117.960222,-,-,-,-,-,-,-,-,0,-,-,20141114170000
295,"Dongfeng Chemical factory, Zibo",,36.838576,118.050785,201,168,3,59,59,26,4,-9,0,34,0,20141114170000
296,"Boshan shuangshan, Zibo",,36.497278,117.853581,191,152,3,45,68,27,4,-9,0,34,0,20141114170000
297,"Linzi Putian Park, Zibo",,36.820171,118.315022,225,345,5,72,105,45,4,-9,0,34,0,20141114170000
298,"Qilu Petrochemical, Zibo",,36.765907,118.254967,182,141,4,38,64,24,4,-9,0,34,0,20141114170000
299,"Zhoucun sanjin Group, Zibo",,36.8044,117.85694,249,168,11,29,44,26,4,-9,0,34,0,20141114170000
300,"Vocational College, Zibo",,36.825208,117.926305,219,192,3,49,59,25,4,-9,0,34,0,20141114170000
301,"BDA, Zibo",,36.905214,118.021824,219,151,2,30,40,20,4,-9,0,34,0,20141114170000
302,Zibo,,36.813618,118.060948,266,368,3,59,99,47,4,-9,0,34,0,20141114170000
303,"Shizhong District Government, Zaozhuang",,34.850397,117.569545,180,89,19,43,64,12,10,0,1028,36,2,20141114170000
304,"Sewage treatment plant, Zaozhuang",,34.818951,117.595345,194,109,16,50,64,20,10,0,1028,36,2,20141114170000
305,"Xuecheng EPA, Zaozhuang",,34.790214,117.272455,82,121,29,33,51,5,10,0,1028,36,2,20141114170000
306,"Yicheng District government, Zaozhuang",,34.772806,117.57647,175,130,35,26,30,6,10,0,1028,36,2,20141114170000
307,"Taierzhuang EPA, Zaozhuang",,34.579462,117.741067,169,91,20,26,21,10,10,0,1028,36,2,20141114170000
308,"Shanting EPA, Zaozhuang",,35.070373,117.457691,166,94,45,36,25,11,10,0,1028,36,2,20141114170000
309,"City EPA, Zaozhuang",,34.809466,117.320608,200,169,29,37,78,6,10,0,1028,36,2,20141114170000
310,"High-tech zone, Zaozhuang",,34.821779,117.363495,231,152,27,42,109,13,10,0,1028,36,2,20141114170000
311,Zaozhuang,,34.809693,117.329634,180,89,19,43,64,12,10,0,1028,36,2,20141114170000
312,"City EPA, Dongying",,37.432052,118.672871,171,89,6,44,30,24,8,-3,0,41,3,20141114170000
313,"Vocational College, Dongying",,37.438653,118.630567,177,108,5,46,34,21,8,-3,0,41,3,20141114170000
314,"Xianhe Oil Production Plant, Dongying",,37.442419,118.510222,181,126,12,58,46,22,8,-3,0,41,3,20141114170000
315,"Gengjin village, Dongying",,37.445072,118.55839,172,104,7,38,20,17,8,-3,0,41,3,20141114170000
316,"City environmental company, Dongying",,37.466599,118.508012,175,99,7,68,49,14,8,-3,0,41,3,20141114170000
317,"Hekou  district, Dongying",,37.883786,118.522171,154,76,12,30,14,17,8,-3,0,41,3,20141114170000
318,"BDA, Dongying",,37.435162,118.701827,168,89,12,43,23,24,8,-3,0,41,3,20141114170000
319,Dongying,,37.435429,118.680434,171,89,6,44,30,24,8,-3,0,41,3,20141114170000
320,"Bearing Factory, Yantai",,37.544126,121.376956,109,66,10,34,18,13,,,0,,,20141114170000
321,"Xijiao Chemical Station, Yantai",,37.547148,121.323695,127,66,10,26,11,11,,,0,,,20141114170000
322,"Fushan Monitoring Stations, Yantai",,37.472245,121.260116,147,65,5,37,7,18,,,0,,,20141114170000
323,"Mouping EPA, Yantai",,37.376681,121.586509,97,51,8,18,3,19,,,0,,,20141114170000
324,"Laishan EPA, Yantai",,37.478422,121.44829,76,32,16,28,23,6,,,0,,,20141114170000
325,"Laishan Shengquan Industrial Park, Yantai",,37.4271,121.408386,152,80,10,27,13,14,,,0,,,20141114170000
326,"China Agricultural University, Yantai",,37.423568,121.511838,99,59,13,69,5,8,,,0,,,20141114170000
327,"BDA EPA, Yantai",,37.560827,121.257954,185,136,7,46,12,13,,,0,,,20141114170000
329,"Dajijia, Yantai",,37.673849,121.071465,87,50,20,23,11,7,,,0,,,20141114170000
330,Yantai,,37.464793,121.453142,109,66,12,34,18,13,,,0,,,20141114170000
331,"BDA, Weifang",,36.720022,119.054064,194,163,5,39,32,11,,,0,,,20141114170000
332,"Business School, Weifang",,36.682442,119.105909,185,128,13,40,35,9,,,0,,,20141114170000
333,"Hanting District, Weifang",,36.773484,119.199705,200,160,11,45,56,18,,,0,,,20141114170000
334,"Gongda Company, Weifang",,36.657635,119.167266,234,186,13,39,40,15,,,0,,,20141114170000
335,"City EPA, Weifang",,36.701272,119.16838,236,151,10,37,43,22,,,0,,,20141114170000
336,"City Arbitration Committee, Weifang",,36.702422,119.145927,223,139,19,34,43,21,,,0,,,20141114170000
337,"Xinhui Group, Weifang",,36.641581,119.11679,225,144,13,41,27,19,,,0,,,20141114170000
339,Weifang,,36.707217,119.167638,199,160,12,46,62,19,,,0,,,20141114170000
340,"City Monitoring Station, Jining",,35.408443,116.623917,187,126,11,44,51,19,4,-2,1028,54,1,20141114170000
1090,"Shengdi Hollidays Resort, Jining",,35.424746,116.699093,175,122,9,56,53,10,4,-2,1028,54,1,20141114170000
341,"Sewage treatment plant, Jining",,35.364286,116.609177,194,133,10,19,50,16,4,-2,1028,54,1,20141114170000
342,"Electrochemical Factory, Jining",,35.390473,116.552956,183,178,13,44,56,18,4,-2,1028,54,1,20141114170000
343,"Rencheng BDA, Jining",,35.390484,116.662995,180,116,14,91,21,16,4,-2,1028,54,1,20141114170000
344,"Agricultural School, Jining",,35.44235,116.601682,248,168,7,35,23,13,4,-2,1028,54,1,20141114170000
345,"BDA Huojucheng, Jining",,35.436377,116.642953,184,146,7,39,44,13,4,-2,1028,54,1,20141114170000
346,Jining,,35.414473,116.59239,187,126,12,44,51,19,4,-2,1028,54,1,20141114170000
347,"Taishan monitoring station, Taian",,36.194362,117.159648,142,105,7,27,22,20,-1,-12,0,29,2,20141114170000
348,"Shandong Electric Power School, Taian",,36.176071,117.12413,119,134,5,33,34,25,-1,-12,0,29,2,20141114170000
349,"Population Education school, Taian",,36.194417,117.104131,132,178,6,29,47,23,-1,-12,0,29,2,20141114170000
350,"Houfeng company, Taian",,36.204863,117.19015,91,146,4,31,17,20,-1,-12,0,29,2,20141114170000
351,"Nongda new campus, Taian",,36.170179,117.165191,89,145,5,35,42,24,-1,-12,0,29,2,20141114170000
352,"Transportation technical school, Taian",,36.202126,117.047068,139,141,4,47,25,13,-1,-12,0,29,2,20141114170000
353,"ICT Technology, Taian",,36.116621,117.107458,76,124,12,38,49,16,-1,-12,0,29,2,20141114170000
354,Taian,,36.200502,117.093682,142,105,14,27,22,20,-1,-12,0,29,2,20141114170000
355,"City Environmental Monitoring Station, Weihai",,37.513939,122.067058,46,26,17,30,10,5,8,2,0,64,0,20141114170000
356,"Woodworking Factory, Weihai",,37.325455,122.160777,61,32,23,13,13,2,8,2,0,64,0,20141114170000
357,"Lantian Hotel, Weihai",,37.514641,122.146276,61,36,32,9,12,3,8,2,0,64,0,20141114170000
358,"Zhang village government, Weihai",,37.485561,122.049436,63,23,14,9,11,5,8,2,0,64,0,20141114170000
359,"Gao District Bank, Weihai",,37.534919,122.056294,82,53,18,29,7,4,8,2,0,64,0,20141114170000
360,"Huxia technical school, Weihai",,37.427951,122.130811,50,34,27,6,6,4,8,2,0,64,0,20141114170000
361,Weihai,,37.5141,122.125477,46,26,17,30,10,5,8,2,0,64,0,20141114170000
362,"City governement square, Rizhao",,35.4075,119.526008,158,79,10,27,27,9,8,-3,1030,33,1,20141114170000
363,"Port Authority, Rizhao",,35.381297,119.55396,-,-,-,-,-,-,-,-,0,-,-,20141114170000
364,"City Monitoring Station, Rizhao",,35.388683,119.496405,168,98,7,33,32,15,8,-3,1030,33,1,20141114170000
365,"Professor Garden, Rizhao",,35.462161,119.574193,109,64,28,16,18,12,8,-3,1030,33,1,20141114170000
366,"Vocational and Technical College, Rizhao",,35.441939,119.538187,134,67,24,20,17,8,8,-3,1030,33,1,20141114170000
367,"Lanshan EPA branch, Rizhao",,35.293405,119.345716,163,93,21,40,28,9,8,-3,1030,33,1,20141114170000
368,"Jinma Industrial Park, Rizhao",,35.373339,119.514108,174,159,13,48,23,9,8,-3,1030,33,1,20141114170000
369,Rizhao,,35.416089,119.532316,158,79,10,27,27,9,8,-3,1030,33,1,20141114170000
370,"Vegetable oil factory, Laiwu",,36.205028,117.700917,199,143,9,39,59,37,4,-7,1030,31,0,20141114170000
371,"Nursing home, Laiwu",,36.266067,117.652769,198,149,20,23,45,18,4,-7,1030,31,0,20141114170000
372,"Xinyi middle school, Laiwu",,36.245086,117.739025,157,70,5,37,51,18,4,-7,1030,31,0,20141114170000
373,"Risheng International School, Laiwu",,36.208125,117.730959,188,104,3,36,50,22,4,-7,1030,31,0,20141114170000
374,"Gangcheng EPA, Laiwu",,36.066836,117.871823,179,126,5,45,46,27,4,-7,1030,31,0,20141114170000
375,"City EPA, Laiwu",,36.228913,117.694797,178,108,4,28,52,29,4,-7,1030,31,0,20141114170000
376,Laiwu,,36.213688,117.682612,199,143,9,39,59,37,-,-,0,-,-,20141114170000
377,"Lunan Pharmaceutical Factory, Linyi",,35.061671,118.299527,230,196,6,39,21,18,7,-4,0,42,2,20141114170000
378,"Yihe compound, Linyi",,35.056752,118.34739,180,98,6,45,17,17,7,-4,0,42,2,20141114170000
379,"Linyi University, Linyi",,35.114777,118.293414,240,186,5,43,29,20,7,-4,0,42,2,20141114170000
380,City EPA,Nanfang,35.104871,118.353518,185,132,8,47,26,16,7,-4,0,42,2,20141114170000
381,"Xinguang woolen factory, Linyi",,34.981004,118.282,188,153,7,54,46,16,7,-4,0,42,2,20141114170000
382,"Hongfu Baijiu Factory, Linyi",,34.998788,118.257275,300,195,6,27,26,26,7,-4,0,42,2,20141114170000
384,"Hedong insurance company, Linyi",,35.089354,118.40812,197,136,7,41,23,13,7,-4,0,42,2,20141114170000
385,"Jianghua vehicule center, Linyi",,35.010082,118.435749,204,122,5,50,19,13,7,-4,0,42,2,20141114170000
386,Linyi,,35.10428,118.362202,230,196,6,55,52,18,7,-4,0,42,2,20141114170000
387,"Heima group, Dezhou",,37.466063,116.314134,200,142,3,42,28,19,6,-6,1028,32,1,20141114170000
388,"Monitoring station, Dezhou",,37.433107,116.377312,199,102,5,34,25,20,6,-6,1028,32,1,20141114170000
389,"Supervision Station, Dezhou",,37.449689,116.324709,191,105,7,32,33,15,6,-6,1028,32,1,20141114170000
390,"Huayu technical school, Dezhou",,37.462809,116.357559,193,109,4,33,26,11,6,-6,1028,32,1,20141114170000
391,"Shuangyi group, Dezhou",,37.478848,116.316362,258,164,4,37,40,16,6,-6,1028,32,1,20141114170000
392,Dezhou,,37.434959,116.363366,200,142,3,42,30,19,6,-6,1028,32,1,20141114170000
393,"Dongchang District Government, Liaocheng",,36.444473,115.971733,211,126,11,51,54,26,8,0,1028,47,0,20141114170000
394,"Light Machinery Factory No. 2, Liaocheng",,36.456788,116.002383,222,159,2,43,54,19,8,0,1028,47,0,20141114170000
395,"City committee communist party school, Liaocheng",,36.479537,115.989288,242,195,11,48,52,20,8,0,1028,47,0,20141114170000
396,"Customs, Liaocheng",,36.431933,115.956974,226,187,15,78,54,20,8,0,1028,47,0,20141114170000
397,"Hongshun Garden, Liaocheng",,36.471124,115.960319,294,338,3,65,48,26,8,0,1028,47,0,20141114170000
398,"BDA, Liaocheng",,36.459407,116.043621,224,147,4,41,57,28,8,0,1028,47,0,20141114170000
399,Liaocheng,,36.456792,115.991051,211,126,15,51,54,26,8,0,1028,47,0,20141114170000
400,"City EPA, Binzhou",,37.38024,118.026895,153,83,4,38,10,23,5,-5,1029,36,1,20141114170000
401,"Beizhong new school, Binzhou",,37.38374,117.988996,149,78,4,42,22,15,5,-5,1029,36,1,20141114170000
402,"No.2 water factory, Binzhou",,37.36155,118.002648,163,93,3,33,23,27,5,-5,1029,36,1,20141114170000
403,"Keling Chemical factory, Binzhou",,37.396138,117.943609,147,63,7,23,16,18,5,-5,1029,36,1,20141114180000
404,"Yinhe logistics company, Binzhou",,37.356122,117.943326,153,79,7,62,16,16,5,-5,1029,36,1,20141114180000
405,"Bilin compond, Binzhou",,37.36815,117.978964,175,98,8,55,7,21,5,-5,1029,36,1,20141114180000
406,Binzhou,,37.382639,117.976606,153,83,4,38,10,23,5,-5,1029,36,1,20141114180000
407,"Bureau of Meteorology, Heze",,35.248625,115.428775,208,145,16,44,45,15,9,-5,0,35,2,20141114180000
408,"Sewage treatment plant, Heze",,35.222517,115.531511,190,149,16,65,45,14,9,-5,0,35,2,20141114180000
409,"Municipal CPPCC, Heze",,35.237125,115.480591,190,142,18,45,58,15,9,-5,0,35,2,20141114180000
410,"Huarun Pharmaceutical Company, Heze",,35.261463,115.524873,193,168,7,43,25,14,9,-5,0,35,2,20141114180000
411,"Heze University, Heze",,35.269706,115.460934,197,146,15,53,47,14,9,-5,0,35,2,20141114180000
412,Heze,,35.233354,115.486503,208,145,16,44,45,15,9,-5,0,35,2,20141114180000
413,"Shiji Park, Shijiazhuang",,38.03155,114.547873,180,127,5,42,39,11,6,-3,1029,53,0,20141114180000
414,"Xinan College, Shijiazhuang",,38.012764,114.473163,170,110,3,23,21,9,6,-3,1029,53,0,20141114180000
415,"Chemical College, Shijiazhuang",,38.055503,114.569816,149,61,1,11,3,8,6,-3,1029,53,0,20141114180000
416,"Worker hospital, Shijiazhuang",,38.051784,114.461209,164,99,4,38,22,11,6,-3,1029,53,0,20141114180000
417,"Northwest Water Company, Shijiazhuang",,38.140638,114.508038,209,176,4,34,39,16,6,-3,1029,53,0,20141114180000
418,"High-tech zone, Shijiazhuang",,38.040482,114.610775,173,96,3,32,41,8,6,-3,1029,53,0,20141114180000
419,"Fenglong Montain, Shijiazhuang",,37.910829,114.360264,112,70,26,14,24,6,6,-3,1029,53,0,20141114180000
1130,"Zhengding Unicom, Shijiazhuang",,38.159458,114.59879,245,435,5,65,37,14,6,-3,1029,53,0,20141114180000
1131,"Luancheng Communications, Shijiazhuang",,37.906534,114.638785,183,151,8,37,58,12,6,-3,1029,53,0,20141114180000
1132,"Gaocheng Experimental School, Shijiazhuang",,38.039518,114.867812,185,125,9,28,19,8,6,-3,1029,53,0,20141114180000
1133,"Wuji EPA, Shijiazhuang",,38.17862,114.997012,258,171,6,43,29,13,6,-3,1029,53,0,20141114180000
1134,"Shenze Power Supply Bureau, Shijiazhuang",,38.197674,115.219126,181,127,5,28,33,15,6,-3,1029,53,0,20141114180000
1135,"Zhaoxian EPA, Shijiazhuang",,37.77171,114.775957,174,84,3,33,45,11,6,-3,1029,53,0,20141114180000
1136,"Gaoyi County City Hall, Shijiazhuang",,37.623535,114.612729,172,125,10,37,54,14,6,-3,1029,53,0,20141114180000
1137,"Zanhuang County City Hall, Shijiazhuang",,37.672898,114.398269,151,88,11,29,17,7,6,-3,1029,53,0,20141114180000
1138,"Jingxing Bureau of Meteorology, Shijiazhuang",,38.038788,114.158406,174,175,8,36,58,12,6,-3,1029,53,0,20141114180000
1139,"Pingshan Ye River, Shijiazhuang",,38.266657,114.210275,194,170,7,33,29,10,6,-3,1029,53,0,20141114180000
420,Shijiazhuang,,38.042926,114.520834,168,94,5,36,48,10,6,-3,1029,53,0,20141114180000
421,"No. 12 middle school, Tangshan",,39.659306,118.190271,,,,,,,-,-,0,-,-,20141114180000
422,"Ceramics Company, Tangshan",,39.669255,118.225185,151,86,5,40,20,13,4,-1,1029,70,1,20141114180000
423,"Commodities Bureau, Tangshan",,39.642301,118.191265,124,68,5,34,16,14,4,-1,1029,70,1,20141114180000
424,"Leidazhanzi Station, Tangshan",,39.644375,118.150383,153,96,9,40,14,22,4,-1,1029,70,1,20141114180000
425,"Supply and marketing cooperatives, Tangshan",,39.632334,118.17232,151,83,6,43,27,16,4,-1,1029,70,1,20141114180000
1140,"Guye District City Hall, Tangshan",,39.741379,118.460246,177,104,4,35,17,16,4,-1,1029,70,1,20141114180000
1141,"Kaiping Stations, Tangshan",,39.675246,118.275149,228,238,4,41,38,22,4,-1,1029,70,1,20141114180000
1142,"Fengnan District City Hall, Tangshan",,39.5834,118.097454,137,86,7,41,22,41,4,-1,1029,70,1,20141114180000
1143,"Fengrun City Hall, Tangshan",,39.840355,118.175338,151,288,6,33,72,24,4,-1,1029,70,1,20141114180000
1144,"Qianxi EPA, Tangshan",,40.153339,118.317265,180,115,6,34,38,37,4,-1,1029,70,1,20141114180000
1145,"Caofeidian Xinli  Primary School, Tangshan",,39.291232,118.462182,129,64,18,23,10,7,4,-1,1029,70,1,20141114180000
1146,"Zunhua EPA, Tangshan",,40.206249,117.997315,162,83,8,33,27,18,4,-1,1029,70,1,20141114180000
1147,"Qianan No.1 middle school, Tangshan",,40.004248,118.717055,178,99,4,28,27,18,4,-1,1029,70,1,20141114180000
1266,"Luannan County , Tangshan",,39.511132,118.686928,188,97,16,35,27,9,4,-1,1029,70,1,20141114180000
1267,"Yutian County , Tangshan",,39.908249,117.751417,247,235,6,48,34,28,4,-1,1029,70,1,20141114180000
426,Tangshan,,39.632175,118.186472,124,68,5,34,16,14,-,-,0,-,-,20141114180000
427,"City Monitoring Station, Qinhuangdao",,39.958109,119.607773,158,107,10,46,55,17,,,0,,,20141114180000
428,"Beidaihe, Qinhuangdao",,39.829209,119.53194,107,50,6,30,39,24,,,0,,,20141114180000
429,"Shanhai Pass, Qinhuangdao",,40.019298,119.767898,175,89,28,39,42,5,,,0,,,20141114180000
430,"Contruction Plazz, Qinhuangdao",,39.943187,119.542912,159,118,7,33,25,10,,,0,,,20141114180000
431,"City government, Qinhuangdao",,39.93711,119.612769,175,119,7,30,45,10,,,0,,,20141114180000
1148,"Qinglong EPA, Qinhuangdao",,40.419223,118.958002,162,70,7,19,53,21,,,0,,,20141114180000
1149,"Changli EPA, Qinhuangdao",,39.714369,119.173237,127,71,16,40,17,12,,,0,,,20141114180000
1268,"Lulong County Bureau of Meteorology , Qinhuangdao",,39.901091,118.904857,179,93,14,29,16,15,,,0,,,20141114180000
432,Qinhuangdao,,39.936485,119.606263,175,119,7,30,45,10,,,0,,,20141114180000
433,"CongTai Park, Handan",,36.620197,114.501891,178,138,5,12,22,8,,,0,,,20141114180000
434,"City EPA, Handan",,36.618145,114.518822,161,125,8,95,36,19,,,0,,,20141114180000
435,"East Sewage Factory, Handan",,36.616064,114.548714,151,93,4,46,24,7,,,0,,,20141114180000
436,"Mine Hospital, Handan",,36.578149,114.509854,167,157,7,11,10,9,,,0,,,20141114180000
1150,"Fengfeng mine Inland Revenue Department, Handan",,36.423085,114.245994,202,140,6,26,60,25,,,0,,,20141114180000
1151,"Shexian EPA, Handan",,36.589084,113.692341,169,108,10,33,44,15,,,0,,,20141114180000
1152,"Ci County Vocational Education Center, Handan",,36.380247,114.390119,162,94,8,42,50,11,,,0,,,20141114180000
1153,"Yongnian government guesthouse, Handan",,36.783297,114.502905,169,106,5,36,57,2,,,0,,,20141114180000
1154,"Wuan BDA, Handan",,36.686223,114.269009,177,150,-,33,53,14,,,0,,,20141114180000
1085,Handan,,36.625683,114.544812,151,93,4,46,24,7,,,0,,,20141114180000
437,"Road and Bridge Corporation, Xingtai",,37.096415,114.538799,173,121,2,35,34,13,6,-2,1029,44,1,20141114180000
438,"Dahuo fontain, Xingtai",,37.097563,114.488001,169,92,2,21,22,14,6,-2,1029,44,1,20141114180000
439,"Xingtai Normal College, Xingtai",,37.053404,114.531819,159,98,3,32,33,15,6,-2,1029,44,1,20141114180000
440,"Environment protection office, Xingtai",,37.06253,114.490985,114,91,2,28,24,9,6,-2,1029,44,1,20141114180000
1155,"Cultural centers within the mound, Xingtai",,37.293569,114.524873,151,59,6,10,20,21,6,-2,1029,44,1,20141114180000
383,Xingtai,,37.071066,114.510749,114,91,2,28,24,9,6,-2,1029,44,1,20141114180000
441,"City Monitoring Station, Baoding",,38.871737,115.527103,344,235,28,54,60,40,6,-5,1028,33,0,20141114180000
442,"Surface water Company, Baoding",,38.842891,115.467326,362,419,5,57,57,21,6,-5,1028,33,0,20141114180000
443,"Huadian II, Baoding",,38.896748,115.528102,372,430,4,58,64,46,6,-5,1028,33,0,20141114180000
444,"Reception Center, Baoding",,38.911905,115.477301,202,203,7,47,49,16,6,-5,1028,33,0,20141114180000
445,"Film Factory, Baoding",,38.876949,115.448383,256,192,4,65,58,15,6,-5,1028,33,0,20141114180000
446,"Natatorium, Baoding",,38.863815,115.499212,398,496,5,67,80,37,6,-5,1028,33,0,20141114180000
1156,"Qingyuan City Hall, Baoding",,38.771758,115.502189,333,233,7,44,41,36,6,-5,1028,33,0,20141114180000
1157,"Xushui EPA, Baoding",,39.025781,115.668023,13,15,8,36,26,29,6,-5,1028,33,0,20141114180000
1158,"Zhouzhou Monitoring Stations, Baoding",,39.493241,116.040187,198,134,5,33,54,18,6,-5,1028,33,0,20141114180000
1159,"Gaobeidian EPA, Baoding",,39.3329,115.885891,199,129,5,31,46,17,6,-5,1028,33,0,20141114180000
447,Baoding,,38.874791,115.471124,256,192,4,65,58,15,6,-5,1028,33,0,20141114180000
448,"Century Compound, Zhangjiakou",,40.770279,114.909106,127,54,5,10,9,11,-1,-12,1030,30,1,20141114180000
449,"North Pumping Station, Zhangjiakou",,40.874362,114.910119,119,39,8,6,5,12,-1,-12,1030,30,1,20141114180000
450,"Hardware Warehouse, Zhangjiakou",,40.81232,114.887119,82,44,31,6,20,18,-1,-12,1030,30,1,20141114180000
451,"Tanji Chang, Zhangjiakou",,40.796301,114.89811,91,57,8,8,16,8,-1,-12,1030,30,1,20141114180000
1160,"Xiahuayuan EPA, Zhangjiakou",,40.509345,115.302442,85,51,12,7,15,2,-1,-12,1030,30,1,20141114180000
1161,"Huaian EPA, Zhangjiakou",,40.68157,114.398646,99,10,9,47,7,10,-1,-12,1030,30,1,20141114180000
1162,"Huailai Fuqian Primary School, Zhangjiakou",,40.422204,115.530285,137,71,5,11,1,8,-1,-12,1030,30,1,20141114180000
1269,"Zhangbei EPA , Zhangjiakou",,41.166775,114.732369,152,62,6,17,8,9,-1,-12,1030,30,1,20141114180000
1270,"Kangbao County Environmental Protection Agency , Zhangjiakou",,41.837866,114.591246,114,65,16,8,12,6,-1,-12,1030,30,1,20141114180000
1271,"Guyuan County welfare , Zhangjiakou",,41.669984,115.687401,107,47,11,6,5,8,-1,-12,1030,30,1,20141114180000
1272,"Shangyi County Environmental Protection Bureau , Zhangjiakou",,41.086638,113.984688,139,59,7,13,13,16,-1,-12,1030,30,1,20141114180000
1273,"Yuxian Secondary School , Zhangjiakou",,39.84699,114.601986,172,130,10,26,27,29,-1,-12,1030,30,1,20141114180000
1274,"Yang County Vocational Education Center , Zhangjiakou",,40.106343,114.134732,171,95,11,19,33,14,-1,-12,1030,30,1,20141114180000
1275,"Wan county Environmental Protection Agency , Zhangjiakou",,40.770459,114.75033,87,52,16,11,7,5,-1,-12,1030,30,1,20141114180000
473,"Nankou road, Tianjin",,39.174022,117.199688,158,93,5,45,51,26,4,0,1029,75,1,20141114180000
1276,"Zhuolu County Environmental Protection Agency , Zhangjiakou",,40.374273,115.221393,159,76,7,2,21,19,-1,-12,1030,30,1,20141114180000
452,Zhangjiakou,,40.825744,114.893659,122,51,10,3,15,7,-1,-12,1030,30,1,20141114180000
453,"Railway, Chengde",,40.917557,117.972331,117,62,1,25,17,10,-3,-13,1030,32,1,20141114180000
454,"Cultural Center, Chengde",,40.974625,117.824437,139,84,1,25,14,13,-3,-13,1030,32,1,20141114180000
455,"Bank of China, Chengde",,40.985582,117.958304,161,82,3,27,18,13,-3,-13,1030,32,1,20141114180000
456,"BDA, Chengde",,40.937567,117.969325,142,90,2,28,22,7,-3,-13,1030,32,1,20141114180000
457,"Ligong, Chengde",,41.012579,117.94428,157,54,7,22,11,6,-3,-13,1030,32,1,20141114180000
1163,"Chengde County EPA, Chengde",,40.776643,118.17646,165,90,2,33,54,29,-3,-13,1030,32,1,20141114180000
1164,"Xinglong County City Hall, Chengde",,40.424301,117.513488,153,54,7,27,11,18,-3,-13,1030,32,1,20141114180000
1165,"Luanping EPA, Chengde",,40.950792,117.350715,155,67,6,29,19,12,-3,-13,1030,32,1,20141114180000
1166,"Fengning County City Hall, Chengde",,41.216739,116.658037,165,82,7,8,22,31,-3,-13,1030,32,1,20141114180000
1277,"Longhua EPA , Chengde",,41.311956,117.739605,167,83,9,29,30,10,-3,-13,1030,32,1,20141114180000
458,Chengde,,40.955652,117.968737,142,90,2,28,22,7,-3,-13,1030,32,1,20141114180000
459,"Municipal EPB, Cangzhou",,38.323507,116.876746,159,97,7,38,40,13,4,-1,1029,70,1,20141114180000
460,"Cangxian Urban Construction Bureau, Cangzhou",,38.299495,116.890734,166,83,2,31,37,10,4,0,1029,75,1,20141114180000
461,"TV Broadcast Station, Cangzhou",,38.325525,116.863761,157,73,6,12,52,15,4,0,1029,75,1,20141114180000
1167,"Qing County City Hall, Cangzhou",,38.589643,116.815876,154,64,5,28,51,17,4,-1,1029,70,1,20141114180000
1168,"Poyoushi City Hall, Cangzhou",,38.089516,116.590575,161,85,4,29,17,18,4,-1,1029,70,1,20141114180000
1169,"Huanghua Finance Bureau Training Center, Cangzhou",,38.377793,117.343356,173,84,6,34,13,17,4,-1,1029,70,1,20141114180000
462,Cangzhou,,38.305035,116.844625,157,73,6,12,52,15,4,0,1029,75,1,20141114180000
463,"Environmental Monitoring Supervision Center, Langfang",,39.558157,116.720995,222,130,6,56,60,14,4,-1,1029,70,1,20141114180000
464,"TCM Medical Material Company, Langfang",,39.519096,116.689914,221,161,5,60,53,19,4,-1,1029,70,1,20141114180000
465,"BDA, Langfang",,39.576175,116.779041,205,126,4,51,48,13,4,-1,1029,70,1,20141114180000
466,"North China Institute of Aerospace, Langfang",,39.53517,116.743027,226,137,5,45,55,19,4,-1,1029,70,1,20141114180000
1170,"Guan Party School, Langfang",,39.446185,116.311026,182,110,5,45,24,10,4,-1,1029,70,1,20141114180000
1171,"Xianghe EPA, Langfang",,39.76725,117.015252,189,113,9,44,31,16,4,-1,1029,70,1,20141114180000
1172,"Wenan County EPA, Langfang",,38.880927,116.47001,175,98,9,41,27,11,4,-1,1029,70,1,20141114180000
1173,"Three Rivers Department of Transportation, Langfang",,39.989419,117.091528,194,172,11,35,17,16,4,-1,1029,70,1,20141114180000
1278,"Yongqing EPA , Langfang",,39.329071,116.510917,238,149,5,47,53,18,4,-1,1029,70,1,20141114180000
1279,"Dacheng EPA, Langfang",,38.712628,116.665751,161,83,9,49,38,12,4,-1,1029,70,1,20141114180000
467,Langfang,,39.539148,116.689668,221,161,5,60,53,19,4,-1,1029,70,1,20141114180000
468,"Hengshui City EPB, Hengshui",,37.739679,115.695929,187,144,9,44,35,8,7,-11,0,24,1,20141114180000
469,"Environmental Monitoring Station, Hengshui",,37.738593,115.648837,190,114,7,56,60,13,7,-11,0,25,2,20141114180000
470,"Electrical Machine North Factory, Hengshui",,37.758686,115.70094,165,144,8,27,30,12,7,-11,0,25,2,20141114180000
1174,"Anping EPA, Hengshui",,38.238559,115.537988,191,108,5,39,23,9,7,-11,0,25,2,20141114180000
1175,"Jizhou EPA, Hengshui",,37.548552,115.58679,164,79,9,42,29,13,7,-11,0,25,2,20141114180000
1280,"Zaoqiang EPA, Hengshui",,37.520698,115.714936,193,117,29,34,26,21,7,-11,0,25,2,20141114180000
1281,"Wuyi EPA, Hengshui",,37.801554,115.898697,169,62,9,22,34,11,7,-11,0,25,2,20141114180000
1282,"Wuqiang EPA , Hengshui",,38.03557,115.959767,174,95,6,1,29,21,7,-11,0,25,2,20141114180000
1283,"Raoyang EPA , Hengshui",,38.230652,115.741041,189,116,10,26,15,10,7,-11,0,25,2,20141114180000
1284,"Gucheng County , Hengshui",,37.347569,115.966707,192,99,9,38,30,10,7,-11,0,25,2,20141114180000
471,Hengshui,,37.739562,115.676066,165,144,8,27,30,12,7,-11,0,25,2,20141114180000
1176,"Xinji City Hall, Xinji",,37.949711,115.230084,174,100,3,28,35,16,7,-11,0,25,2,20141114180000
474,"Qinjian street, Tianjin",,39.166588,117.15104,154,78,13,51,65,19,4,0,1029,75,1,20141114180000
475,"Nanjing Road, Tianjin",,39.120958,117.195112,132,72,20,48,56,18,4,0,1029,75,1,20141114180000
476,"Dazhigu No.8 road, Tianjin",,39.111811,117.25147,160,111,15,43,50,22,4,0,1029,75,1,20141114180000
477,"Qianjin street, Tianjin",,39.09371,117.207981,155,84,5,48,56,16,4,0,1029,75,1,20141114180000
478,"Huaihe street, Tianjin",,39.227167,117.191293,186,104,3,43,58,24,4,0,1029,75,1,20141114180000
479,"Xiangshan street, Tianjin",,39.134752,117.275125,168,97,4,22,55,35,4,0,1029,75,1,20141114180000
480,"Yuejin Road, Tianjin",,39.088177,117.320884,153,66,3,41,38,21,4,0,1029,75,1,20141114180000
481,"Zhujiang street, Tianjin",,39.064463,117.231268,-,-,-,-,-,-,-,-,0,-,-,20141114180000
482,"No.4 street, Tianjin",,39.035228,117.713424,124,120,2,44,57,13,4,0,1029,75,1,20141114180000
483,"Yongming road, Tianjin",,38.840392,117.463805,137,72,3,45,9,16,4,0,1029,75,1,20141114180000
484,"Xinhua street, Tianjin",,39.138671,117.010083,99,81,16,41,46,17,4,0,1029,75,1,20141114180000
485,"Jingu Road, Tianjin",,38.985659,117.381254,161,93,6,48,20,21,4,0,1029,75,1,20141114180000
486,"Tanggu Yingkou street, Tianjin",,39.021768,117.656454,99,65,4,44,17,13,4,0,1029,75,1,20141114180000
487,"Hexi Yijing road, Tianjin",,39.248392,117.798043,155,78,8,35,10,16,4,0,1029,75,1,20141114180000
488,"Jianshe Road, Tianjin",,39.720075,117.310588,181,115,2,45,24,31,4,0,1029,75,1,20141114180000
489,"Quanzhou South road, Tianjin",,39.373857,117.050329,175,114,4,56,55,31,4,0,1029,75,1,20141114180000
490,"Donghuan road, Tianjin",,40.043144,117.451062,129,80,5,28,8,13,4,0,1029,75,1,20141114180000
491,"Tuanpowa, Tianjin",,38.920418,117.16299,129,44,16,34,23,14,4,0,1029,75,1,20141114180000
493,"Beiwei No.2 road, Tianjin",,38.943857,116.920624,157,65,4,41,33,21,4,0,1029,75,1,20141114180000
494,"Haitai fazhan No.2 road, Tianjin",,39.079608,117.096583,163,92,4,47,40,16,4,0,1029,75,1,20141114180000
495,"Hangtian road, Tianjin",,39.152244,117.381309,182,144,2,46,26,21,4,0,1029,75,1,20141114180000
496,"Hanbei road, Tianjin",,39.159768,117.770477,80,30,19,51,51,10,4,0,1029,75,1,20141114180000
497,"Baobai highway, Tianjin",,39.51757,117.349635,153,69,21,41,14,16,4,0,1029,75,1,20141114180000
498,Tianjin,,39.085164,117.207281,155,84,5,48,56,16,4,0,1029,75,1,20141114180000
499,"Wolong bridge, Hangzhou",,30.24371,120.132762,168,76,18,27,20,10,11,2,1028,54,2,20141114180000
500,"Hemu primary school, Hangzhou",,30.309669,120.124507,162,80,23,54,20,9,11,2,1028,54,2,20141114180000
501,"Zhejiang Agricultural University, Hangzhou",,30.265601,120.197583,174,95,19,44,50,8,11,2,1028,54,2,20141114180000
502,"Xiasha, Hangzhou",,30.303516,120.352618,160,68,20,31,30,8,11,2,1028,54,2,20141114180000
503,"Yunqi, Hangzhou",,30.178555,120.093142,176,78,14,28,15,7,11,2,1028,54,2,20141114180000
504,"Xixi, Hangzhou",,30.272425,120.068144,169,88,18,45,8,9,11,2,1028,54,2,20141114180000
505,"Chengxiang town, Hangzhou",,30.179493,120.274184,181,92,15,45,51,7,11,2,1028,54,2,20141114180000
506,"Qiandao lake, Hangzhou",,29.638139,119.031092,158,77,42,16,17,5,11,2,1028,54,2,20141114180000
507,"Linping town, Hangzhou",,30.415948,120.305059,159,68,27,38,17,8,11,2,1028,54,2,20141114180000
509,"No.2 Middle School, Hangzhou",,30.044303,119.956356,179,131,20,30,26,10,11,2,1028,54,2,20141114180000
510,"City Hall, Hangzhou",,30.234185,119.723503,180,127,39,31,34,11,11,2,1028,54,2,20141114180000
511,"No. 4 middle school, Hangzhou",,30.229428,119.699591,165,95,6,24,13,9,11,2,1028,54,2,20141114180000
512,Hangzhou,,30.271756,120.159765,168,90,14,51,37,10,10,2,1028,58,1,20141114180000
513,"City Station, Wenzhou",,28.009715,120.679129,93,49,33,17,10,8,9,7,0,83,2,20141114180000
514,"Ouhai, Wenzhou",,28.001846,120.641982,157,72,22,28,16,12,9,7,0,83,2,20141114180000
515,"Longwan, Wenzhou",,27.968122,120.768393,109,67,24,48,9,9,9,7,0,83,2,20141114180000
516,"Nanpu, Wenzhou",,27.981763,120.683685,154,81,24,49,14,13,9,7,0,83,2,20141114180000
517,Wenzhou,,27.990985,120.703425,154,81,24,49,14,13,9,7,0,83,2,20141114180000
518,"Monitoring station, Jiaxing",,30.75437,120.767373,165,80,25,29,14,8,12,3,1028,54,2,20141114180000
519,"Jiaxing University, Jiaxing",,30.745099,120.735004,164,71,24,25,13,10,12,3,1028,54,2,20141114180000
520,"Qinghe Primary School, Jiaxing",,30.775685,120.747969,154,68,24,22,13,8,12,3,1028,54,2,20141114180000
521,Jiaxing,,30.751627,120.762862,165,80,25,29,14,8,12,3,1028,54,2,20141114180000
522,"Chengbei water plant, Huzhou",,30.891155,120.096593,179,107,12,44,24,10,12,3,1028,54,2,20141114180000
523,"Jishan new village, Huzhou",,30.859939,120.120168,197,104,13,46,22,11,12,3,1028,54,2,20141114180000
524,"Town west water plant, Huzhou",,30.862371,120.084577,173,102,11,53,23,10,12,3,1028,54,2,20141114180000
525,Huzhou,,30.892304,120.091694,179,107,12,44,24,10,12,3,1028,54,2,20141114180000
526,"Donghu middle school, Shaoxing",,29.990447,120.647547,149,114,21,25,13,8,11,2,1028,54,2,20141114180000
527,"City EPA station, Shaoxing",,30.001695,120.584318,193,116,17,39,15,8,10,3,1028,62,2,20141114180000
528,"Chengdong BDA committee, Shaoxing",,29.986643,120.613578,187,105,18,19,15,8,10,3,1028,62,2,20141114180000
529,"Paojiang station, Shaoxing",,30.07574,120.62154,157,79,24,45,24,6,10,3,1028,62,2,20141114180000
530,"Shaoxing technical school, Shaoxing",,29.930983,120.577131,178,105,21,28,7,7,11,2,1028,54,2,20141114180000
531,"Library, Shaoxing",,29.706266,120.253183,170,95,16,26,7,10,10,3,1028,62,2,20141114180000
532,"Transporation management station, Shaoxing",,29.726405,120.221602,179,111,20,30,8,15,11,2,1028,54,2,20141114180000
533,"Dongpu Town Governement, Shaoxing",,30.049601,120.539893,180,105,22,27,8,6,10,3,1028,62,2,20141114180000
534,Shaoxing,,29.993122,120.590182,193,116,17,39,15,8,-,-,0,-,-,20141114180000
535,"City Monitoring Station, Jinhua",,29.100031,119.690373,163,98,17,33,23,9,6,2,0,74,1,20141114180000
536,"No.15 middle school, Jinhua",,29.074022,119.652121,163,96,15,46,17,9,6,2,0,76,1,20141114180000
537,"No.4 middle school, Jinhua",,29.110109,119.653654,157,87,19,26,22,10,6,2,0,74,1,20141114180000
538,"Beiyuan, Jinhua",,29.332898,120.083351,183,120,6,38,23,10,6,2,0,76,1,20141114180000
539,"Jiangdong, Jinhua",,29.302486,120.095291,170,97,11,35,26,11,6,2,0,74,1,20141114180000
540,Jinhua,,29.076083,119.65215,163,96,15,46,17,9,6,2,0,76,1,20141114180000
541,"EPA building, Quzhou",,28.937291,118.876081,114,68,37,18,46,10,11,2,1027,41,4,20141114180000
542,"Experimental school, Quzhou",,28.961502,118.880916,132,69,43,19,18,8,11,2,1027,41,4,20141114180000
543,"Quzhou University, Quzhou",,28.971452,118.860052,117,59,35,19,10,6,11,2,1027,41,4,20141114180000
544,Quzhou,,28.966994,118.864252,117,59,35,19,10,6,11,2,1027,41,4,20141114180000
545,"Putuo east port, Zhoushan",,29.951412,122.317679,70,21,44,3,3,4,7,5,1028,87,1,20141114180000
546,"Dinghai tanfeng, Zhoushan",,30.018014,122.126566,59,31,24,12,2,6,7,5,1028,87,1,20141114180000
547,Zhoushan,,29.983049,122.210763,76,56,19,11,2,6,7,5,1028,87,1,20141114180000
548,"Taizhou EPA building, Taizhou",,28.651216,121.42331,154,78,29,21,11,8,10,7,0,82,1,20141114180000
549,"Luqiao Tian Yang Wang, Taizhou",,28.574364,121.381194,139,69,18,25,7,11,10,7,0,82,1,20141114180000
550,"Huangyan EPA building, Taizhou",,28.656151,121.285064,109,54,21,17,6,7,10,7,0,82,1,20141114180000
551,"Yu Zhuang Qian, Lishui",,28.419638,119.883884,144,63,25,38,8,5,11,6,1028,61,1,20141114180000
552,"Monitoring station building, Lishui",,28.444379,119.923103,97,65,29,17,6,6,11,6,1028,61,1,20141114180000
553,"Liandu primary school, Lishui",,28.450912,119.939332,149,67,30,17,3,6,11,6,1028,61,1,20141114180000
554,Lishui,,28.464224,119.927201,97,65,29,17,6,6,11,6,1028,61,1,20141114180000
1248,Jingningxian,,27.977454,119.634837,144,57,4,26,4,9,,,,,,20141114180000
555,Taigu Primary School,,29.864178,121.60022,172,118,4,20,12,13,7,5,1028,87,1,20141114180000
556,Qianhu shuihan,,29.862459,121.5328,171,115,4,11,10,12,7,6,1028,93,1,20141114180000
639,Jingmen,,31.033208,112.205093,174,138,12,22,29,12,8,,1019,90,1,20141114180000
557,Sanjiang secondary schools,,29.891563,121.568427,184,112,4,30,14,11,7,5,1028,87,1,20141114180000
558,Longsai Hospital,,29.957301,121.726734,170,91,14,29,24,13,7,5,1028,87,1,20141114180000
559,Beilun District EPB,,29.911633,121.850773,87,50,11,43,5,9,7,5,1028,87,1,20141114180000
560,Wanli University,,29.821314,121.574364,181,113,5,10,12,9,7,5,1028,87,1,20141114180000
561,Qianhu water plant,,29.774416,121.648136,197,101,30,34,13,8,7,5,1028,87,1,20141114180000
562,Municipal management station,,29.899182,121.626691,186,124,4,18,8,16,7,5,1028,87,1,20141114180000
1177,Daxie Literary Museum,,29.9027,121.986447,89,39,38,13,7,5,10,5,1028,71,2,20141114180000
1178,Cixi EPB,,30.165807,121.248991,157,80,18,29,32,9,7,5,1028,87,1,20141114180000
1179,Cixi Experimently Primary School,,30.179808,121.268672,152,77,26,22,25,8,7,5,1028,87,1,20141114180000
1180,"Yongsan Park, Yuyao",,30.050842,121.162477,165,85,19,36,24,9,7,5,1028,87,1,20141114180000
1181,"Qilupu Water Company, Yuyao",,30.039112,121.133416,159,91,17,38,20,10,7,5,1028,87,1,20141114180000
1182,Fenghua EPB,,29.666557,121.42069,164,71,15,30,7,9,7,5,1028,87,1,20141114180000
1183,"Yuelong station, Ninghai",,29.296505,121.445872,102,53,18,16,7,7,7,5,1028,87,1,20141114180000
1184,"Wenfeng Primary School, Xiangshan",,29.470908,121.889544,91,49,29,8,5,5,7,5,1028,87,1,20141114180000
1185,"Chengnan Primary School, Ninghai",,29.293812,121.43666,122,58,19,16,7,6,7,5,1028,87,1,20141114180000
1186,"Xingang Primary School, Xiangshan",,29.203878,121.952514,85,56,40,10,6,4,7,5,1028,87,1,20141114180000
1356,Haishu City Monitoring Center,,29.86835,121.539341,171,114,4,10,11,12,7,5,1028,87,1,20141114180000
1357,Fenghua Xikou government,,29.693164,121.29331,154,63,8,20,5,7,7,5,1028,87,1,20141114180000
1294,Ningbo,,29.865766,121.548164,186,124,4,18,8,16,7,5,1028,87,1,20141114180000
1187,Fuyang,,30.046157,119.96468,200,145,20,27,18,10,-,-,0,-,-,20141114180000
1188,Yiwu,,29.304353,120.079794,183,120,6,38,23,10,-,-,0,-,-,20141114180000
1189,Zhuji,,29.711185,120.240748,183,101,17,26,8,15,10,3,1028,62,2,20141114180000
563,"Shanxi Road , Nanjing",,32.06795,118.779216,180,118,19,58,29,0,6,3,1027,81,3,20141114180000
564,"Ruijin Road , Nanjing",,32.029321,118.80817,184,105,3,59,24,0,6,3,1027,81,3,20141114180000
565,"Xuanwu Lake, Nanjing",,32.075423,118.800188,179,108,19,49,21,0,6,3,1027,81,3,20141114180000
566,"Olympic Center, Nanjing",,32.007171,118.742217,162,132,3,31,8,0,6,3,1027,81,3,20141114180000
567,"Xianlin University Town , Nanjing",,32.106958,118.919882,-,-,-,-,-,-,-,-,0,-,-,20141114180000
568,Nanjing,,32.058179,118.802061,182,125,8,57,20,0,6,3,1027,81,3,20141114180000
569,"Shangfang hill , Suzhou",,31.24502,120.565211,153,56,16,27,6,0,12,3,1028,54,2,20141114180000
570,"Wuzhong District , Suzhou",,31.268105,120.61717,159,62,15,41,9,0,12,3,1028,54,2,20141114180000
571,"Suzhou New District , Suzhou",,31.297277,120.547262,139,52,16,33,20,0,12,3,1028,54,2,20141114180000
572,"Suzhou Industrial Area, Suzhou",,31.307603,120.673257,158,78,11,50,21,0,12,3,1028,54,2,20141114180000
573,"Xiangcheng district, Suzhou",,31.368674,120.645209,159,83,5,61,15,0,12,3,1028,54,2,20141114180000
574,Suzhou,,31.296701,120.589493,159,83,16,61,21,0,12,3,1028,54,2,20141114180000
575,"South suburb , Nantong",,31.957836,120.917218,177,88,13,37,30,0,9,2,0,60,2,20141114180000
576,"Xinghu park, Nantong",,31.927873,120.944254,164,101,20,33,22,0,9,2,0,60,2,20141114180000
577,"Zilang school, Nantong",,32.039638,120.814358,156,85,24,24,27,0,9,2,0,60,2,20141114180000
578,Nantong,,31.978005,120.898555,177,101,27,37,39,0,9,2,0,60,2,20141114180000
579,Lianyungang,,34.595509,119.226814,152,84,21,27,10,7,8,8,1016,96,0,20141114180000
580,"Hongmen police substation, Lianyungang",,34.588692,119.146693,159,81,12,21,37,0,5,3,1029,83,0,20141114180000
581,"Xugou Nuclear Expert Village , Lianyungang",,34.749957,119.373707,114,85,9,23,23,0,5,3,1029,83,0,20141114180000
582,"Hengrui pharmaceutical company, BDA, Lianyungang",,34.697574,119.353668,159,123,11,43,15,0,5,3,1029,83,0,20141114180000
583,"City Monitoring Station, Lianyungang",,34.586791,119.186929,160,90,10,31,26,0,5,3,1029,83,0,20141114180000
584,"Yellow river new village , Xuzhou",,34.271542,117.177241,206,151,9,46,30,0,10,0,1028,36,2,20141114180000
585,"Tongshan Veterinary Hospital , Xuzhou",,34.307086,117.197766,203,167,4,46,24,0,10,0,1028,36,2,20141114180000
586,"New Town , Xuzhou",,34.213992,117.261718,203,155,15,38,20,0,10,0,1028,36,2,20141114180000
587,"Taoyuan road, Xuzhou",,34.289822,117.249721,206,170,7,39,23,0,10,0,1028,36,2,20141114180000
588,"Agricultural Science Academy , Xuzhou",,34.27655,117.299079,190,171,4,52,18,0,10,0,1028,36,2,20141114180000
589,"Tongshan EPA, Xuzhou",,34.179384,117.171798,246,162,5,33,19,0,10,0,1028,36,2,20141114180000
590,Xuzhou,,34.20346,117.289825,246,171,15,52,51,0,10,0,1028,36,2,20141114180000
591,Yangzhou,,32.39233,119.418446,159,69,10,19,10,5,11,9,0,90,6,20141114180000
592,"Hanjiang Monitoring Station, Yangzhou",,32.374218,119.394484,189,131,11,42,34,0,8,-1,0,47,3,20141114180000
593,"No. 4 Hospital, Yangzhou",,32.401394,119.44444,192,109,4,12,21,0,8,-1,0,47,3,20141114180000
594,"City Monitoring Station, Yangzhou",,32.406588,119.41591,188,121,3,32,36,0,8,-1,0,47,3,20141114180000
595,"University Town , Wuxi",,31.484752,120.273571,152,84,14,34,15,0,12,3,1028,54,2,20141114180000
596,"Shibei High School , Wuxi",,31.619969,120.279584,181,120,3,49,32,0,12,3,1028,54,2,20141114180000
597,"Yuhong Elementary School , Wuxi",,31.561155,120.249588,158,87,6,39,18,0,12,3,1028,54,2,20141114180000
598,Wuxi,,31.488746,120.31575,182,120,14,49,53,0,-,-,0,-,-,20141114180000
599,Changzhou,,31.808037,119.979205,172,86,6,22,36,13,11,9,0,88,5,20141114180000
600,"Chengjian School, Changzhou",,31.776476,119.937681,178,98,4,50,41,0,9,2,0,59,4,20141114180000
601,"Changzhou Engineering Institute , Changzhou",,31.806828,119.966724,187,107,8,48,35,0,9,2,0,59,4,20141114180000
602,"Wujin Monitoring Station, Changzhou",,31.701788,119.939676,175,101,11,44,24,0,9,2,0,59,4,20141114180000
603,"City Monitoring Station, Changzhou",,31.777201,119.979426,21,101,4,50,45,0,9,2,0,59,4,20141114180000
604,Zhenjiang,,32.18597,119.431281,170,79,4,39,15,13,9,8,0,93,5,20141114180000
605,"New District Administrative office , Zhenjiang",,32.186174,119.685021,188,112,8,46,15,0,6,3,1027,81,3,20141114180000
606,"Vocational Education Center , Zhenjiang",,32.212973,119.496253,181,136,12,60,47,0,6,3,1027,81,3,20141114180000
607,"Dantu Monitoring Station , Zhenjiang",,32.130026,119.435432,198,147,11,46,52,0,6,3,1027,81,3,20141114180000
608,"City Monitoring Station, Zhenjiang",,32.202178,119.439766,186,125,8,61,30,0,6,3,1027,81,3,20141114180000
609,"Gaogang Adminstrative office , Taizhoushi",,32.300768,119.886757,167,94,11,11,16,0,8,-1,0,47,3,20141114180000
610,"Students Innovation Park , Taizhoushi",,32.461672,119.892761,179,91,20,9,25,0,8,-1,0,47,3,20141114180000
611,Taizhoushi,,32.453555,119.927852,189,110,20,19,34,0,8,-1,0,47,3,20141114180000
612,"Yancheng power station , Yancheng",,33.400859,120.123067,156,82,18,22,13,0,,,0,,,20141114180000
613,Yancheng,,33.345939,120.168504,144,52,30,5,3,7,11,10,1016,95,4,20141114180000
614,"Wenfeng Middle School , Yancheng",,33.370531,120.134041,154,82,19,23,19,0,,,0,,,20141114180000
615,"BDA Management Committe, Yancheng",,33.393191,120.22978,124,62,12,31,6,0,,,0,,,20141114180000
616,"City Monitoring Station, Yancheng",,33.390623,120.164423,165,87,10,33,14,0,,,0,,,20141114180000
617,Suqian,,33.960666,118.281004,160,87,24,7,5,7,11,10,0,91,6,20141114180000
618,"Suqian College , Suqian",,33.951472,118.298523,151,87,10,17,14,0,9,0,0,53,4,20141114180000
619,"Suqian Middle School , Suqian",,33.95784,118.249505,152,101,7,20,14,0,9,0,0,53,4,20141114180000
620,"Suyu District Environmental Protection Agency , Suqian",,33.94932,118.326569,176,101,9,33,13,0,9,0,0,52,4,20141114180000
621,"City Monitoring Station, Suqian",,33.956982,118.277022,160,85,7,10,18,0,9,0,0,53,4,20141114180000
622,Taizhou,,28.653436,121.425185,154,78,29,21,11,8,10,7,0,82,1,20141114180000
623,Donghu Liyuan,,30.572324,114.377844,155,72,17,43,14,7,12,6,1024,67,4,20141114180000
624,Yuehu Lake,,30.554662,114.256937,151,73,7,44,0,7,12,6,1024,67,4,20141114180000
625,Hankou Huaqiao ,,30.61724,114.287652,142,78,17,39,18,9,12,6,1024,67,4,20141114180000
626,Wuchang Ziyang ,,30.530801,114.309438,151,77,11,38,16,8,12,6,1024,67,4,20141114180000
627,Qingshan Ganghua,,30.622435,114.375599,167,89,13,49,0,9,12,6,1024,67,4,20141114180000
628,Dunkou Xinou,,30.480091,114.162176,152,1,26,30,24,11,12,6,1024,67,4,20141114180000
629,Donghu Gaoxin,,30.48095,114.40724,152,79,20,37,0,8,12,6,1024,67,4,20141114180000
630,Wujianshan,,30.63114,114.135907,160,91,4,51,12,13,12,6,1024,67,4,20141114180000
631,Yuanshun Road,,30.297142,113.858587,144,63,32,17,14,5,12,6,1024,67,4,20141114180000
632,Wuhan,,30.590689,114.310838,50,70,18,0,11,8,12,6,1024,67,4,20141114180000
1190,"Silingsan Factory, Yichang",,30.713288,111.306585,1,1,4,0,0,11,11,6,1024,59,3,20141114180000
633,Yichang,,30.689528,111.292131,1,1,9,0,0,12,11,6,1024,59,3,20141114180000
633,Yichang,,30.689528,111.292131,1,1,9,0,0,12,11,6,1024,59,3,20141114180000
1191,"City Library , Jingzhou",,30.31494,112.260844,1,1,8,0,0,11,12,6,1022,62,0,20141114180000
1192,"City committee communist party school, Jingzhou",,30.35054,112.20743,1,1,5,0,0,12,12,6,1022,62,0,20141114180000
1193,"kerong EPA, Jingzhou",,30.302965,112.29443,1,1,11,0,0,9,12,6,1022,62,0,20141114180000
634,Jingzhou,,30.332608,112.245451,1,1,11,0,0,12,12,6,1022,62,0,20141114180000
634,Jingzhou,,30.332608,112.245451,1,1,11,0,0,12,12,6,1022,62,0,20141114180000
635,Huangshi,,30.19723,115.043908,112,66,22,22,8,16,10,,1027,96,4,20141114180000
635,Huangshi,,30.19723,115.043908,112,66,22,22,8,16,10,,1027,96,4,20141114180000
1194,"Chenjiaying, Huangshi",,30.232823,115.067923,107,63,17,23,3,8,10,,1027,96,4,20141114180000
1195,"Chenjiawan , Huangshi",,30.200422,115.082138,117,63,25,17,11,15,10,,1027,96,4,20141114180000
1196,"Xinxialu, Huangshi",,30.17332,114.954357,142,70,22,19,12,18,10,,1027,96,4,20141114180000
1197,"Tie montian, Huangshi",,30.203885,114.906439,156,71,19,24,1,17,10,,1027,96,4,20141114180000
1198,"BDA, Huangshi",,30.207491,115.031739,13,64,28,27,12,21,10,,1027,96,4,20141114180000
636,Shiyan,,32.627208,110.803311,159,65,18,11,7,6,3,,0,95,1,20141114180000
636,Shiyan,,32.627208,110.803311,159,65,18,11,7,6,3,,0,95,1,20141114180000
1199,"Wudang Mountain , Shiyan",,32.392921,111.047655,-,-,-,-,-,-,-,,0,-,-,20141114180000
1200,"Riverside Village , Shiyan",,32.647286,110.785335,152,64,23,17,9,4,3,,0,95,1,20141114180000
1201,"Liujiagou , Shiyan",,32.636732,110.731129,165,71,12,11,9,7,3,,0,95,1,20141114180000
637,Xiangyang,,32.007029,112.128496,159,87,18,12,11,9,9,,1027,96,2,20141114180000
637,Xiangyang,,32.007029,112.128496,159,87,18,12,11,9,9,,1027,96,2,20141114180000
638,Ezhou,,30.389244,114.899884,157,76,14,33,41,12,11,,1034,97,4,20141114180000
638,Ezhou,,30.389244,114.899884,157,76,14,33,41,12,11,,1034,97,4,20141114180000
1203,"City government, Ezhou",,30.391836,114.892822,155,62,18,33,34,10,11,,1034,97,4,20141114180000
1204,"Zhaojiaba, Ezhou",,30.368966,114.90365,151,75,11,29,18,9,11,,1034,97,4,20141114180000
1205,"Fankou BDA, Ezhou",,30.410759,114.818225,164,93,13,38,56,17,11,,1034,97,4,20141114180000
639,Jingmen,,31.033208,112.205093,174,138,12,22,29,12,8,,1019,90,1,20141114180000
640,Xiaogan,,30.922089,113.922387,158,81,24,20,25,11,12,,1024,71,3,20141114180000
640,Xiaogan,,30.922089,113.922387,158,81,24,20,25,11,12,,1024,71,3,20141114180000
1206,"wenhua street, Shenyang , Xiaogan",,30.925856,113.92104,160,82,22,18,24,15,12,,1024,71,3,20141114180000
1207,"Dongcheng District , Huludao , Xiaogan",,30.917963,113.943904,157,80,25,21,26,7,12,,1024,71,3,20141114180000
641,Huanggang,,30.45124,114.877378,157,77,19,27,21,8,11,,1034,97,4,20141114180000
641,Huanggang,,30.45124,114.877378,157,77,19,27,21,8,11,,1034,97,4,20141114180000
1208,"Dazhou Island, Huanggang",,30.446205,114.900323,158,87,18,31,16,9,11,,1034,97,4,20141114180000
1209,"Workers Center , Huanggang",,30.469244,114.912504,156,67,20,23,27,7,11,,1034,97,4,20141114180000
642,Xianning,,29.838978,114.327898,139,67,21,19,9,16,3,,998,88,1,20141114180000
642,Xianning,,29.838978,114.327898,139,67,21,19,9,16,3,,998,88,1,20141114180000
1210,"Municipal Development and Reform Commission , Xianning",,29.818645,114.328461,-,-,-,-,-,-,-,,0,-,-,20141114180000
1211,"Xianan District Governement, Xianning",,29.51107,114.181864,149,67,6,11,2,20,5,,1006,85,1,20141114180000
1212,"Yangtze River Industrial Park , Xianning",,29.883098,114.32909,124,66,34,28,10,16,3,,998,88,1,20141114180000
1213,"Qianshan Park, Xianning",,29.815351,114.328689,144,69,22,17,14,11,3,,998,88,1,20141114180000
643,Suizhou,,31.688342,113.388675,160,99,10,23,13,27,8,,1021,87,1,20141114180000
643,Suizhou,,31.688342,113.388675,160,99,10,23,13,27,8,,1021,87,1,20141114180000
1338,"City committee communist party school, Suizhou",,31.725316,113.3648,171,124,6,24,5,20,7,,1020,87,1,20141114180000
1339,"Forestry Bureau, Suizhou",,31.690065,113.383157,165,99,13,30,20,24,7,,1020,87,1,20141114180000
645,Xiantao,,30.360228,113.460616,147,87,11,26,48,17,9,,1034,80,3,20141114180000
645,Xiantao,,30.360228,113.460616,147,87,11,26,48,17,9,,1034,80,3,20141114180000
1088,Shennongjia,,31.741307,110.685554,160,75,35,7,18,4,2,,,92,1,20141114180000
1088,Shennongjia,,31.741307,110.685554,160,75,35,7,18,4,2,,,92,1,20141114180000
1214,"Xiangcheng Yundong Street, Xiangfan",,32.017716,112.16102,161,86,15,12,11,8,9,,1027,96,2,20141114180000
1359,"Fancheng Xinhua Road , Xiangfan",,32.0544,112.145224,157,87,22,12,12,11,9,,1027,96,2,20141114180000
655,"City Environmental Monitoring Station, Baotou",,40.657201,109.886738,172,130,3,28,21,22,,,0,,,20141114190000
656,"Donghe EPB, Baotou",,40.586213,110.002224,214,521,3,31,50,25,,,0,,,20141114190000
657,"Baotou shopping mall, Baotou",,40.508334,109.819085,193,138,3,29,27,44,,,0,,,20141114190000
658,"Huilong logistics, Baotou",,40.633436,109.879821,182,138,3,33,19,22,,,0,,,20141114190000
659,Baotou,,40.658597,109.846051,251,521,7,38,53,44,,,0,,,20141114190000
660,"Huatai Automobile Mall, Eerduosi",,39.837048,109.972209,55,30,28,9,3,5,0,-11,1030,30,1,20141114190000
661,"Olympus Garden, Eerduosi",,39.789171,109.987742,95,67,26,24,8,13,0,-11,1030,30,1,20141114190000
662,Eerduosi,,39.609284,109.78704,95,67,29,25,14,14,0,-11,1030,30,1,20141114190000
663,"Tianyi Road, Chifeng",,42.275552,118.88507,144,79,23,17,42,19,-2,-19,1031,13,4,20141114190000
664,"Songshan No.1 Middle School, Chifeng",,42.329307,118.793045,199,155,19,12,46,25,-2,-19,1031,13,4,20141114190000
665,"Hada Street, Chifeng",,42.280714,118.988235,134,73,11,12,36,19,-2,-19,1031,13,4,20141114190000
666,"Songshan Road, Chifeng",,42.171487,118.89501,175,133,38,10,51,21,-2,-19,1031,13,4,20141114190000
667,Chifeng,,42.259752,118.893027,199,155,38,17,51,25,-2,-19,1031,13,4,20141114190000
674,Fuzhou,,26.071406,119.301294,78,40,40,9,3,4,17,11,1023,68,7,20141114190000
675,"Xidong, Xiamen",,24.815345,118.161848,57,22,29,1,3,5,18,11,1022,64,7,20141114190000
676,"Hongwen, Xiamen",,24.473969,118.156281,72,24,36,9,3,4,18,11,1022,64,7,20141114190000
677,"Gulangyu, Xiamen",,24.443168,118.068571,59,24,37,4,3,6,18,11,1022,64,7,20141114190000
678,"Huli, Xiamen",,24.51235,118.099146,72,30,42,5,2,4,18,11,1022,64,7,20141114190000
679,Xiamen,,24.477187,118.094402,72,30,42,5,2,4,-,-,0,-,-,20141114190000
680,"Qingyuan Montain, Quanzhou",,24.939503,118.598337,55,17,24,2,3,4,18,11,1022,64,7,20141114190000
681,"Tushan Street, Quanzhou",,24.90867,118.586397,57,18,37,5,2,2,18,11,1022,64,7,20141114190000
682,"Wanan, Quanzhou",,24.304154,118.070903,38,18,28,5,3,4,18,11,1022,64,7,20141114190000
683,Quanzhou,,24.87179,118.68001,57,20,37,8,5,5,18,11,1022,64,7,20141114190000
687,"Jiancaoping, Taiyuan",,37.887889,112.528383,157,85,1,19,51,15,2,-9,1026,44,1,20141114190000
688,"Jianhe, Taiyuan",,37.910779,112.579258,151,95,4,9,51,12,2,-9,1026,44,1,20141114190000
689,"Shanglan, Taiyuan",,38.011589,112.440679,144,59,5,32,56,7,1,-8,1026,52,2,20141114190000
690,"Jinyuan, Taiyuan",,37.713164,112.475552,161,86,5,21,70,7,2,-9,1026,44,1,20141114190000
691,"Xiaodian, Taiyuan",,37.782137,112.483533,155,84,11,19,80,18,2,-9,1026,44,1,20141114190000
692,"Taoyuan, Taiyuan",,37.869752,112.543332,153,91,2,33,41,17,1,-8,1026,52,2,20141114190000
693,"Wucheng, Taiyuan",,37.819998,112.576252,154,86,2,18,56,8,2,-9,1026,44,1,20141114190000
694,"Nanzhai, Taiyuan",,37.985902,112.555312,134,72,4,16,41,5,2,-9,1026,44,1,20141114190000
695,"Jinsheng, Taiyuan",,37.781205,112.494494,137,86,3,21,76,15,2,-9,1026,44,1,20141114190000
696,Taiyuan,,37.871115,112.555178,153,91,2,33,41,17,-,-,0,-,-,20141114190000
697,"Monitoring station, Changzhi",,36.194062,113.10389,157,92,17,18,9,17,,,0,,,20141114190000
698,"Auditing bureau, Changzhi",,36.212787,113.095221,165,90,13,16,5,12,,,0,,,20141114190000
699,"Qinghua station, Changzhi",,36.154328,113.116385,158,85,11,13,10,22,,,0,,,20141114190000
700,"No.8 middle school, Changzhi",,36.185451,113.099481,162,156,8,18,19,16,,,0,,,20141114190000
701,Changzhi,,36.195553,113.12292,165,156,17,18,19,22,,,0,,,20141114190000
702,"Yungang Hotel, Datong",,40.076997,113.278079,142,88,8,15,39,19,-3,-11,1034,42,0,20141114190000
703,"college of education, Datong",,40.085608,113.27808,156,72,10,12,27,17,-3,-11,1034,42,0,20141114190000
704,Datong,,40.078016,113.307143,170,95,10,21,39,19,-3,-11,1034,42,0,20141114190000
705,"Technical Schools, Linfen",,36.07131,111.509046,104,40,10,16,15,24,0,-13,0,35,0,20141114190000
706,"Municipal party committee, Linfen",,36.087425,111.508771,104,37,13,11,94,21,0,-13,0,35,0,20141114190000
1073,"City Monitoring Station, Linfen",,36.097676,111.518739,129,57,10,14,26,14,0,-13,0,35,0,20141114190000
707,"South Airport, Linfen",,36.041614,111.497968,95,36,31,12,32,10,0,-13,0,35,0,20141114190000
708,Linfen,,36.087944,111.525098,129,43,31,21,94,27,0,-13,0,35,0,20141114190000
709,"City center, Yangquan",,37.848012,113.578636,80,97,2,22,50,9,1,-8,1026,52,2,20141114190000
710,Yangquan,,37.857475,113.586921,172,273,19,124,73,18,1,-8,1026,52,2,20141114190000
711,"Water Company, Jincheng",,35.504787,112.857245,165,65,10,6,14,8,8,-7,1028,20,3,20141114190000
712,"Baiyun shopping mall, Jincheng",,35.492858,112.841566,168,82,11,12,10,8,8,-7,1028,20,3,20141114190000
713,"City EPA, Jincheng",,35.488422,112.858528,173,77,12,11,6,14,8,-7,1028,20,3,20141114190000
714,"Institute of Technology, Jincheng",,35.484844,112.878073,170,68,16,5,8,7,8,-7,1028,20,3,20141114190000
715,"No.1 middle school, Jincheng",,35.478725,112.838636,167,70,11,6,9,9,8,-7,1028,20,3,20141114190000
716,Jincheng,,35.490287,112.85794,173,82,16,12,14,14,8,-7,1028,20,3,20141114190000
718,"District Government, Shuozhou",,39.320857,112.430641,183,112,7,27,58,28,4,-12,1031,18,1,20141114190000
719,"City EPA, Shuozhou",,39.331495,112.407997,,71,,24,45,,4,-12,1031,18,1,20141114190000
720,"No.2 middle school, Shuozhou",,39.377963,112.432877,166,68,10,29,56,14,4,-12,1031,18,1,20141114190000
721,Shuozhou,,39.332756,112.439672,183,102,10,30,60,30,4,-12,1031,18,1,20141114190000
722,"Jinlun compound, Jinzhong",,37.697891,112.771017,132,73,6,18,30,28,2,-9,1026,44,1,20141114190000
723,"Hydraulic Component Factory, Jinzhong",,37.688355,112.725844,155,85,6,36,51,21,2,-9,1026,44,1,20141114190000
724,"Nandu compound, Jinzhong",,37.713148,112.732036,93,62,3,10,20,15,2,-9,1026,44,1,20141114190000
725,"Yuci district government, Jinzhong",,37.698228,112.714167,102,56,4,17,28,28,2,-9,1026,44,1,20141114190000
726,Jinzhong,,37.687705,112.759187,155,85,6,36,51,28,3,-8,1026,45,1,20141114190000
727,"Yuncheng Middle School, Yuncheng",,35.012345,111.003215,85,55,16,14,33,13,6,4,1030,81,3,20141114190000
728,"Yudou BDA, Yuncheng",,35.05065,111.029571,114,55,15,11,1,18,6,4,1030,81,3,20141114190000
730,"Regional Technical School, Yuncheng",,35.028727,110.974076,119,52,14,9,5,15,6,4,1030,81,3,20141114190000
731,"Airport new district, Yuncheng",,35.084515,111.05339,91,51,18,6,7,18,6,4,1030,81,3,20141114190000
732,Yuncheng,,35.025675,111.013344,119,55,18,14,33,18,-,-,0,-,-,20141114190000
733,"Jiyin, Xinzhou",,38.413292,112.742432,187,133,10,24,51,20,2,-9,1026,44,1,20141114190000
734,"BDA, Xinzhou",,38.450069,112.736723,199,97,2,14,63,24,2,-9,1026,44,1,20141114190000
735,"Convention Center, Xinzhou",,38.492043,112.709772,194,116,8,28,49,23,2,-9,1026,44,1,20141114190000
736,Xinzhou,,38.417244,112.740742,199,133,10,28,63,24,2,-9,1026,44,1,20141114190000
737,"City EPA, Luliang",,37.522189,111.144365,139,84,11,20,38,26,13,10,0,77,1,20141114190000
738,"Soybean factory, Luliang",,37.51689,111.135101,172,113,2,59,75,38,13,10,0,77,1,20141114190000
739,"Water Company, Luliang",,37.53394,111.138834,163,109,8,9,75,35,13,10,0,77,1,20141114190000
740,Luliang,,25.027007,103.668566,172,113,2,59,75,38,13,10,0,77,1,20141114190000
741,"City government, Sanmenxia",,34.776251,111.198781,161,70,8,13,6,15,6,5,1029,86,2,20141114190000
743,"BDA, Sanmenxia",,34.800434,111.204332,175,84,18,14,13,15,6,5,1029,86,2,20141114190000
744,Sanmenxia,,34.771506,111.206129,175,87,18,14,13,15,6,5,1029,86,2,20141114190000
745,"Food Factory, Changchun",,43.919094,125.329521,165,97,3,27,24,9,-7,-15,1026,54,2,20141114190000
746,"Bus Factory, Changchun",,43.912337,125.293431,185,98,5,39,28,12,-7,-15,1026,54,2,20141114190000
747,"Institute of Posts and Telecommunications, Changchun",,43.842368,125.285005,185,135,3,32,33,12,-7,-15,1026,54,2,20141114190000
748,"Laodong Park, Changchun",,43.877293,125.371519,181,109,3,33,33,11,-7,-15,1026,54,2,20141114190000
749,"Forest area, Changchun",,43.871825,125.331519,187,121,2,30,69,11,-7,-15,1026,54,2,20141114190000
750,"Jinyuetan, Changchun",,43.79031,125.460561,158,97,7,19,11,16,-7,-15,1026,54,2,20141114190000
751,"Shuaiwanzi, Changchun",,43.552321,125.639086,151,68,16,6,4,5,-7,-15,1026,54,2,20141114190000
752,"Economic Development Zone Sanitation Department, Changchun",,43.869221,125.42365,185,142,2,28,21,10,-7,-15,1026,54,2,20141114190000
753,"High-tech Zone Administrative Committee, Changchun",,43.819064,125.256375,172,119,6,24,15,6,-7,-15,1026,54,2,20141114190000
754,"Daishan Park, Changchun",,43.852365,125.223399,169,116,6,28,23,9,-7,-15,1026,54,2,20141114190000
755,Changchun,,43.819415,125.329977,185,135,3,32,33,12,-,-,0,-,-,20141114190000
756,"Hadawan, Jilin",,43.888081,126.545727,179,126,5,22,12,12,-9,-12,0,79,2,20141114190000
757,"Fengman, Jilin",,43.768169,126.678802,89,44,26,4,4,3,-9,-12,0,79,2,20141114190000
758,"Electric Power College, Jilin",,43.827403,126.502281,151,66,7,17,11,10,-9,-12,0,79,2,20141114190000
759,"Jiangnan Park, Jilin",,43.83531,126.556519,132,63,6,12,11,8,-9,-12,0,79,2,20141114190000
760,"Dongjuzi, Jilin",,43.838597,126.590068,114,56,13,8,9,5,-9,-12,0,79,2,20141114190000
763,Jilin,,43.840137,126.555262,179,126,26,22,14,12,-9,-12,0,79,2,20141114190000
764,"Lingbei, Haerbin",,45.756979,126.548008,181,91,19,32,14,6,-14,-17,1025,79,1,20141114190000
765,"Songbei Commercial University, Haerbin",,45.818624,126.566963,193,64,20,21,12,12,-14,-17,1025,79,1,20141114190000
766,"Acheng huining, Haerbin",,45.544286,126.985183,164,90,19,17,,12,-14,-17,1025,79,1,20141114190000
767,"Nangang College Street, Haerbin",,45.724121,126.604906,239,163,24,24,18,15,-14,-17,1025,79,1,20141114190000
768,"Taiping Hongwei Park, Haerbin",,45.775332,126.695101,292,76,20,33,34,12,-14,-17,1025,79,1,20141114190000
769,"Daowai Chengde Square, Haerbin",,45.768637,126.640955,363,61,19,25,23,8,-14,-17,1025,79,1,20141114190000
770,"Xiangfang Hongqi Street, Haerbin",,45.733936,126.691083,179,106,17,28,30,10,-14,-17,1025,79,1,20141114190000
771,"Dongli Heping Road, Haerbin",,45.727765,126.651974,173,114,18,32,28,4,-14,-17,1025,79,1,20141114190000
772,"Daoli Jianguo Road, Haerbin",,45.749715,126.59891,200,119,23,37,39,7,-14,-17,1025,79,1,20141114190000
773,"Pingfang Light Factory, Haerbin",,45.611951,126.620898,188,111,4,25,13,12,-14,-17,1025,79,1,20141114190000
774,"Hulan Normal College, Haerbin",,45.983745,126.616553,166,70,13,34,8,7,-14,-17,1025,79,1,20141114190000
775,"Provincial Academy of Agricultural Sciences, Haerbin",,45.686141,126.626517,212,130,14,28,39,7,-14,-17,1025,79,1,20141114190000
776,Haerbin,,45.805757,126.541007,193,86,20,21,12,12,-,-,0,-,-,20141114190000
777,"Anju Compound, Qiqihaer",,47.365672,123.937016,151,79,26,5,3,20,-7,-12,1025,57,1,20141114190000
778,"Farming Vehicule Factory, Qiqihaer",,47.326793,123.961427,99,41,21,7,27,15,-7,-12,1025,57,1,20141114190000
779,"Fuqu EPA, Qiqihaer",,47.1853,123.62322,129,24,26,-,29,13,-7,-12,1025,57,1,20141114190000
780,"City Center Square, Qiqihaer",,47.343096,123.96192,124,47,22,2,20,14,-7,-12,1025,57,1,20141114190000
1217,"City Environmental Monitoring Station, Qiqihaer",,47.303639,123.957551,168,94,19,5,35,14,-7,-12,1025,57,1,20141114190000
781,Qiqihaer,,47.356387,123.924736,168,47,26,7,35,20,-7,-12,1025,57,1,20141114190000
782,"Saertu District, Daqing",,46.582368,125.152904,129,60,23,9,14,14,-10,-13,1024,76,2,20141114190000
783,"Datong District, Daqing",,46.036786,124.842115,68,27,25,8,11,12,-10,-13,1024,76,2,20141114190000
784,"Honggang District, Daqing",,46.418381,124.88973,89,41,17,22,7,10,-10,-13,1024,76,2,20141114190000
785,"Longfeng District, Daqing",,46.535426,125.107043,107,46,22,23,10,16,-10,-13,1024,76,2,20141114190000
786,"Ranghulu District, Daqing",,46.635123,124.85648,99,53,25,26,11,11,-10,-13,1024,76,2,20141114190000
787,Daqing,,46.591414,125.110838,129,60,25,26,14,16,-10,-13,1024,76,2,20141114190000
788,"Locomotive Factory, Mudanjiang",,44.610589,129.652672,151,53,30,13,12,5,-10,-18,1025,39,1,20141114190000
789,"No. 1 hospital, Mudanjiang",,44.567775,129.617043,97,55,28,10,5,5,-10,-18,1025,39,1,20141114190000
1220,"EPA building, Mudanjiang",,44.567777,129.620658,152,51,16,6,5,4,-10,-18,1025,39,1,20141114190000
1221,"Cultural Square, Mudanjiang",,44.586388,129.623164,112,50,10,16,11,3,-10,-18,1025,39,1,20141114190000
790,Mudanjiang,,44.553619,129.640246,152,55,30,16,12,5,-10,-18,1025,39,1,20141114190000
791,"Mingzhu Plaza, Hefei",,31.782847,117.201512,180,108,37,49,34,10,8,3,1027,71,3,20141114190000
792,"Sanli Street, Hefei",,31.874637,117.312573,182,87,26,35,15,16,8,3,1027,71,3,20141114190000
793,"Hupo Compound, Hefei",,31.868583,117.264491,178,108,25,17,19,14,8,3,1027,71,3,20141114190000
794,"Dongpu Reservoir, Hefei",,31.90319,117.165584,187,108,32,10,12,6,8,3,1027,71,3,20141114190000
795,"Changjiang middle road, Hefei",,31.855185,117.255484,181,117,5,23,41,15,8,3,1027,71,3,20141114190000
796,"Luyang District, Hefei",,31.941771,117.271504,193,112,6,2,16,8,8,3,1027,71,3,20141114190000
797,"Yaohai District, Hefei",,31.856595,117.341644,184,110,19,25,9,15,8,3,1027,71,3,20141114190000
798,"Baohe District, Hefei",,31.793644,117.307554,183,141,7,11,14,8,8,3,1027,71,3,20141114190000
799,"Lake district, Hefei",,31.736619,117.283501,179,109,18,15,14,8,8,3,1027,71,3,20141114190000
800,"High-tech zone, Hefei",,31.849755,117.129624,185,152,12,19,17,16,8,3,1027,71,3,20141114190000
801,Hefei,,31.819449,117.232753,181,117,5,23,41,15,-,-,0,-,-,20141114190000
802,"Hudong Road No.4 Elementary School, Maanshan",,31.684121,118.511017,157,75,38,49,15,11,6,4,1027,87,2,20141114190000
803,"Tianping Garment Factory, Maanshan",,31.64197,118.488043,168,91,110,37,22,18,6,4,1027,87,2,20141114190000
804,"City education base, Maanshan",,31.711216,118.648913,159,69,6,6,12,8,6,4,1027,87,2,20141114190000
805,"Cihu No.2 elementary school, Maanshan",,31.748546,118.515729,160,81,33,36,41,25,6,4,1027,87,2,20141114190000
806,"Maanshan steel factory power plant, Maanshan",,31.690864,118.48528,164,77,86,11,2,12,6,4,1027,87,2,20141114190000
807,Maanshan,,31.668461,118.511939,168,91,110,49,41,25,6,4,1027,87,2,20141114190000
808,"Science Innovation Center, Wuhu",,31.417056,118.375406,180,87,15,14,7,14,6,4,1027,87,2,20141114190000
809,"No.4 Water Plant, Wuhu",,31.315914,118.376231,164,66,28,18,6,16,6,4,1027,87,2,20141114190000
810,"Monitoring station, Wuhu",,31.348955,118.358154,167,71,20,5,4,14,6,4,1027,87,2,20141114190000
811,"Wuqierling Factory, Wuhu",,31.382068,118.407639,183,92,28,11,7,10,6,4,1027,87,2,20141114190000
812,Wuhu,,31.351007,118.438322,183,66,28,18,7,16,6,4,1027,87,2,20141114190000
813,"Jiangxi Foreign Affairs Office, Nanchang",,28.678027,115.903436,153,61,7,5,1,10,12,6,1024,59,1,20141114190000
814,"Provincial forestry company, Nanchang",,28.69065,115.898546,157,68,9,4,5,9,12,6,1024,59,1,20141114190000
815,"Institute of Forestry, Nanchang",,28.731518,115.82478,80,54,24,11,1,11,12,6,1024,59,1,20141114190000
816,"Jingdong town government, Nanchang",,28.680659,115.972736,157,58,13,5,1,7,12,6,1024,59,1,20141114190000
817,"Contruction Industry College, Nanchang",,28.684018,115.865891,149,70,18,17,19,9,12,6,1024,59,1,20141114190000
818,"Xianghu, Nanchang",,28.637831,115.9033,153,62,16,26,16,11,12,6,1024,59,1,20141114190000
819,"Martial Arts School, Nanchang",,28.794538,115.752876,129,63,14,6,5,3,12,6,1024,59,1,20141114190000
820,"Petrifaction Company, Nanchang",,28.608634,115.912999,155,62,10,2,1,9,12,6,1024,59,1,20141114190000
821,"Provincial Station, Nanchang",,28.677155,115.941896,132,69,13,11,1,8,12,6,1024,59,1,20141114190000
822,Nanchang,,28.679883,115.863022,157,70,24,26,19,11,12,6,1024,59,1,20141114190000
939,Sanya,,18.251142,109.515993,104,55,36,5,1,8,22,20,1016,88,2,20141114190000
823,"Lushan Mountain Observatory, Jiujiang",,29.5751,115.998926,61,35,44,29,103,4,8,-2,1025,37,9,20141114190000
824,"Shili, Jiujiang",,29.668119,115.992381,159,71,15,20,29,11,9,4,1025,68,3,20141114190000
825,"Maoshantou, Jiujiang",,29.700819,115.967192,134,76,7,22,14,7,9,4,1025,68,3,20141114190000
826,"Xiyuan, Jiujiang",,29.723929,115.998206,132,89,13,21,12,1,9,4,1025,68,3,20141114190000
827,"Wuqierling Factory, Jiujiang",,29.640802,116.022713,151,86,21,30,155,7,8,-2,1025,37,9,20141114190000
828,"Water Scientific Research Institute, Jiujiang",,29.679179,116.068081,144,73,13,15,16,4,9,4,1025,68,3,20141114190000
829,"Zonghe Industrial Park, Jiujiang",,29.592047,115.916335,134,77,13,28,41,6,9,4,1025,68,3,20141114190000
830,"Petrochemical General Plant, Jiujiang",,29.738832,116.09463,124,63,18,17,14,8,9,4,1025,68,3,20141114190000
831,Jiujiang,,29.70254,116.007025,159,89,44,28,62,11,9,4,1025,68,3,20141114190000
1332,"Feiyu, Xinyu",,27.844697,115.000136,169,94,34,6,27,,17,,1025,45,5,20141114190000
1333,"Beigang, Xinyu",,27.932491,115.103767,170,123,28,13,38,,17,,1025,45,5,20141114190000
1334,"No.2 water factory, Xinyu",,27.839577,114.933915,177,119,13,17,21,,17,,1025,45,5,20141114190000
1335,"Bureau of Meteorology, Xinyu",,27.81048,114.936507,171,121,26,16,34,,17,,1025,45,5,20141114190000
1336,Xinyu,,27.814351,114.922194,177,123,34,18,38,,17,,1025,45,5,20141114190000
832,"Tobacco Factory, Zhengzhou",,34.753419,113.687131,227,123,15,41,14,9,8,4,1028,76,5,20141114190000
833,"Textile Machinery Factory, Zhengzhou",,34.773366,113.647067,189,151,10,24,16,19,8,4,1028,76,5,20141114190000
834,"Banking College, Zhengzhou",,34.800856,113.681126,182,130,8,23,18,14,8,4,1028,76,5,20141114190000
835,"Water Supply Company, Zhengzhou",,34.807188,113.571089,184,104,17,28,18,12,8,4,1028,76,5,20141114190000
836,"Economic Development Zone Management Committee, Zhengzhou",,34.717652,113.733182,207,126,10,24,11,11,8,4,1028,76,5,20141114190000
837,"No. 47 middle school, Zhengzhou",,34.772211,113.74009,200,112,13,29,15,14,8,4,1028,76,5,20141114190000
838,"City Monitoring Station, Zhengzhou",,34.748404,113.60514,183,136,24,34,9,16,8,4,1028,76,5,20141114190000
839,"Henan Medical University, Zhengzhou",,34.752637,113.641658,186,125,17,33,7,12,8,4,1028,76,5,20141114190000
840,"Gangli Reservoir, Zhengzhou",,34.952652,113.64248,182,97,12,19,13,14,8,4,1028,76,5,20141114190000
841,Zhengzhou,,34.745417,113.631415,186,125,17,33,7,12,-,-,0,-,-,20141114190000
842,"Henan University No.1 Hospital, Kaifeng",,34.799302,114.352706,234,130,8,25,9,9,8,4,1028,76,5,20141114190000
843,"Maternity And Child Hospital, Kaifeng",,34.795803,114.386103,190,111,17,33,16,12,8,4,1028,76,5,20141114190000
844,"Cancer Hospital, Kaifeng",,34.775428,114.350292,270,123,4,32,7,14,8,4,1028,76,5,20141114190000
845,"Yellow River Conservancy Institute, Kaifeng",,34.826066,114.324772,197,124,13,31,15,9,8,4,1028,76,5,20141114190000
846,"Shijixing Kindergarden, Kaifeng",,34.793606,114.302744,196,119,7,19,10,6,8,4,1028,76,5,20141114190000
847,Kaifeng,,34.796346,114.313426,234,130,8,25,9,9,8,4,1028,76,5,20141114190000
852,Jiaozuo,,35.215381,113.248188,180,125,20,42,51,12,8,4,1028,76,5,20141114190000
853,"Cotton Research Institute, Anyang",,36.081435,114.486451,196,96,6,20,22,10,7,2,1031,64,4,20141114190000
854,"Hongmiao Street, Anyang",,36.086733,114.326,13,6,,,,,7,2,1031,64,4,20141114190000
855,"Yinxing Compound, Anyang",,36.056519,114.36495,187,119,5,17,16,16,7,2,1031,64,4,20141114190000
856,"Tiefo Temple, Anyang",,36.110041,114.309309,165,107,2,25,26,16,7,2,1031,64,4,20141114190000
857,Anyang,,36.097767,114.398846,196,119,11,27,28,16,7,2,1031,64,4,20141114190000
858,"City Monitoring Station, Luoyang",,34.669055,112.439633,175,74,4,8,13,8,6,,1029,90,3,20141114190000
859,"BDA Management Committee, Luoyang",,34.622084,112.390759,164,71,8,17,9,9,6,,1029,90,3,20141114190000
860,"New municipal office, Luoyang",,34.623745,112.432973,178,103,8,12,14,13,6,,1029,90,3,20141114190000
861,"City committee communist party school, Luoyang",,34.650169,112.400212,168,82,5,12,10,7,6,,1029,90,3,20141114190000
862,"Henan Forestry College, Luoyang",,34.685566,112.509429,165,88,8,12,13,17,6,,1029,90,3,20141114190000
863,"CITIC No.2 Elementary School, Luoyang",,34.668212,112.36907,183,86,11,19,14,17,6,,1029,90,3,20141114190000
864,"Yuxi Hotel, Luoyang",,34.685949,112.472611,184,91,9,13,15,11,6,,1029,90,3,20141114190000
865,Luoyang,,34.617424,112.46054,184,103,11,19,15,17,6,,1029,90,3,20141114190000
