locationid,stationname,chinesename,latitude,longitude,pm25,pm10,o3,no2,so2,co,temperature,dewpoint,pressure,humidity,wind,est_time
134,Yantian,,22.587949,114.266899,78,48,34,20,5,11,28,24,1007,79,4,20140905170000
1,Dongcheng Dongsi,,39.9304,116.423239,197,109,108,18,9,11,23,20,1011,83,2,20140905170000
2,"Temple of Heaven, Dongcheng",,39.887403,116.41324,198,99,111,16,4,9,23,20,1011,83,2,20140905170000
3,West Park officials,,39.930333,116.345162,199,109,100,16,5,10,23,20,1011,83,2,20140905170000
4,West Wanshou Nishinomiya,,39.879354,116.358183,200,103,100,20,2,12,23,20,1011,83,2,20140905170000
5,Chaoyang Olympic Sports Center,,39.983406,116.403253,201,104,83,28,3,8,23,20,1011,83,2,20140905170000
6,Chaoyang Agricultural Exhibition Hall,,39.938331,116.46715,188,91,120,20,6,11,23,20,1011,83,2,20140905170000
7,Haidian Wanliu,,39.988245,116.293062,198,109,58,24,8,9,23,20,1011,83,2,20140905170000
8,The Haidian northern New Area,,40.091313,116.180194,189,89,41,21,2,7,23,20,1011,83,2,20140905170000
9,Haidian Beijing Botanical Garden,,40.003252,116.213097,214,108,93,12,5,7,23,20,1011,83,2,20140905170000
10,Fengtai garden,,39.86423,116.285037,197,104,116,18,8,10,23,20,1011,83,2,20140905170000
11,Fengtai Yungang,,39.82535,116.152237,194,113,68,10,2,9,23,20,1011,83,2,20140905170000
12,Shijingshan city,,39.915286,116.190144,220,116,103,21,2,9,23,20,1011,83,2,20140905170000
13,"Fangshan, Liangxiang",,39.743357,116.14225,188,87,69,12,2,11,23,20,1011,83,2,20140905170000
14,"Huangcunzhen, Daxing",,39.719389,116.410219,193,95,100,17,7,10,23,20,1011,83,2,20140905170000
15,BDA,,39.796197,116.51197,195,94,105,25,3,10,23,20,1011,83,2,20140905170000
16,Tongzhou New Town,,39.887113,116.6689,180,86,50,42,6,6,23,20,1011,83,2,20140905170000
17,Shunyi New Town ,,40.128111,116.660908,190,94,103,13,2,11,23,20,1011,83,2,20140905170000
18,Changping Town,,40.218245,116.236084,226,112,136,10,5,11,23,20,1011,83,2,20140905170000
19,"Mentougou, Longquan Town",,39.938397,116.112323,204,121,77,32,2,9,23,20,1011,83,2,20140905170000
20,Pinggu town,,40.144433,117.106563,173,75,104,7,4,11,23,20,1011,83,2,20140905170000
21,Huairou town,,40.329104,116.63387,186,107,120,14,3,11,23,20,1011,83,2,20140905170000
22,The town of Miyun,,40.371186,116.838053,181,92,128,8,4,11,23,20,1011,83,2,20140905170000
23,Yanqing town,,40.454217,115.978106,204,89,136,12,3,10,23,20,1011,83,2,20140905170000
24,Changping Dingling,,40.293269,116.226108,185,103,130,6,2,9,23,20,1011,83,2,20140905170000
25,Badaling Northwest,,40.36623,115.994146,229,113,94,33,8,10,23,20,1011,83,2,20140905170000
26,Miyun Reservoir,,40.500157,116.91701,174,81,160,1,3,11,23,20,1011,83,2,20140905170000
27,"Donggaocun Zhen, Pinggu",,40.10142,117.126556,160,70,108,11,4,7,23,20,1011,83,2,20140905170000
28,"Yongledianzhen, Tongzhou",,39.713192,116.78905,169,69,43,14,7,9,23,20,1011,83,2,20140905170000
29,"Yufazhen, Daxing",,39.521203,116.306026,184,90,77,4,2,10,23,20,1011,83,2,20140905170000
30,"Liulihezhen, Fangshan",,39.581169,116.006089,191,102,33,21,2,7,23,20,1011,83,2,20140905170000
31,"Qianmen E St, Dongcheng",,39.900402,116.401242,199,106,55,29,4,11,23,20,1011,83,2,20140905170000
32,Yongdingmen Inner St,,39.877401,116.400238,200,105,47,28,4,12,23,20,1011,83,2,20140905170000
33,Xizhimen N St,,39.955352,116.355187,200,115,63,32,2,11,23,20,1011,83,2,20140905170000
34,South Ring Road,,39.857377,116.37421,203,114,23,47,4,13,23,20,1011,83,2,20140905170000
35,East Fourth Ring Road,,39.940273,116.489075,195,107,30,43,7,13,23,20,1011,83,2,20140905170000
36,Beijing,,39.955906,116.474246,199,91,120,20,9,11,23,20,1011,83,2,20140905170000
37,Putuo,,31.232979,121.415378,138,58,54,7,5,5,25,22,1011,83,3,20140905170000
38,Yangpu Sipiao,,31.263795,121.540311,154,57,56,18,7,7,25,22,1011,83,4,20140905170000
39,Shanghai Normal College Primary Division,,31.199031,121.487719,156,59,47,15,4,12,25,22,1011,83,4,20140905170000
40,Dianshan Lake,,31.091338,120.982293,155,64,67,11,4,8,25,22,1011,83,4,20140905170000
41,Hongkou Liangcheng,,31.298906,121.47155,145,53,51,13,8,7,25,22,1011,83,4,20140905170000
42,Jingan,,31.224251,121.429637,151,57,48,11,5,9,25,22,1011,83,4,20140905170000
43,Shanghai Normal University,,31.163531,121.416643,156,64,61,15,5,9,25,22,1011,83,4,20140905170000
44,Chuansha,,31.188626,121.707342,127,51,48,17,5,6,25,22,1011,83,4,20140905170000
45,Zhangjiang,,31.204896,121.581215,117,53,50,8,3,7,25,22,1011,83,4,20140905170000
46,Lingshan Road,,31.226286,121.537317,134,53,60,9,4,6,25,22,1011,83,4,20140905170000
1080,City average,,31.228451,121.478227,148,56,50,13,5,7,25,22,1011,83,4,20140905170000
47,Shanghai,,31.202842,121.453493,156,59,48,15,5,12,25,22,1011,83,4,20140905170000
48,Guangzhou,,23.138517,113.263701,152,60,11,54,8,13,27,25,1008,89,1,20140905170000
49,"Huadu town, Guangzhou",,23.389121,113.220062,134,65,15,19,5,8,27,25,1008,89,1,20140905170000
50,"Luogang Zhenlong, Guangzhou",,23.308027,113.567032,97,51,21,16,4,9,27,25,1008,89,1,20140905170000
51,"LuHu, Guangzhou",,23.151743,113.281842,152,56,2,40,4,9,27,25,1008,89,1,20140905170000
52,"Tianhu, Guangzhou",,23.647433,113.629715,59,20,31,3,4,5,27,25,1008,89,1,20140905170000
53,"Zhudong, Guangzhou",,23.418406,113.078552,87,45,40,19,6,8,27,25,1008,89,1,20140905170000
54,"Modiesha station, Guangzhou",,23.103814,113.338238,109,90,4,46,14,9,27,25,1008,89,1,20140905170000
55,Zhuhai,,22.2677,113.581765,104,67,30,44,32,14,29,26,1007,84,4,20140905170000
1075,"Huicai technical school, Foshan",,23.039667,113.105492,99,45,20,41,22,9,27,25,1008,89,1,20140905170000
56,"Sanshuiyun donghai, Foshan",,23.185788,112.865368,157,72,26,29,53,9,27,25,1008,89,1,20140905170000
57,"Nanhai Bureau of Meteorology, Foshan",,23.046836,113.145764,107,53,16,35,17,13,27,25,1008,89,1,20140905170000
58,"Sanshui Monitoring Station, Foshan",,23.163551,112.890843,129,59,25,33,33,9,27,25,1008,89,1,20140905170000
1087,Foshan,,23.018995,113.126899,107,53,20,44,28,13,27,25,1008,89,1,20140905170000
59,"Ronggui street committee, Shunde",,22.762729,113.258356,155,66,18,51,21,12,27,25,1008,89,1,20140905170000
60,Shunde,,22.80246,113.298701,155,66,18,51,21,12,-,-,0,-,-,20140905170000
61,"Donghu, Jiangmen",,22.590411,113.087351,147,68,6,49,22,6,29,26,1007,84,4,20140905170000
62,"Taoyuan Atmosphere Premier Station, Jiangmen",,22.72489,112.93404,127,57,14,12,10,6,29,26,1007,84,4,20140905170000
63,Jiangmen,,22.576047,113.087351,147,68,14,54,27,16,29,26,1007,84,4,20140905170000
64,"Kengkouzi station, Zhaoqing",,23.158865,112.570287,91,41,47,10,6,7,27,25,1008,89,1,20140905170000
65,"Mugangzi station, Zhaoqing",,23.067961,112.431934,102,44,42,16,5,8,27,25,1008,89,1,20140905170000
66,"Qixingyanzi station, Zhaoqing",,23.075974,112.477437,-,-,-,-,-,-,-,-,0,-,-,20140905170000
67,Zhaoqing,,23.044571,112.470346,156,78,42,23,14,9,-,-,0,-,-,20140905170000
68,"Jinguo Bay, Huizhou",,22.937223,114.385567,-,-,-,-,-,-,-,-,0,-,-,20140905170000
1091,"Xiabu, Huizhou",,23.077493,114.410275,61,21,25,10,4,4,28,24,1007,79,4,20140905170000
69,"Xijiao, Huizhou",,23.338178,114.112867,61,17,22,8,2,3,28,24,1007,79,4,20140905170000
70,"Jiangbei, Huizhou",,23.111706,114.415274,53,34,21,16,6,3,28,24,1007,79,4,20140905170000
71,"Huiyang chuanhu, Huizhou",,22.814485,114.329292,95,50,27,10,5,7,28,24,1007,79,4,20140905170000
72,"Daya bay management committee, Huizhou",,22.739283,114.53631,91,48,31,20,7,4,28,24,1007,79,4,20140905170000
73,Huizhou,,23.109349,114.421164,61,34,25,10,6,5,28,24,1007,79,4,20140905170000
74,"Guancheng No.2 water plant, Dongguan",,23.057294,113.753254,114,60,15,25,12,12,28,24,1007,79,4,20140905170000
75,"Dongcheng Shijing, Dongguan",,23.010039,113.799529,102,50,9,17,5,9,28,24,1007,79,4,20140905170000
76,"Nancheng Xiping, Dongguan",,22.963051,113.743494,132,58,7,35,8,11,28,24,1007,79,4,20140905170000
77,"Nancheng Yuanling, Dongguan",,23.025058,113.751308,122,51,19,18,13,8,28,24,1007,79,4,20140905170000
78,Dongguan,,23.017813,113.756958,132,60,19,35,13,11,28,24,1007,79,4,20140905170000
79,"Zimaling, Zhongshan",,22.505112,113.407183,95,54,16,30,9,8,29,26,1007,84,4,20140905170000
80,"Yangtze River tourist area, Zhongshan",,22.48589,113.439054,63,28,22,5,2,6,29,26,1007,84,4,20140905170000
81,"Huabai Park, Zhongshan",,22.51839,113.374362,117,56,14,41,5,13,29,26,1007,84,4,20140905170000
82,Zhongshan,,22.513997,113.398277,117,56,22,41,9,13,29,26,1007,84,4,20140905170000
83,"No.8 middle school, Shaoguan",,24.767777,113.583537,76,34,21,12,24,12,23,22,1010,98,2,20140905170000
83,"No.8 middle school, Shaoguan",,24.767777,113.583537,76,34,21,12,24,12,23,22,1010,98,2,20140905170000
84,"Forest area, Shaoguan",,24.796106,113.612131,85,47,26,15,46,14,23,22,1010,98,2,20140905170000
84,"Forest area, Shaoguan",,24.796107,113.612131,85,47,26,15,46,14,23,22,1010,98,2,20140905170000
86,"Shaoguan University, Shaoguan",,24.790864,113.646598,-,-,-,-,-,-,-,-,0,-,-,20140905170000
86,"Shaoguan University, Shaoguan",,24.790864,113.646599,-,-,-,-,-,-,-,-,0,-,-,20140905170000
88,"Qujiang Monitoring Station, Shaoguan",,24.683042,113.60157,89,92,15,19,9,18,23,22,1010,98,2,20140905170000
88,"Qujiang Monitoring Station, Shaoguan",,24.683042,113.60157,89,92,15,19,9,18,23,22,1010,98,2,20140905170000
89,Shaoguan,,24.807342,113.602712,85,92,26,24,46,14,23,22,1010,98,2,20140905170000
90,"Chaonanzi Station, Shantou",,23.251213,116.406762,151,85,38,12,11,11,28,25,1008,84,2,20140905170000
91,Shantou,,23.350642,116.686306,124,60,47,9,15,13,28,25,1008,84,2,20140905170000
92,"City Environmental Monitoring Station, Zhanjiang",,21.220431,110.397317,70,20,32,1,3,3,28,25,1007,81,2,20140905170000
93,"EPB Dormitory, Zhanjiang",,21.197376,110.406487,72,24,20,8,3,7,28,25,1007,81,2,20140905170000
94,"Xiashan Swimming Park, Zhanjiang",,21.200431,110.415655,61,30,36,8,8,7,28,25,1007,81,2,20140905170000
95,"Zhanjiang Theatre, Zhanjiang",,21.268177,110.366445,80,39,39,7,4,6,28,25,1007,81,2,20140905170000
96,"Mazhang EPA, Zhanjiang",,21.265486,110.335993,74,27,38,7,3,4,28,25,1007,81,2,20140905170000
97,"Potou District EPB, Zhanjiang",,21.247604,110.454508,46,37,42,5,3,7,28,25,1007,81,2,20140905170000
98,Zhanjiang,,21.26832,110.363883,80,39,42,9,8,7,28,25,1007,81,2,20140905170000
99,"Maogang sub-office EPB, Maoming",,21.466435,111.033462,99,48,33,3,6,4,27,24,0,85,2,20140905170000
100,"Petrochemical No. 7 elementaty school, Maoming",,21.648905,110.937861,82,38,31,5,3,10,27,24,0,84,2,20140905170000
101,"Jiankang road, Maoming",,21.662211,110.909482,91,43,19,11,5,11,27,24,0,84,2,20140905170000
102,"Gaoling, Maoming",,21.690558,110.871146,95,40,21,8,7,10,27,24,0,85,2,20140905170000
1094,Maoming,,21.660223,110.929968,95,43,31,11,7,11,27,24,0,84,2,20140905170000
103,"Jiaying University, Meizhou",,24.325415,116.12816,59,21,31,2,3,8,28,25,1008,84,2,20140905170000
104,"Mexian new town, Meizhou",,24.269283,116.084546,63,28,32,10,4,9,28,25,1008,84,2,20140905170000
105,"Environmental Monitoring Center, Meizhou",,24.262778,116.129621,57,34,29,8,4,9,28,25,1008,84,2,20140905170000
1095,Meizhou,,24.285988,116.127065,63,34,32,10,4,9,28,25,1008,84,2,20140905170000
106,"City EPA, Shanwei",,22.772349,115.370227,124,51,57,5,5,12,28,25,1008,79,2,20140905170000
107,"City government, Shanwei",,22.787161,115.375536,134,66,51,8,6,10,28,25,1008,79,2,20140905170000
108,"Xincheng Middle School, Shanwei",,22.789851,115.367124,139,56,44,8,5,8,28,25,1008,79,2,20140905170000
1099,Shanwei,,22.783576,115.38022,139,56,57,8,5,12,28,25,1008,79,2,20140905170000
109,"No.3 elementary school, Heyuan",,23.755946,114.699091,50,11,21,21,8,8,25,24,1009,89,1,20140905170000
109,"No.3 elementary school, Heyuan",,23.75435,114.703514,50,11,21,21,8,8,25,24,1009,89,1,20140905170000
111,"City water company, Heyuan",,23.754246,114.682459,80,31,20,20,7,7,25,24,1009,89,1,20140905170000
111,"City water company, Heyuan",,23.688709,114.954652,80,31,20,20,7,7,25,24,1009,89,1,20140905170000
113,"Heyuan high school, Heyuan",,23.720037,114.699563,76,35,20,14,14,8,25,24,1009,89,1,20140905170000
113,"Heyuan high school, Heyuan",,23.720666,114.693879,76,35,20,14,14,8,25,24,1009,89,1,20140905170000
115,Heyuan,,23.740888,114.705147,80,31,21,20,8,8,25,24,1009,89,1,20140905170000
116,"Yuanyang Lake, Yangjiang",,21.855869,111.983676,91,41,35,8,5,11,26,24,1008,80,3,20140905170000
1100,Yangjiang,,21.855227,111.987308,93,44,39,11,3,10,26,24,1008,80,3,20140905170000
118,"Town governement, Qingyuan",,23.708005,113.026215,107,54,39,22,4,12,27,25,1008,89,1,20140905170000
119,"Fupin district, Qingyuan",,23.624781,113.067713,104,35,31,19,33,9,27,25,1008,89,1,20140905170000
119,"Fupin district, Qingyuan",,24.185415,113.419369,104,35,31,19,33,9,27,25,1008,89,1,20140905170000
121,"Environment protection office, Qingyuan",,23.691109,113.047948,89,46,34,8,5,11,27,25,1008,89,1,20140905170000
121,"Environment protection office, Qingyuan",,23.685931,113.053239,89,46,34,8,5,11,27,25,1008,89,1,20140905170000
123,"Fengcheng Subdistrict, Qingyuan",,23.695447,113.068189,107,37,39,15,4,12,27,25,1008,89,1,20140905170000
124,Qingyuan,,23.679304,113.061513,107,54,39,22,33,12,27,25,1008,89,1,20140905170000
125,"Xiyuan Road, Chaozhou",,23.668654,116.638272,87,50,39,3,5,11,28,25,1008,84,2,20140905170000
126,"Archives Bureau, Chaozhou",,23.667881,116.649104,97,41,38,9,4,9,28,25,1008,84,2,20140905170000
127,"Municipal Corporation, Chaozhou",,23.65035,116.621859,99,61,41,7,9,12,28,25,1008,84,2,20140905170000
1101,Chaozhou,,23.654204,116.626969,99,61,41,12,9,11,28,25,1008,84,2,20140905170000
128,"Donghu Park, Jieyang",,23.532877,116.374427,107,45,35,2,12,9,28,25,1008,84,2,20140905170000
129,"Yuhu Middle School, Jieyang",,23.52682,116.414123,119,52,37,12,19,10,28,25,1008,84,2,20140905170000
130,"Experimental Primary School, Jieyang",,23.571473,116.364137,112,51,36,12,17,9,28,25,1008,84,2,20140905170000
1102,Jieyang,,23.547596,116.37754,119,52,37,12,19,11,28,25,1008,84,2,20140905170000
131,"City Environmental Monitoring Station, Yunfu",,22.936779,112.042248,127,65,11,19,13,13,27,25,1008,89,1,20140905170000
132,"The new city government headquarters, Yunfu",,22.914275,112.044475,89,42,17,10,4,14,27,25,1008,89,1,20140905170000
133,"Muyang police sub-station, Yunfu",,22.951267,112.05923,162,64,13,18,17,13,27,25,1008,89,1,20140905170000
1103,Yunfu,,22.912436,112.049811,162,65,17,19,17,14,27,25,1008,89,1,20140905170000
135,Kwai Chung,,22.572837,113.867166,151,62,14,44,2,18,28,24,1007,79,4,20140905170000
135,Kwai Chung,,22.627947,114.428875,151,62,14,44,2,18,28,24,1007,79,4,20140905170000
135,Kwai Chung,,22.354168,114.134558,151,62,14,44,2,18,28,24,1007,79,4,20140905170000
137,Nanyou,,22.513802,113.928051,122,90,28,37,7,13,28,24,1007,79,4,20140905170000
138,Meisha,,22.59611,114.318345,95,41,29,10,2,11,28,24,1007,79,4,20140905170000
139,Xi xiang,,22.717524,114.252304,137,55,20,22,5,14,28,24,1007,79,4,20140905170000
140,Liyuan,,22.54732,114.101205,104,52,18,16,3,12,28,24,1007,79,4,20140905170000
1072,Kwai Chung,,22.572837,113.867166,91,58,23,20,2,9,28,24,1007,79,4,20140905170000
1072,Kwai Chung,,22.627947,114.428875,91,58,23,20,2,9,28,24,1007,79,4,20140905170000
1072,Kwai Chung,,22.354168,114.134558,91,58,23,20,2,9,28,24,1007,79,4,20140905170000
141,OCT,,22.539549,113.992458,127,70,11,41,3,12,28,24,1007,79,4,20140905170000
142,Honghu,,22.559647,114.121976,89,47,24,28,3,11,28,24,1007,79,4,20140905170000
143,Mission Hills,,22.694131,114.050496,132,74,14,30,4,9,28,24,1007,79,3,20140905170000
144,Shenzhen,,22.540382,114.062982,151,90,34,44,7,18,-,-,0,-,-,20140905170000
145,Chengdu,,30.622581,104.069564,161,68,25,49,6,9,22,20,1009,88,0,20140905170000
146,"Jinquan lianghe, Chengdu",,30.710359,103.974209,151,69,12,32,3,11,22,20,1010,88,0,20140905170000
147,"Shilidian, Chengdu",,30.684718,104.17845,163,94,18,44,8,8,22,20,1010,88,0,20140905170000
148,"Sanwayao, Chengdu",,30.568159,104.081524,159,89,11,42,4,9,22,20,1010,88,0,20140905170000
149,"Shahepu, Chengdu",,30.633685,104.120536,162,90,11,42,4,11,22,20,1010,88,0,20140905170000
150,"Liang Lane, Chengdu",,30.682601,104.076522,151,67,25,49,6,8,22,20,1010,88,0,20140905170000
151,"Caotang Temple, Chengdu",,30.651891,104.0284,151,68,18,43,4,9,22,20,1010,88,0,20140905170000
152,"Lingyansi, Chengdu",,31.025729,103.615022,117,60,40,7,4,3,22,20,1010,88,0,20140905170000
153,"Fuleshan, Mianyang",,31.472493,104.7806,149,58,21,23,6,9,24,20,1007,73,2,20140905170000
154,"High-tech Zone Water Company, Mianyang",,31.463309,104.674293,172,80,25,31,12,9,24,20,1007,73,2,20140905170000
155,"No.3 water company, Mianyang",,31.505002,104.731054,159,71,18,36,8,6,24,20,1007,73,2,20140905170000
156,Mianyang,,31.465174,104.681731,172,80,25,43,12,11,24,20,1007,73,2,20140905170000
157,"Dongshan Park, Deyang",,31.118648,104.424587,154,68,23,9,7,8,22,20,1010,88,0,20140905170000
158,"Xixiaoqu, Deyang",,31.131159,104.390972,158,72,21,12,28,12,22,20,1010,88,0,20140905170000
159,"City Procuratorate, Deyang",,31.114554,104.407986,167,75,23,22,18,13,22,20,1010,88,0,20140905170000
160,"Refractory Factory, Deyang",,31.108606,104.356506,178,108,11,16,17,6,22,20,1010,88,0,20140905170000
161,Deyang,,31.124715,104.400703,178,108,23,22,28,13,22,20,1010,88,0,20140905170000
162,"Nongnongping, Panzhihua",,26.566698,101.695438,78,35,17,20,2,9,23,16,0,59,2,20140905170000
163,"Hemenkou, Panzhihua",,26.589072,101.578312,97,39,22,11,5,13,23,16,0,59,2,20140905170000
164,"Bingcaogang, Panzhihua",,26.58143,101.718473,63,43,4,26,15,7,23,16,0,59,2,20140905170000
165,"Renhe, Panzhihua",,26.498166,101.746887,42,29,9,8,5,7,23,16,0,59,2,20140905170000
166,"Jinjina, Panzhihua",,26.553226,101.84862,74,57,16,8,54,7,23,16,0,59,2,20140905170000
167,Panzhihua,,26.578779,101.720211,97,57,22,26,15,13,23,16,0,59,2,20140905170000
168,"Shima Middle School, Yibin",,28.815979,104.599199,153,78,25,12,10,8,24,21,1008,76,0,20140905170000
169,"Municipal party committee, Yibin",,28.762654,104.624834,156,63,21,18,18,10,24,21,1008,76,0,20140905170000
170,"No. 4 middle school, Yibin",,28.783257,104.608407,168,81,19,25,19,7,24,21,1008,76,0,20140905170000
171,"City government, Yibin",,28.760477,104.644079,151,78,25,15,8,8,24,21,1008,76,0,20140905170000
172,"Huangjinzui, Yibin",,28.712319,104.578389,172,69,24,14,15,9,24,21,1008,76,0,20140905170000
173,"Shaping Middle School, Yibin",,28.795569,104.681393,134,56,24,22,11,9,24,21,1008,76,0,20140905170000
174,Yibin,,28.748384,104.645766,172,81,25,25,19,10,24,21,1008,76,0,20140905170000
175,"Datang Hill, Zigong",,29.359969,104.757388,174,58,21,9,7,5,24,20,1001,75,2,20140905170000
176,"Yanma Road, Zigong",,29.355752,104.724036,169,95,20,8,13,7,24,20,1001,75,2,20140905170000
177,"Tanmulin Street, Zigong",,29.353555,104.777397,155,70,25,6,6,5,24,20,1001,75,2,20140905170000
178,"Chunhua Road, Zigong",,29.33825,104.771895,162,69,20,16,6,8,24,20,1001,75,2,20140905170000
179,Zigong,,29.33617,104.781138,174,95,25,16,13,8,24,20,1001,75,2,20140905170000
180,"Jiushi Hill, Luzhou",,28.955347,105.434207,104,56,45,1,1,4,24,20,1001,77,1,20140905170000
181,"Xiaoshishang Port, Luzhou",,28.899583,105.447192,154,71,42,36,6,9,24,20,1001,77,1,20140905170000
182,"Lantianxian Bridge, Luzhou",,28.852766,105.4358,134,66,43,26,3,4,24,20,1001,77,1,20140905170000
183,"City Environment Monitoring Station, Luzhou",,28.895898,105.435802,142,68,30,45,16,8,24,20,1001,77,1,20140905170000
184,Luzhou,,28.868782,105.445938,154,71,45,45,16,9,24,20,1001,77,1,20140905170000
185,"City Committee, Nanchong",,30.799993,106.082906,139,68,15,6,4,5,23,22,1007,88,1,20140905170000
186,"Refinery Factory, Nanchong",,30.819412,106.10712,159,90,26,27,15,4,23,22,1007,88,1,20140905170000
187,"Gaoping District Monitoring Station, Nanchong",,30.783291,106.110417,178,107,16,23,13,8,23,22,1007,88,1,20140905170000
188,"Jialing District EPB, Nanchong",,30.761255,106.06818,154,78,11,29,14,7,23,22,1007,88,1,20140905170000
189,"City Environmental Monitoring Station, Nanchong",,30.836519,106.11272,159,81,14,33,19,3,23,22,1007,88,1,20140905170000
190,Nanchong,,30.835511,106.114717,178,107,26,33,19,8,23,22,1007,88,1,20140905170000
1249,"City Monitoring Station, Neijiang",,29.592673,105.036234,159,86,35,13,10,6,24,19,1001,74,1,20140905170000
1250,"Dongxing District Government , Neijiang",,29.592148,105.074966,168,81,35,21,10,4,24,19,1001,74,1,20140905170000
1251,"No 2 middle school, Neijiang",,29.579135,105.068548,170,93,40,16,9,7,24,19,1001,74,1,20140905170000
1252,Neijiang,,29.577653,105.06166,182,93,40,21,12,7,24,19,1001,74,1,20140905170000
1253,"City Monitoring Station, Suining",,30.610641,105.683583,174,105,34,22,3,6,23,18,0,71,1,20140905170000
1254,"Administrative center , Suining",,30.63206,105.819747,167,95,28,12,1,30,23,18,0,71,1,20140905170000
1255,Suining,,30.530053,105.596307,174,166,34,59,6,30,23,18,0,71,1,20140905170000
1256,"City Monitoring Station, Leshan",,29.560651,103.759211,173,98,12,22,13,14,23,19,0,80,0,20140905170000
1257,"Leshan Giant Buddha Scenic Area , Leshan",,29.543938,103.772706,170,82,26,31,11,15,23,19,0,80,0,20140905170000
1258,Leshan,,29.54935,103.767777,177,99,26,31,18,15,23,19,0,80,0,20140905170000
1259,"Heilongtan , Meishan",,30.047726,103.900649,181,95,31,6,3,7,22,20,1010,88,0,20140905170000
1260,"Bureau of Meteorology, Meishan",,30.084591,103.843715,196,104,30,17,8,8,22,20,1010,88,0,20140905170000
1261,"Xuguang Community , Meishan",,30.066277,103.8516,214,121,30,19,7,6,22,20,1010,88,0,20140905170000
1262,"City Monitoring Station, Meishan",,30.059205,103.836229,190,114,30,15,5,8,22,20,1010,88,0,20140905170000
1263,Meishan,,30.072618,103.85064,214,121,31,19,8,8,22,20,1010,88,0,20140905170000
1264,"Ziyang middle school, Ziyang",,30.147763,104.638024,95,58,33,7,19,8,24,19,1001,74,1,20140905170000
1265,Ziyang,,30.126054,104.63004,144,85,40,22,35,13,24,19,1001,74,1,20140905170000
191,Shenyang US Consulate,,41.785668,123.432865,156,84,24,61,14,3,17,14,1012,82,3,20140905170000
192,"Huishan, Shenyang",,41.835421,123.647773,76,48,24,9,2,3,17,14,1012,82,3,20140905170000
193,"Hunnan, Shenyang",,41.758263,123.540809,155,74,37,43,13,7,17,14,1012,82,3,20140905170000
194,"Zhangshi, Shenyang",,41.771679,123.289859,-,-,-,-,-,-,-,-,0,-,-,20140905170000
195,"Artillery College, Shenyang",,41.835749,123.547799,59,59,25,26,4,4,17,14,1012,82,3,20140905170000
196,"Beiling, Shenyang",,41.849633,123.434146,153,99,10,41,10,8,17,13,1012,77,2,20140905170000
197,"Wenyi Road, Shenyang",,41.767444,123.416144,161,84,47,61,14,9,17,14,1012,82,3,20140905170000
198,"Xiaoheyan, Shenyang",,41.779828,123.484015,154,92,35,39,6,9,17,13,1012,77,2,20140905170000
199,"Taiyuan Street, Shenyang",,41.799646,123.406146,154,77,14,52,6,9,17,14,1012,82,3,20140905170000
200,"Ermao, Shenyang",,41.783011,123.366679,165,100,54,82,15,11,17,14,1012,82,3,20140905170000
201,"Liaoning University, Shenyang",,41.830704,123.361071,144,87,13,31,7,5,17,14,1012,82,3,20140905170000
202,Shenyang,,41.808126,123.437611,156,128,16,61,14,9,17,14,1012,82,3,20140905170000
1104,"wenhua street, Shenyang , Shenyang",,41.774139,123.441839,161,84,40,61,14,9,17,14,1012,82,3,20140905170000
1105,"Tanglin Road , Shenyang , Shenyang",,41.823665,123.562317,76,69,18,29,4,4,17,13,1012,77,2,20140905170000
203,"Ganjingzi, Dalian",,38.9747,121.616893,256,160,101,23,2,8,21,19,1012,88,1,20140905170000
204,"Zhoushuizi, Dalian",,38.951928,121.569981,184,90,88,17,7,17,22,19,1012,83,0,20140905170000
205,"Xinghai No 3 station, Dalian",,38.885779,121.568864,182,77,111,6,5,9,21,19,1012,88,1,20140905170000
206,"Qingniwa Bridge, Dalian",,38.91274,121.638018,163,75,128,23,4,11,21,19,1012,88,1,20140905170000
207,"Fujiazhuang, Dalian",,38.864647,121.629947,154,108,49,4,17,10,21,19,1012,88,1,20140905170000
208,"Qixianling, Dalian",,38.856978,121.523169,166,77,162,10,2,17,22,19,1012,83,0,20140905170000
209,"Lushun, Dalian",,38.808946,121.264063,179,155,42,17,6,9,21,19,1012,88,1,20140905170000
210,"Jinzhou, Dalian",,39.132192,121.753259,169,104,22,18,3,6,21,19,1012,88,1,20140905170000
211,"BDA, Dalian",,39.05213,121.782022,167,77,28,16,2,9,21,19,1012,88,1,20140905170000
212,"D&D Port, Dalian",,39.064087,121.981874,161,66,13,6,1,9,21,19,1012,88,1,20140905170000
213,Dalian,,38.91478,121.619625,163,108,128,23,17,11,-,-,0,-,-,20140905170000
214,"Bearing Factory, Dandong",,40.068929,124.345703,102,74,15,19,13,15,18,16,1013,83,1,20140905170000
215,"Financial school, Dandong",,40.158723,124.432593,80,40,20,12,7,8,18,16,1013,83,1,20140905170000
216,"Yuanbaoshan water, Dandong",,40.149431,124.391698,68,54,24,20,12,6,18,16,1013,83,1,20140905170000
217,"Experimental Primary School, Dandong",,39.887343,124.158056,80,52,15,25,6,25,18,16,1013,83,1,20140905170000
218,Dandong,,40.002046,124.360479,104,76,10,19,13,15,18,16,1013,83,1,20140905170000
1106,"minzhu bridge, Dandong , Dandong",,40.112974,124.373604,80,52,15,25,6,25,18,16,1013,83,1,20140905170000
1107,"yuanbaoshan, Dandong , Dandong",,40.146298,124.399081,68,54,24,20,12,6,18,16,1013,83,1,20140905170000
1108,"linjiang houjie, Dandong , Dandong",,40.152757,124.431745,80,40,20,12,7,8,18,16,1013,83,1,20140905170000
219,"BDA, Panjin",,41.157144,122.06645,97,79,16,33,6,17,14,11,0,79,1,20140905170000
220,"Xinglongtai, Panjin",,41.140948,122.111343,102,60,11,26,21,10,13,11,0,83,1,20140905170000
221,"Dingxiang, Panjin",,41.16139,121.928781,55,20,36,7,8,7,14,11,0,79,1,20140905170000
222,Panjin,,41.122089,122.076206,97,79,36,33,15,17,14,11,0,79,1,20140905170000
223,"No.3 water company, Yingkou",,40.682052,122.385352,72,51,30,32,10,9,20,14,1012,62,1,20140905170000
224,"Yingkou University, Yingkou",,40.683689,122.388285,109,55,27,35,9,10,20,14,1012,62,1,20140905170000
225,"Botanical garden, Yingkou",,40.711674,122.281568,151,65,22,44,9,12,20,14,1012,62,1,20140905170000
226,Yingkou,,40.668578,122.24059,151,65,30,44,14,12,20,14,1012,62,1,20140905170000
1109,"jinghu west street, Yingkou , Yingkou",,40.653831,122.221943,72,57,25,28,6,10,20,14,1012,62,1,20140905170000
1110,"Daqing Road , Yingkou , Yingkou",,40.709181,122.28243,151,65,22,44,9,12,20,14,1012,62,1,20140905170000
227,"Xishanpo, Huludao",,40.724078,120.921974,127,69,28,40,10,5,14,11,0,79,1,20140905170000
228,"Huagong hospital, Huludao",,40.755662,120.848435,117,80,15,32,8,10,14,11,0,79,1,20140905170000
229,"New district park, Huludao",,40.723415,120.853801,76,80,9,27,4,11,14,11,0,79,1,20140905170000
230,"Lianshan district governement, Huludao",,40.775488,120.872292,63,66,20,39,13,8,14,11,0,79,1,20140905170000
231,Huludao,,40.712501,120.842107,127,80,28,40,13,11,20,14,0,58,0,20140905170000
1111,"Dongcheng District , Huludao , Huludao",,40.775362,120.871706,63,66,20,39,13,7,,,0,,,20140905170000
1112,"huagong street, Huludao , Huludao",,40.758901,120.842935,117,80,15,32,8,10,,,0,,,20140905170000
232,Anshan,,41.110466,123.000147,114,63,23,37,34,16,17,13,1012,77,2,20140905170000
233,"Qianshan Park, Anshan",,41.033486,123.143897,76,37,24,6,8,6,17,13,1012,77,2,20140905170000
234,"Tiexi, Anshan",,41.121636,122.97506,144,82,17,36,24,14,17,13,1012,77,2,20140905170000
235,"Taiping Station, Anshan",,41.153322,123.052433,85,56,20,10,9,12,17,13,1012,77,2,20140905170000
236,"Central Station, Anshan",,41.106731,123.002736,89,59,34,11,17,13,17,13,1012,77,2,20140905170000
237,"Shengou Temple, Anshan",,41.137157,123.031901,80,46,26,10,7,9,17,13,1012,77,2,20140905170000
1113,"Qianshan , Anshan , Anshan",,41.014521,123.122538,70,35,22,6,8,6,17,13,1012,77,2,20140905170000
1114,"Tiexi Sandao jie, Anshan",,41.103264,122.978613,144,82,13,35,21,14,17,13,1012,77,2,20140905170000
1115,"Taiyang, Anshan",,41.094946,123.019037,93,60,33,12,17,11,17,13,1012,77,2,20140905170000
238,Fushun,,41.883028,123.962984,82,70,11,26,11,12,17,13,1012,77,2,20140905170000
239,"Shenfu new town, Fushun",,41.804638,123.631684,134,69,23,31,5,6,17,14,1012,82,3,20140905170000
240,"Reservoir, Fushun",,41.8464,123.802857,80,36,41,11,9,7,17,14,1012,82,3,20140905170000
241,"Train Station, Fushun",,41.89726,124.017604,109,62,21,15,10,9,17,14,1012,82,3,20140905170000
242,"Dongzhou, Fushun",,41.855578,124.044738,53,33,35,3,1,6,17,14,1012,82,3,20140905170000
243,"Xinhua, Fushun",,41.888598,123.932932,87,70,18,28,10,12,17,14,1012,82,3,20140905170000
244,"Wanghua, Fushun",,41.888825,123.093723,153,94,29,35,12,16,17,14,1012,82,3,20140905170000
245,Benxi,,41.296267,123.772371,157,111,10,21,13,18,17,13,1012,77,2,20140905170000
246,"Weining, Benxi",,41.349663,123.826071,-,-,-,-,-,-,-,-,0,-,-,20140905170000
247,"Occupational disease hospital, Benxi",,41.305432,123.74645,91,51,11,21,10,13,17,14,1012,82,3,20140905170000
248,"Dongming, Benxi",,41.292369,123.765058,124,51,17,22,14,17,17,14,1012,82,3,20140905170000
249,"Caitun, Benxi",,41.301591,123.746039,157,111,8,18,2,18,17,13,1012,77,2,20140905170000
250,"Xihu, Benxi",,41.331332,123.773537,294,174,16,25,8,11,17,14,1012,82,3,20140905170000
251,"Dayu, Benxi",,41.308091,123.818442,112,50,10,16,13,14,17,13,1012,77,2,20140905170000
1116,"Xinlitun , Benxi , Benxi",,41.264104,123.811523,85,49,8,21,8,12,17,13,1012,77,2,20140905170000
252,Jinzhou,,41.097169,121.132647,112,68,16,35,16,7,20,14,1012,58,0,20140905170000
253,"Beihu Park, Jinzhou",,41.141447,121.137339,119,80,17,33,21,8,20,14,1012,58,0,20140905170000
254,"Monitoring station, Jinzhou",,41.113441,121.140911,127,89,21,35,17,6,20,14,1012,58,0,20140905170000
255,"Nanshan, Jinzhou",,41.570689,122.046753,139,66,10,22,6,7,20,14,1012,58,0,20140905170000
1118,"BDA, Jinzhou",,40.853915,121.061756,162,98,13,44,14,8,20,14,1012,58,0,20140905170000
1119,"tianan street, Jinzhou , Jinzhou",,41.124468,121.126119,112,68,16,35,16,7,20,14,1012,58,0,20140905170000
1120,"baigu street, Jinzhou, Jinzhou",,41.12214,121.21027,70,52,10,16,6,6,20,14,1012,58,0,20140905170000
1121,Chaoyang,,41.576022,120.456053,82,56,30,32,6,10,-,-,0,-,-,20140905170000
472,"Fukang road, Tianjin",,39.098136,117.157621,163,67,18,1,12,8,22,19,1011,83,1,20140905170000
1122,"Agricultural Area, Chaoyang",,43.93968,125.247371,70,33,5,8,5,6,22,11,1011,40,3,20140905170000
1123,Tieling,,42.225197,123.732174,80,53,24,16,15,6,-,-,0,-,-,20140905170000
260,"Waterpark, Tieling",,42.297031,123.880748,70,40,11,15,9,6,17,13,1012,77,2,20140905170000
1124,"Huigong Street West , Tieling , Tieling",,42.311115,123.845614,80,53,20,16,15,5,17,13,1012,77,2,20140905170000
1125,Liaoyang,,41.269312,123.24268,142,92,26,17,10,23,-,-,0,-,-,20140905170000
1126,"Riverside Road , Liaoyang , Liaoyang",,41.176884,123.419859,87,56,15,14,2,7,17,13,1012,77,2,20140905170000
1127,Fuxin,,42.02373,121.675733,99,71,21,27,11,8,-,-,0,-,-,20140905170000
266,"Agricultural Area, Fuxin",,42.071291,121.696445,68,65,13,17,9,6,14,9,0,74,2,20140905170000
267,"Industrial Area, Fuxin",,42.041052,121.715554,85,71,22,22,7,8,14,9,0,74,2,20140905170000
1128,"Yulong Metro , Fuxin , Fuxin",,42.035091,121.666531,78,58,35,21,8,8,14,9,0,74,2,20140905170000
268,"City Monitoring Station, Jinan",,36.662614,117.054645,190,139,57,41,32,9,22,16,1011,63,1,20140905170000
269,"Shandong Institute of Economics, Jinan",,36.63819,117.074975,164,75,27,22,18,11,22,16,1011,63,1,20140905170000
270,"Quancheng Plaza, Jinan",,36.661711,117.027043,176,124,50,36,17,10,22,16,1011,63,1,20140905170000
271,"Kegansuo, Jinan",,36.611582,116.99384,162,98,110,11,15,7,22,16,1011,63,1,20140905170000
272,"Agriculture Science Institute, Jinan",,36.663115,116.95063,173,141,50,53,13,13,22,16,1011,63,1,20140905170000
273,"Lanxiang technical school, Jinan",,36.700421,116.95342,180,177,88,25,33,10,22,16,1011,63,1,20140905170000
274,"Chemical factory, Jinan",,36.687463,116.994406,177,101,49,79,32,9,22,16,1011,63,1,20140905170000
275,"Provincial Seed Warehouse, Jinan",,36.685706,117.066348,180,128,75,56,16,12,22,16,1011,63,1,20140905170000
276,"Shandong Architecture University, Jinan",,36.681732,117.191868,151,102,46,27,33,13,22,16,1011,63,1,20140905170000
277,"Baosheng cable company, Jinan",,36.724638,117.130855,195,183,32,67,13,10,22,16,1011,63,1,20140905170000
278,"Paomaling, Jinan",,36.47869,117.219027,160,76,127,8,19,11,22,16,1011,63,1,20140905170000
279,"Changqing District Communist Party School, Jinan",,36.548797,116.770859,151,78,49,42,26,10,22,16,1011,63,1,20140905170000
280,"BDA, Jinan",,36.685835,117.130851,170,92,132,24,33,12,22,16,1011,63,1,20140905170000
281,Jinan,,36.651426,117.126625,167,133,74,39,22,13,22,16,1011,63,1,20140905170000
282,"Shinan district No. 1, Qingdao",,36.065534,120.40839,119,50,61,6,11,6,22,20,1012,88,3,20140905170000
283,"Shibei district No. 1, Qingdao",,36.069919,120.341264,102,61,35,5,8,7,21,20,1012,94,1,20140905170000
284,"Shibei district No. 2, Qingdao",,36.104146,120.36637,87,43,105,11,5,12,21,19,1012,88,2,20140905170000
285,"Huangdao District No. 1, Qingdao",,35.958935,120.191041,109,71,43,7,13,7,21,20,1012,94,1,20140905170000
286,"Huangdao District No. 2, Qingdao",,35.970487,120.160339,119,77,36,11,10,9,22,20,1012,88,3,20140905170000
287,"Laoshan District No. 1, Qingdao",,36.085881,120.451839,142,53,47,10,11,7,21,20,1012,94,1,20140905170000
288,"Laoshan District No. 2, Qingdao",,36.091075,120.490388,109,60,75,7,8,6,21,20,1012,94,1,20140905170000
289,"Licang District No. 1, Qingdao",,36.184872,120.38533,107,67,22,11,15,9,21,20,1012,94,1,20140905170000
290,"Licang District No. 2, Qingdao",,36.154369,120.432287,127,74,28,30,8,7,21,19,1012,88,2,20140905170000
291,"Chengyang District No. 1, Qingdao",,36.308502,120.40008,151,71,33,27,11,9,21,19,1012,88,2,20140905170000
292,"Chengyang District No. 2, Qingdao",,36.308429,120.465806,139,57,49,10,9,7,21,19,1012,88,2,20140905170000
293,Qingdao,,36.067358,120.387773,142,71,74,10,14,10,21,20,1012,94,1,20140905170000
294,"Zichuan Meteo. Stations, Zibo",,36.637916,117.960222,167,117,77,28,49,15,20,16,0,80,3,20140905170000
295,"Dongfeng Chemical factory, Zibo",,36.838576,118.050785,166,121,29,44,75,25,19,17,0,88,2,20140905170000
296,"Boshan shuangshan, Zibo",,36.497278,117.853581,152,76,61,24,19,11,19,17,0,88,2,20140905170000
297,"Linzi Putian Park, Zibo",,36.820171,118.315022,165,142,90,27,47,21,19,17,0,88,2,20140905170000
1319,Zhoukou,,33.624592,114.702425,-,-,-,-,-,-,-,18,0,-,-,20140905170000
298,"Qilu Petrochemical, Zibo",,36.765907,118.254967,169,101,38,39,10,13,19,17,0,88,2,20140905170000
299,"Zhoucun sanjin Group, Zibo",,36.8044,117.85694,175,98,90,29,26,25,19,17,0,88,2,20140905170000
300,"Vocational College, Zibo",,36.825208,117.926305,172,94,66,40,46,22,19,17,0,88,2,20140905170000
301,"BDA, Zibo",,36.905214,118.021824,181,125,18,30,58,14,19,17,0,88,2,20140905170000
302,Zibo,,36.813618,118.060948,180,121,61,44,75,25,19,17,0,88,2,20140905170000
303,"Shizhong District Government, Zaozhuang",,34.850397,117.569545,175,140,48,22,53,9,24,20,1012,75,2,20140905170000
304,"Sewage treatment plant, Zaozhuang",,34.818951,117.595345,190,103,29,27,14,10,24,20,1012,75,2,20140905170000
305,"Xuecheng EPA, Zaozhuang",,34.790214,117.272455,178,86,59,14,16,7,24,20,1012,75,2,20140905170000
306,"Yicheng District government, Zaozhuang",,34.772806,117.57647,173,114,79,14,9,11,24,20,1012,75,2,20140905170000
307,"Taierzhuang EPA, Zaozhuang",,34.579462,117.741067,171,103,40,12,7,12,24,20,1012,75,2,20140905170000
308,"Shanting EPA, Zaozhuang",,35.070373,117.457691,102,77,75,8,9,10,24,20,1012,75,2,20140905170000
309,"City EPA, Zaozhuang",,34.809466,117.320608,174,104,76,14,26,6,24,20,1012,75,2,20140905170000
310,"High-tech zone, Zaozhuang",,34.821779,117.363495,189,99,43,22,43,9,24,20,1012,75,2,20140905170000
311,Zaozhuang,,34.809693,117.329634,189,136,79,22,43,12,24,20,1012,75,2,20140905170000
312,"City EPA, Dongying",,37.432052,118.672871,154,82,49,16,33,14,21,18,0,82,4,20140905170000
313,"Vocational College, Dongying",,37.438653,118.630567,156,96,54,18,50,11,21,18,0,82,4,20140905170000
314,"Xianhe Oil Production Plant, Dongying",,37.442419,118.510222,161,131,66,21,19,10,21,18,0,82,4,20140905170000
315,"Gengjin village, Dongying",,37.445072,118.55839,163,91,39,23,19,11,21,18,0,82,4,20140905170000
316,"City environmental company, Dongying",,37.466599,118.508012,159,98,45,23,18,11,21,18,0,82,4,20140905170000
317,"Hekou  district, Dongying",,37.883786,118.522171,158,81,69,12,18,8,21,18,0,82,4,20140905170000
318,"BDA, Dongying",,37.435162,118.701827,139,78,75,17,27,14,21,18,0,82,4,20140905170000
319,Dongying,,37.435429,118.680434,163,131,69,23,43,14,21,18,0,82,4,20140905170000
320,"Bearing Factory, Yantai",,37.544126,121.376956,170,73,36,22,6,8,,,0,,,20140905170000
321,"Xijiao Chemical Station, Yantai",,37.547148,121.323695,151,73,98,8,6,9,,,0,,,20140905170000
322,"Fushan Monitoring Stations, Yantai",,37.472245,121.260116,147,42,47,4,4,11,,,0,,,20140905170000
323,"Mouping EPA, Yantai",,37.376681,121.586509,192,60,27,27,5,22,,,0,,,20140905170000
324,"Laishan EPA, Yantai",,37.478422,121.44829,155,66,47,9,6,8,,,0,,,20140905170000
325,"Laishan Shengquan Industrial Park, Yantai",,37.4271,121.408386,132,75,45,21,6,8,,,0,,,20140905170000
326,"China Agricultural University, Yantai",,37.423568,121.511838,102,68,46,6,7,7,,,0,,,20140905170000
327,"BDA EPA, Yantai",,37.560827,121.257954,114,55,31,12,3,9,,,0,,,20140905170000
329,"Dajijia, Yantai",,37.673849,121.071465,114,40,41,6,8,8,,,0,,,20140905170000
330,Yantai,,37.464793,121.453142,192,74,100,27,8,22,22,20,0,88,4,20140905170000
331,"BDA, Weifang",,36.720022,119.054064,153,72,39,12,8,7,,,0,,,20140905170000
332,"Business School, Weifang",,36.682442,119.105909,149,67,40,19,7,5,,,0,,,20140905170000
333,"Hanting District, Weifang",,36.773484,119.199705,154,75,43,14,8,6,,,0,,,20140905170000
334,"Gongda Company, Weifang",,36.657635,119.167266,159,87,40,12,6,7,,,0,,,20140905170000
335,"City EPA, Weifang",,36.701272,119.16838,159,89,35,10,6,7,,,0,,,20140905170000
336,"City Arbitration Committee, Weifang",,36.702422,119.145927,155,72,41,11,6,8,,,0,,,20140905170000
337,"Xinhui Group, Weifang",,36.641581,119.11679,137,67,39,10,10,7,,,0,,,20140905170000
338,"Jincheng Middle School, Weifang",,36.773611,119.115539,147,64,56,17,10,7,,,0,,,20140905170000
339,Weifang,,36.707217,119.167638,160,87,56,17,11,7,21,18,0,82,4,20140905170000
340,"City Monitoring Station, Jining",,35.408443,116.623917,191,121,44,19,59,14,21,19,1011,87,0,20140905170000
1090,"Shengdi Hollidays Resort, Jining",,35.424746,116.699093,170,96,43,30,45,1,21,19,1011,87,0,20140905170000
341,"Sewage treatment plant, Jining",,35.364286,116.609177,191,92,47,17,54,10,21,19,1011,87,0,20140905170000
342,"Electrochemical Factory, Jining",,35.390473,116.552956,167,91,103,13,59,11,21,19,1011,87,0,20140905170000
343,"Rencheng BDA, Jining",,35.390484,116.662995,211,99,43,24,25,11,21,19,1011,87,0,20140905170000
344,"Agricultural School, Jining",,35.44235,116.601682,168,92,34,18,52,10,21,19,1011,87,0,20140905170000
345,"BDA Huojucheng, Jining",,35.436377,116.642953,190,93,65,22,57,13,21,19,1011,87,0,20140905170000
346,Jining,,35.414473,116.59239,211,121,103,30,59,14,21,19,1011,87,0,20140905170000
347,"Taishan monitoring station, Taian",,36.194362,117.159648,152,89,38,19,18,12,14,12,0,85,4,20140905170000
348,"Shandong Electric Power School, Taian",,36.176071,117.12413,91,52,50,15,16,14,14,12,0,85,4,20140905170000
349,"Population Education school, Taian",,36.194417,117.104131,137,106,69,6,16,11,14,12,0,85,4,20140905170000
350,"Houfeng company, Taian",,36.204863,117.19015,155,88,26,11,11,13,14,12,0,85,4,20140905170000
351,"Nongda new campus, Taian",,36.170179,117.165191,154,77,13,36,14,16,14,12,0,85,4,20140905170000
352,"Transportation technical school, Taian",,36.202126,117.047068,160,90,21,5,8,12,14,12,0,85,4,20140905170000
353,"ICT Technology, Taian",,36.116621,117.107458,156,107,22,22,7,13,14,12,0,85,4,20140905170000
354,Taian,,36.200502,117.093682,160,107,69,36,21,16,14,12,0,85,4,20140905170000
355,"City Environmental Monitoring Station, Weihai",,37.513939,122.067058,107,60,97,7,5,5,22,20,0,88,4,20140905170000
356,"Woodworking Factory, Weihai",,37.325455,122.160777,134,60,77,13,7,8,22,20,0,88,4,20140905170000
357,"Lantian Hotel, Weihai",,37.514641,122.146276,122,57,92,3,5,7,22,20,0,88,4,20140905170000
358,"Zhang village government, Weihai",,37.485561,122.049436,117,48,47,4,5,7,22,20,0,88,4,20140905170000
359,"Gao District Bank, Weihai",,37.534919,122.056294,152,55,100,7,7,7,22,20,0,88,4,20140905180000
360,"Huxia technical school, Weihai",,37.427951,122.130811,129,56,52,19,9,9,22,20,0,88,4,20140905180000
361,Weihai,,37.5141,122.125477,152,60,100,19,9,9,22,20,0,88,4,20140905180000
362,"City governement square, Rizhao",,35.4075,119.526008,117,57,43,8,6,5,23,21,1013,80,1,20140905180000
363,"Port Authority, Rizhao",,35.381297,119.55396,117,73,33,11,5,5,23,21,1013,80,1,20140905180000
364,"City Monitoring Station, Rizhao",,35.388683,119.496405,119,63,31,32,12,4,23,21,1013,80,1,20140905180000
365,"Professor Garden, Rizhao",,35.462161,119.574193,119,61,40,2,8,6,23,21,1013,80,1,20140905180000
366,"Vocational and Technical College, Rizhao",,35.441939,119.538187,132,54,45,6,5,4,23,21,1013,80,1,20140905180000
367,"Lanshan EPA branch, Rizhao",,35.293405,119.345716,82,41,31,1,10,6,23,21,1013,80,1,20140905180000
368,"Jinma Industrial Park, Rizhao",,35.373339,119.514108,91,56,48,4,10,6,23,21,1013,80,1,20140905180000
369,Rizhao,,35.416089,119.532316,132,73,48,12,10,6,23,21,1013,80,1,20140905180000
370,"Vegetable oil factory, Laiwu",,36.205028,117.700917,176,79,43,13,32,11,21,17,1013,75,1,20140905180000
371,"Nursing home, Laiwu",,36.266067,117.652769,170,133,44,23,26,19,21,17,1013,75,1,20140905180000
372,"Xinyi middle school, Laiwu",,36.245086,117.739025,151,79,28,17,9,18,21,17,1013,75,1,20140905180000
373,"Risheng International School, Laiwu",,36.208125,117.730959,153,62,77,12,22,8,27,16,1010,40,2,20140905180000
374,"Gangcheng EPA, Laiwu",,36.066836,117.871823,333,84,27,12,24,18,21,17,1013,75,1,20140905180000
375,"City EPA, Laiwu",,36.228913,117.694797,168,83,36,25,51,17,21,17,1013,75,1,20140905180000
376,Laiwu,,36.213688,117.682612,333,84,43,17,32,18,-,-,0,-,-,20140905180000
377,"Lunan Pharmaceutical Factory, Linyi",,35.061671,118.299527,132,105,24,15,12,11,18,18,0,98,1,20140905180000
378,"Yihe compound, Linyi",,35.056752,118.34739,132,155,25,22,14,12,18,18,0,98,1,20140905180000
379,"Linyi University, Linyi",,35.114777,118.293414,129,60,7,4,9,16,18,18,0,98,1,20140905180000
380,City EPA,Nanfang,35.104871,118.353518,129,73,33,12,11,9,18,18,0,98,1,20140905180000
381,"Xinguang woolen factory, Linyi",,34.981004,118.282,168,153,17,24,29,12,18,18,0,98,1,20140905180000
382,"Hongfu Baijiu Factory, Linyi",,34.998788,118.257275,164,115,17,33,30,17,18,18,0,98,1,20140905180000
384,"Hedong insurance company, Linyi",,35.089354,118.40812,142,86,26,24,9,10,18,18,0,98,1,20140905180000
385,"Jianghua vehicule center, Linyi",,35.010082,118.435749,142,87,23,17,12,10,18,18,0,98,1,20140905180000
386,Linyi,,35.10428,118.362202,168,155,26,24,29,12,18,18,0,98,1,20140905180000
387,"Heima group, Dezhou",,37.466063,116.314134,184,110,45,17,22,17,24,19,1010,65,1,20140905180000
388,"Monitoring station, Dezhou",,37.433107,116.377312,175,118,37,19,18,15,24,19,1010,65,1,20140905180000
389,"Supervision Station, Dezhou",,37.449689,116.324709,173,123,52,11,23,19,24,19,1010,65,1,20140905180000
390,"Huayu technical school, Dezhou",,37.462809,116.357559,169,100,100,18,23,12,24,19,1010,65,1,20140905180000
391,"Shuangyi group, Dezhou",,37.478848,116.316362,195,177,39,30,16,17,24,19,1010,65,1,20140905180000
392,Dezhou,,37.434959,116.363366,195,177,100,30,26,21,24,19,1010,65,1,20140905180000
393,"Dongchang District Government, Liaocheng",,36.444473,115.971733,164,90,49,14,13,14,25,18,1010,58,1,20140905180000
394,"Light Machinery Factory No. 2, Liaocheng",,36.456788,116.002383,183,142,47,21,21,13,25,18,1010,58,1,20140905180000
395,"City committee communist party school, Liaocheng",,36.479537,115.989288,159,92,39,17,14,16,25,18,1010,58,1,20140905180000
396,"Customs, Liaocheng",,36.431933,115.956974,167,104,33,22,10,16,25,18,1010,58,1,20140905180000
397,"Hongshun Garden, Liaocheng",,36.471124,115.960319,164,108,60,21,12,18,25,18,1010,58,1,20140905180000
398,"BDA, Liaocheng",,36.459407,116.043621,177,122,36,30,27,18,25,18,1010,58,1,20140905180000
399,Liaocheng,,36.456792,115.991051,183,142,49,22,21,16,25,18,1010,58,1,20140905180000
400,"City EPA, Binzhou",,37.38024,118.026895,170,85,26,25,28,12,23,19,1011,76,2,20140905180000
401,"Beizhong new school, Binzhou",,37.38374,117.988996,173,117,22,28,14,16,23,19,1011,76,2,20140905180000
402,"No.2 water factory, Binzhou",,37.36155,118.002648,176,102,24,20,17,13,23,19,1011,76,2,20140905180000
403,"Keling Chemical factory, Binzhou",,37.396138,117.943609,171,96,19,14,28,15,23,19,1011,76,2,20140905180000
404,"Yinhe logistics company, Binzhou",,37.356122,117.943326,173,105,18,26,13,14,23,19,1011,76,2,20140905180000
405,"Bilin compond, Binzhou",,37.36815,117.978964,169,105,18,19,15,12,23,19,1011,76,2,20140905180000
406,Binzhou,,37.382639,117.976606,176,117,26,28,28,16,23,19,1011,76,2,20140905180000
407,"Bureau of Meteorology, Heze",,35.248625,115.428775,155,79,44,18,18,12,19,19,0,95,2,20140905180000
408,"Sewage treatment plant, Heze",,35.222517,115.531511,174,180,29,9,8,10,19,19,0,95,2,20140905180000
409,"Municipal CPPCC, Heze",,35.237125,115.480591,156,79,43,23,23,9,19,19,0,95,2,20140905180000
410,"Huarun Pharmaceutical Company, Heze",,35.261463,115.524873,162,88,29,22,9,11,19,19,0,95,2,20140905180000
411,"Heze University, Heze",,35.269706,115.460934,168,81,45,19,20,12,19,19,0,95,2,20140905180000
412,Heze,,35.233354,115.486503,168,88,50,22,35,14,19,19,0,95,2,20140905180000
413,"Shiji Park, Shijiazhuang",,38.03155,114.547873,153,75,30,10,12,5,20,18,1011,88,2,20140905180000
414,"Xinan College, Shijiazhuang",,38.012764,114.473163,152,90,22,9,23,6,20,18,1011,88,2,20140905180000
415,"Chemical College, Shijiazhuang",,38.055503,114.569816,134,72,16,10,7,4,20,18,1011,88,2,20140905180000
416,"Worker hospital, Shijiazhuang",,38.051784,114.461209,165,80,40,11,15,5,20,18,1011,88,2,20140905180000
417,"Northwest Water Company, Shijiazhuang",,38.140638,114.508038,154,70,34,10,10,4,20,18,1011,88,2,20140905180000
418,"High-tech zone, Shijiazhuang",,38.040482,114.610775,109,71,22,6,7,5,20,18,1011,88,2,20140905180000
419,"Fenglong Montain, Shijiazhuang",,37.910829,114.360264,163,90,96,13,13,6,20,18,1011,88,2,20140905180000
1130,"Zhengding Unicom, Shijiazhuang",,38.159458,114.59879,170,101,42,32,11,7,21,19,1011,88,2,20140905180000
1131,"Luancheng Communications, Shijiazhuang",,37.906534,114.638785,175,114,49,13,47,3,21,19,1011,88,2,20140905180000
1132,"Gaocheng Experimental School, Shijiazhuang",,38.039518,114.867812,169,87,38,10,3,6,21,19,1011,88,2,20140905180000
1133,"Wuji EPA, Shijiazhuang",,38.17862,114.997012,178,106,58,24,16,8,21,19,1011,88,2,20140905180000
1134,"Shenze Power Supply Bureau, Shijiazhuang",,38.197674,115.219126,171,116,36,16,14,6,21,19,1011,88,2,20140905180000
1135,"Zhaoxian EPA, Shijiazhuang",,37.77171,114.775957,127,82,86,18,18,3,21,19,1011,88,2,20140905180000
1136,"Gaoyi County City Hall, Shijiazhuang",,37.623535,114.612729,165,113,66,22,41,4,21,19,1011,88,2,20140905180000
1137,"Zanhuang County City Hall, Shijiazhuang",,37.672898,114.398269,177,121,45,42,6,5,21,19,1011,88,2,20140905180000
1138,"Jingxing Bureau of Meteorology, Shijiazhuang",,38.038788,114.158406,172,134,114,19,6,14,21,19,1011,88,2,20140905180000
1139,"Pingshan Ye River, Shijiazhuang",,38.266657,114.210275,235,149,123,17,9,9,21,19,1011,88,2,20140905180000
420,Shijiazhuang,,38.042926,114.520834,165,90,47,12,23,6,20,18,1011,88,2,20140905180000
421,"No. 12 middle school, Tangshan",,39.659306,118.190271,156,76,22,37,9,19,-,-,0,-,-,20140905180000
422,"Ceramics Company, Tangshan",,39.669255,118.225185,117,59,22,29,28,6,22,19,1011,83,1,20140905180000
423,"Commodities Bureau, Tangshan",,39.642301,118.191265,156,76,22,37,9,19,22,19,1011,83,1,20140905180000
424,"Leidazhanzi Station, Tangshan",,39.644375,118.150383,155,103,34,27,15,15,22,19,1011,83,1,20140905180000
425,"Supply and marketing cooperatives, Tangshan",,39.632334,118.17232,160,102,33,25,16,17,22,19,1011,83,1,20140905180000
1140,"Guye District City Hall, Tangshan",,39.741379,118.460246,155,98,35,23,12,7,22,19,1011,83,1,20140905180000
1141,"Kaiping Stations, Tangshan",,39.675246,118.275149,153,107,36,32,10,3,22,19,1011,83,1,20140905180000
1142,"Fengnan District City Hall, Tangshan",,39.5834,118.097454,173,98,42,22,10,17,22,19,1011,83,1,20140905180000
1143,"Fengrun City Hall, Tangshan",,39.840355,118.175338,162,137,28,37,14,18,22,19,1011,83,1,20140905180000
1144,"Qianxi EPA, Tangshan",,40.153339,118.317265,162,92,46,21,7,17,22,19,1011,83,1,20140905180000
1145,"Caofeidian Xinli  Primary School, Tangshan",,39.291232,118.462182,168,95,44,28,6,3,22,19,1011,83,1,20140905180000
1146,"Zunhua EPA, Tangshan",,40.206249,117.997315,178,123,44,39,18,19,22,19,1011,83,1,20140905180000
1147,"Qianan No.1 middle school, Tangshan",,40.004248,118.717055,157,85,41,11,9,10,22,19,1011,83,1,20140905180000
1266,"Luannan County , Tangshan",,39.511132,118.686928,159,85,35,21,5,9,22,19,1011,83,1,20140905180000
1267,"Yutian County , Tangshan",,39.908249,117.751417,161,106,48,36,13,8,22,19,1011,83,1,20140905180000
426,Tangshan,,39.632175,118.186472,160,104,34,39,28,19,-,-,0,-,-,20140905180000
427,"City Monitoring Station, Qinhuangdao",,39.958109,119.607773,70,74,16,39,3,4,,,0,,,20140905180000
428,"Beidaihe, Qinhuangdao",,39.829209,119.53194,53,67,16,35,12,9,,,0,,,20140905180000
429,"Shanhai Pass, Qinhuangdao",,40.019298,119.767898,70,55,9,39,3,9,,,0,,,20140905180000
430,"Contruction Plazz, Qinhuangdao",,39.943187,119.542912,91,108,20,33,7,7,,,0,,,20140905180000
431,"City government, Qinhuangdao",,39.93711,119.612769,72,73,12,33,5,7,,,0,,,20140905180000
1148,"Qinglong EPA, Qinhuangdao",,40.419223,118.958002,151,69,50,11,4,14,22,19,0,83,1,20140905180000
1149,"Changli EPA, Qinhuangdao",,39.714369,119.173237,157,93,39,28,2,6,,,0,,,20140905180000
1268,"Lulong County Bureau of Meteorology , Qinhuangdao",,39.901091,118.904857,169,85,42,16,10,7,22,19,0,83,1,20140905180000
432,Qinhuangdao,,39.936485,119.606263,72,73,12,33,5,7,-,-,0,-,-,20140905180000
433,"CongTai Park, Handan",,36.620197,114.501891,13,70,32,7,7,2,24,18,0,58,1,20140905180000
434,"City EPA, Handan",,36.618145,114.518822,169,71,29,28,4,6,24,18,0,58,1,20140905180000
435,"East Sewage Factory, Handan",,36.616064,114.548714,157,82,33,17,9,4,24,18,0,58,1,20140905180000
436,"Mine Hospital, Handan",,36.578149,114.509854,158,69,27,9,5,1,24,18,0,58,1,20140905180000
1150,"Fengfeng mine Inland Revenue Department, Handan",,36.423085,114.245994,165,88,38,7,12,9,24,16,0,49,3,20140905180000
1151,"Shexian EPA, Handan",,36.589084,113.692341,159,87,47,42,12,9,,,0,,,20140905180000
1152,"Ci County Vocational Education Center, Handan",,36.380247,114.390119,151,57,54,3,5,6,,,0,,,20140905180000
1153,"Yongnian government guesthouse, Handan",,36.783297,114.502905,170,97,49,10,12,1,24,18,0,58,1,20140905180000
1154,"Wuan BDA, Handan",,36.686223,114.269009,175,118,38,9,15,12,,,0,,,20140905180000
1085,Handan,,36.625683,114.544812,169,82,33,7,9,6,24,18,0,58,1,20140905180000
437,"Road and Bridge Corporation, Xingtai",,37.096415,114.538799,151,76,20,17,9,2,24,18,1011,58,1,20140905180000
438,"Dahuo fontain, Xingtai",,37.097563,114.488001,154,68,12,9,15,5,24,18,1011,58,1,20140905180000
439,"Xingtai Normal College, Xingtai",,37.053404,114.531819,163,78,21,10,17,4,24,18,1011,58,1,20140905180000
440,"Environment protection office, Xingtai",,37.06253,114.490985,162,80,20,11,11,3,24,18,1011,58,1,20140905180000
1155,"Cultural centers within the mound, Xingtai",,37.293569,114.524873,166,95,48,46,16,4,24,18,1011,58,1,20140905180000
383,Xingtai,,37.071066,114.510749,163,80,21,17,17,5,24,18,1011,58,1,20140905180000
441,"City Monitoring Station, Baoding",,38.871737,115.527103,161,83,59,9,23,17,23,21,1010,83,0,20140905180000
442,"Surface water Company, Baoding",,38.842891,115.467326,183,104,44,25,9,7,23,21,1010,83,0,20140905180000
443,"Huadian II, Baoding",,38.896748,115.528102,176,101,41,2,16,2,23,21,1010,83,0,20140905180000
444,"Reception Center, Baoding",,38.911905,115.477301,179,104,31,14,3,8,23,21,1010,83,0,20140905180000
445,"Film Factory, Baoding",,38.876949,115.448383,163,105,43,16,10,17,23,21,1010,83,0,20140905180000
446,"Natatorium, Baoding",,38.863815,115.499212,170,112,37,14,26,14,23,21,1010,83,0,20140905180000
1156,"Qingyuan City Hall, Baoding",,38.771758,115.502189,178,99,47,6,8,5,23,21,1010,83,0,20140905180000
1157,"Xushui EPA, Baoding",,39.025781,115.668023,182,108,44,15,12,7,23,21,1010,83,0,20140905180000
1158,"Zhouzhou Monitoring Stations, Baoding",,39.493241,116.040187,209,110,128,9,12,5,23,21,1010,83,0,20140905180000
1159,"Gaobeidian EPA, Baoding",,39.3329,115.885891,181,117,70,12,27,5,23,21,1010,83,0,20140905180000
447,Baoding,,38.874791,115.471124,183,112,59,25,26,17,23,21,1010,83,0,20140905180000
448,"Century Compound, Zhangjiakou",,40.770279,114.909106,129,65,27,7,38,5,21,13,1010,51,3,20140905180000
449,"North Pumping Station, Zhangjiakou",,40.874362,114.910119,152,57,6,9,18,12,21,13,1010,51,3,20140905180000
450,"Hardware Warehouse, Zhangjiakou",,40.81232,114.887119,139,67,53,12,12,15,21,13,1010,51,3,20140905180000
451,"Tanji Chang, Zhangjiakou",,40.796301,114.89811,112,37,101,7,12,6,21,13,1010,51,3,20140905180000
1160,"Xiahuayuan EPA, Zhangjiakou",,40.509345,115.302442,163,93,44,13,4,5,21,13,1010,51,3,20140905180000
1161,"Huaian EPA, Zhangjiakou",,40.68157,114.398646,178,94,125,12,19,1,21,13,1010,51,3,20140905180000
1162,"Huailai Fuqian Primary School, Zhangjiakou",,40.422204,115.530285,168,-,7,10,3,4,21,13,1010,51,3,20140905180000
1269,"Zhangbei EPA , Zhangjiakou",,41.166775,114.732369,167,86,47,10,7,4,21,13,1010,51,3,20140905180000
1270,"Kangbao County Environmental Protection Agency , Zhangjiakou",,41.837866,114.591246,117,70,50,7,5,3,21,13,1010,51,3,20140905180000
1271,"Guyuan County welfare , Zhangjiakou",,41.669984,115.687401,185,6,40,10,6,24,21,13,1010,51,3,20140905180000
1272,"Shangyi County Environmental Protection Bureau , Zhangjiakou",,41.086638,113.984688,184,105,124,11,26,7,21,13,1010,51,3,20140905180000
1273,"Yuxian Secondary School , Zhangjiakou",,39.84699,114.601986,173,89,165,8,7,4,21,13,1010,51,3,20140905180000
1274,"Yang County Vocational Education Center , Zhangjiakou",,40.106343,114.134732,97,96,-,-,6,-,21,13,1010,51,3,20140905180000
1275,"Wan county Environmental Protection Agency , Zhangjiakou",,40.770459,114.75033,191,111,171,22,41,8,21,13,1010,51,3,20140905180000
473,"Nankou road, Tianjin",,39.174022,117.199688,172,70,32,10,10,11,22,19,1011,83,1,20140905180000
1276,"Zhuolu County Environmental Protection Agency , Zhangjiakou",,40.374273,115.221393,170,90,131,2,2,9,21,13,1010,51,3,20140905180000
452,Zhangjiakou,,40.825744,114.893659,154,75,101,12,38,15,21,13,1010,51,3,20140905180000
453,"Railway, Chengde",,40.917557,117.972331,159,87,37,22,5,13,19,17,1012,85,1,20140905180000
454,"Cultural Center, Chengde",,40.974625,117.824437,129,73,30,17,4,13,19,17,1012,85,1,20140905180000
455,"Bank of China, Chengde",,40.985582,117.958304,151,77,35,14,29,15,19,17,1012,85,1,20140905180000
456,"BDA, Chengde",,40.937567,117.969325,160,84,43,13,19,15,19,17,1012,85,1,20140905180000
457,"Ligong, Chengde",,41.012579,117.94428,34,51,26,10,1,13,19,17,1012,85,1,20140905180000
1163,"Chengde County EPA, Chengde",,40.776643,118.17646,180,130,66,12,2,17,19,17,1012,85,1,20140905180000
1164,"Xinglong County City Hall, Chengde",,40.424301,117.513488,168,78,49,13,5,14,19,17,1012,85,1,20140905180000
1165,"Luanping EPA, Chengde",,40.950792,117.350715,185,89,68,12,8,14,19,17,1012,85,1,20140905180000
1166,"Fengning County City Hall, Chengde",,41.216739,116.658037,172,82,98,6,6,7,19,17,1012,85,1,20140905180000
1277,"Longhua EPA , Chengde",,41.311956,117.739605,165,76,38,23,6,9,19,17,1012,85,1,20140905180000
458,Chengde,,40.955652,117.968737,160,87,43,22,29,15,19,17,1012,85,1,20140905180000
459,"Municipal EPB, Cangzhou",,38.323507,116.876746,163,83,113,17,3,7,22,19,1011,83,1,20140905180000
460,"Cangxian Urban Construction Bureau, Cangzhou",,38.299495,116.890734,165,80,89,7,2,7,22,19,1011,83,1,20140905180000
461,"TV Broadcast Station, Cangzhou",,38.325525,116.863761,174,95,55,9,14,7,22,19,1011,83,1,20140905180000
1167,"Qing County City Hall, Cangzhou",,38.589643,116.815876,198,107,73,12,15,3,22,19,1011,83,1,20140905180000
1168,"Poyoushi City Hall, Cangzhou",,38.089516,116.590575,179,117,1,20,24,5,22,19,1011,83,1,20140905180000
1169,"Huanghua Finance Bureau Training Center, Cangzhou",,38.377793,117.343356,207,7,139,18,40,3,22,19,1011,83,1,20140905180000
462,Cangzhou,,38.305035,116.844625,174,95,89,17,14,7,22,19,1011,83,1,20140905180000
463,"Environmental Monitoring Supervision Center, Langfang",,39.558157,116.720995,174,156,40,14,18,14,22,19,1011,83,1,20140905180000
464,"TCM Medical Material Company, Langfang",,39.519096,116.689914,187,108,44,9,6,11,22,19,1011,83,1,20140905180000
465,"BDA, Langfang",,39.576175,116.779041,187,136,35,31,22,8,22,19,1011,83,1,20140905180000
466,"North China Institute of Aerospace, Langfang",,39.53517,116.743027,187,130,43,22,8,12,22,19,1011,83,1,20140905180000
1170,"Guan Party School, Langfang",,39.446185,116.311026,199,96,142,12,7,9,22,19,1011,83,1,20140905180000
1171,"Xianghe EPA, Langfang",,39.76725,117.015252,192,116,127,14,15,9,22,19,1011,83,1,20140905180000
1172,"Wenan County EPA, Langfang",,38.880927,116.47001,195,107,129,12,12,8,22,19,1011,83,1,20140905180000
1173,"Three Rivers Department of Transportation, Langfang",,39.989419,117.091528,178,112,91,17,13,9,22,19,1011,83,1,20140905180000
1278,"Yongqing EPA , Langfang",,39.329071,116.510917,237,240,129,11,16,10,22,19,1011,83,1,20140905180000
1279,"Dacheng EPA, Langfang",,38.712628,116.665751,216,132,143,7,15,9,22,19,1011,83,1,20140905180000
467,Langfang,,39.539148,116.689668,187,136,44,31,22,11,22,19,1011,83,1,20140905180000
468,"Hengshui City EPB, Hengshui",,37.739679,115.695929,184,103,131,6,19,7,20,15,0,71,3,20140905180000
469,"Environmental Monitoring Station, Hengshui",,37.738593,115.648837,186,168,59,14,18,6,20,15,0,71,3,20140905180000
470,"Electrical Machine North Factory, Hengshui",,37.758686,115.70094,181,116,69,21,18,8,20,15,0,71,3,20140905180000
1174,"Anping EPA, Hengshui",,38.238559,115.537988,192,107,68,19,18,9,21,15,0,67,3,20140905180000
1175,"Jizhou EPA, Hengshui",,37.548552,115.58679,177,94,91,16,28,6,21,15,0,67,3,20140905180000
1280,"Zaoqiang EPA, Hengshui",,37.520698,115.714936,175,98,170,9,28,6,21,15,0,67,3,20140905180000
1281,"Wuyi EPA, Hengshui",,37.801554,115.898697,172,150,78,12,30,7,21,15,0,67,3,20140905180000
1282,"Wuqiang EPA , Hengshui",,38.03557,115.959767,13,143,67,31,21,10,21,15,0,67,3,20140905180000
1283,"Raoyang EPA , Hengshui",,38.230652,115.741041,191,108,102,7,13,6,21,15,0,67,3,20140905180000
1284,"Gucheng County , Hengshui",,37.347569,115.966707,195,71,78,13,9,8,21,15,0,67,3,20140905180000
471,Hengshui,,37.739562,115.676066,186,168,69,21,19,8,20,15,0,71,3,20140905180000
1176,"Xinji City Hall, Xinji",,37.949711,115.230084,170,83,100,12,24,5,21,15,0,67,3,20140905180000
474,"Qinjian street, Tianjin",,39.166588,117.15104,161,77,38,9,12,8,22,19,1011,83,1,20140905180000
475,"Nanjing Road, Tianjin",,39.120958,117.195112,172,74,39,9,11,8,22,19,1011,83,1,20140905180000
476,"Dazhigu No.8 road, Tianjin",,39.111811,117.25147,169,68,34,14,7,9,22,19,1011,83,1,20140905180000
477,"Qianjin street, Tianjin",,39.09371,117.207981,166,76,26,4,12,6,22,19,1011,83,1,20140905180000
478,"Huaihe street, Tianjin",,39.227167,117.191293,170,84,25,8,6,11,22,19,1011,83,1,20140905180000
479,"Xiangshan street, Tianjin",,39.134752,117.275125,188,73,63,8,5,12,22,19,1011,83,1,20140905180000
480,"Yuejin Road, Tianjin",,39.088177,117.320884,174,81,34,27,6,11,22,19,1011,83,1,20140905180000
481,"Zhujiang street, Tianjin",,39.064463,117.231268,-,-,-,-,-,-,-,-,0,-,-,20140905180000
482,"No.4 street, Tianjin",,39.035228,117.713424,168,113,19,38,15,6,22,19,1011,83,1,20140905180000
483,"Yongming road, Tianjin",,38.840392,117.463805,171,63,49,7,9,12,22,19,1011,83,1,20140905180000
484,"Xinhua street, Tianjin",,39.138671,117.010083,178,89,66,11,20,16,22,19,1011,83,1,20140905180000
485,"Jingu Road, Tianjin",,38.985659,117.381254,169,102,72,5,12,15,22,19,1011,83,1,20140905180000
486,"Tanggu Yingkou street, Tianjin",,39.021768,117.656454,161,89,43,18,10,10,22,19,1011,83,1,20140905180000
487,"Hexi Yijing road, Tianjin",,39.248392,117.798043,177,76,33,10,6,10,22,19,1011,83,1,20140905180000
488,"Jianshe Road, Tianjin",,39.720075,117.310588,74,71,29,19,4,13,22,19,1011,83,1,20140905180000
489,"Quanzhou South road, Tianjin",,39.373857,117.050329,179,111,32,30,11,18,22,19,1011,83,1,20140905180000
490,"Donghuan road, Tianjin",,40.043144,117.451062,25,92,43,28,7,21,22,19,1011,83,1,20140905180000
491,"Tuanpowa, Tianjin",,38.920418,117.16299,185,90,40,21,3,14,22,19,1011,83,1,20140905180000
493,"Beiwei No.2 road, Tianjin",,38.943857,116.920624,248,130,49,17,54,19,22,19,1011,83,1,20140905180000
494,"Haitai fazhan No.2 road, Tianjin",,39.079608,117.096583,187,116,90,24,13,14,22,19,1011,83,1,20140905180000
495,"Hangtian road, Tianjin",,39.152244,117.381309,174,84,29,14,9,8,22,19,1011,83,1,20140905180000
496,"Hanbei road, Tianjin",,39.159768,117.770477,161,73,50,15,19,20,22,19,1011,83,1,20140905180000
497,"Baobai highway, Tianjin",,39.51757,117.349635,151,149,81,8,7,16,22,19,1011,83,1,20140905180000
498,Tianjin,,39.085164,117.207281,172,76,39,9,12,8,22,19,1011,83,1,20140905180000
499,"Wolong bridge, Hangzhou",,30.24371,120.132762,157,67,36,17,5,9,26,21,1009,74,1,20140905180000
500,"Hemu primary school, Hangzhou",,30.309669,120.124507,169,71,41,29,9,9,26,21,1009,74,1,20140905180000
501,"Zhejiang Agricultural University, Hangzhou",,30.265601,120.197583,169,77,38,21,18,8,26,21,1009,74,1,20140905180000
502,"Xiasha, Hangzhou",,30.303516,120.352618,167,72,47,8,15,6,26,21,1009,74,1,20140905180000
503,"Yunqi, Hangzhou",,30.178555,120.093142,151,56,43,8,5,7,26,21,1009,74,1,20140905180000
504,"Xixi, Hangzhou",,30.272425,120.068144,162,69,35,25,6,10,26,21,1009,74,1,20140905180000
505,"Chengxiang town, Hangzhou",,30.179493,120.274184,165,89,40,40,39,9,26,21,1009,74,1,20140905180000
506,"Qiandao lake, Hangzhou",,29.638139,119.031092,122,47,44,1,5,6,26,21,1009,74,1,20140905180000
507,"Linping town, Hangzhou",,30.415948,120.305059,163,63,44,20,6,7,26,21,1009,74,1,20140905180000
509,"No.2 Middle School, Hangzhou",,30.044303,119.956356,168,91,26,9,9,10,26,21,1010,74,0,20140905180000
510,"City Hall, Hangzhou",,30.234185,119.723503,168,-,90,7,6,12,26,21,1010,74,0,20140905180000
511,"No. 4 middle school, Hangzhou",,30.229428,119.699591,172,92,36,12,13,11,26,21,1010,74,0,20140905180000
512,Hangzhou,,30.271756,120.159765,174,92,45,31,18,10,26,21,1009,74,1,20140905180000
513,"City Station, Wenzhou",,28.009715,120.679129,156,63,34,17,7,8,22,20,0,91,2,20140905180000
514,"Ouhai, Wenzhou",,28.001846,120.641982,144,60,32,18,5,8,22,20,0,91,2,20140905180000
515,"Longwan, Wenzhou",,27.968122,120.768393,122,56,36,26,5,7,22,20,0,91,2,20140905180000
516,"Nanpu, Wenzhou",,27.981763,120.683685,134,62,33,15,5,14,22,20,0,91,2,20140905180000
517,Wenzhou,,27.990985,120.703425,156,63,36,26,7,14,22,20,0,91,2,20140905180000
518,"Monitoring station, Jiaxing",,30.75437,120.767373,132,55,80,1,7,9,25,22,1011,83,3,20140905180000
519,"Jiaxing University, Jiaxing",,30.745099,120.735004,155,0,82,1,4,7,25,22,1011,83,3,20140905180000
520,"Qinghe Primary School, Jiaxing",,30.775685,120.747969,112,57,65,6,6,7,25,22,1011,83,3,20140905180000
521,Jiaxing,,30.751627,120.762862,155,57,82,6,7,9,25,22,1011,83,3,20140905180000
522,"Chengbei water plant, Huzhou",,30.891155,120.096593,149,60,42,13,5,9,25,22,1011,83,3,20140905180000
523,"Jishan new village, Huzhou",,30.859939,120.120168,163,0,50,14,7,9,25,22,1011,83,3,20140905180000
524,"Town west water plant, Huzhou",,30.862371,120.084577,155,57,54,9,8,8,25,22,1011,83,3,20140905180000
525,Huzhou,,30.892304,120.091694,163,60,54,14,8,9,25,22,1011,83,3,20140905180000
526,"Donghu middle school, Shaoxing",,29.990447,120.647547,158,63,102,11,9,8,26,21,1010,74,0,20140905180000
527,"City EPA station, Shaoxing",,30.001695,120.584318,159,68,94,17,8,11,26,21,1010,74,0,20140905180000
528,"Chengdong BDA committee, Shaoxing",,29.986643,120.613578,162,63,90,10,9,10,26,21,1010,74,0,20140905180000
529,"Paojiang station, Shaoxing",,30.07574,120.62154,155,69,43,37,16,10,26,21,1010,74,0,20140905180000
530,"Shaoxing technical school, Shaoxing",,29.930983,120.577131,153,72,22,9,7,10,26,21,1010,74,0,20140905180000
531,"Library, Shaoxing",,29.706266,120.253183,159,73,56,12,4,10,26,21,1010,74,0,20140905180000
532,"Transporation management station, Shaoxing",,29.726405,120.221602,164,96,73,10,4,11,26,21,1010,74,0,20140905180000
533,"Dongpu Town Governement, Shaoxing",,30.049601,120.539893,153,67,40,21,11,9,26,21,1010,74,0,20140905180000
534,Shaoxing,,29.993122,120.590182,162,69,94,37,16,11,-,-,0,-,-,20140905180000
535,"City Monitoring Station, Jinhua",,29.100031,119.690373,114,53,32,13,6,7,20,20,0,97,0,20140905180000
536,"No.15 middle school, Jinhua",,29.074022,119.652121,134,51,33,3,10,7,20,20,0,97,0,20140905180000
537,"No.4 middle school, Jinhua",,29.110109,119.653654,144,62,32,6,12,8,20,20,0,97,0,20140905180000
538,"Beiyuan, Jinhua",,29.332898,120.083351,154,65,34,9,12,10,20,20,0,97,0,20140905180000
539,"Jiangdong, Jinhua",,29.302486,120.095291,124,55,31,15,5,10,20,20,0,97,0,20140905180000
540,Jinhua,,29.076083,119.65215,144,62,33,13,12,8,20,20,0,97,0,20140905180000
541,"EPA building, Quzhou",,28.937291,118.876081,159,68,37,18,13,7,26,24,1010,81,1,20140905180000
542,"Experimental school, Quzhou",,28.961502,118.880916,157,74,33,9,12,4,26,24,1010,81,1,20140905180000
543,"Quzhou University, Quzhou",,28.971452,118.860052,152,58,12,6,5,12,26,24,1010,81,1,20140905180000
544,Quzhou,,28.966994,118.864252,159,68,37,18,13,12,26,24,1010,81,1,20140905180000
545,"Putuo east port, Zhoushan",,29.951412,122.317679,104,36,46,6,3,5,24,23,1010,94,1,20140905180000
546,"Dinghai tanfeng, Zhoushan",,30.018014,122.126566,109,38,37,6,3,9,24,23,1010,94,1,20140905180000
547,Zhoushan,,29.983049,122.210763,127,56,46,6,3,9,24,23,1010,94,1,20140905180000
548,"Taizhou EPA building, Taizhou",,28.651216,121.42331,142,63,44,9,5,6,22,21,0,93,1,20140905180000
549,"Luqiao Tian Yang Wang, Taizhou",,28.574364,121.381194,134,59,34,15,3,6,22,21,0,93,1,20140905180000
550,"Huangyan EPA building, Taizhou",,28.656151,121.285064,124,55,36,15,3,9,22,21,0,93,1,20140905180000
551,"Yu Zhuang Qian, Lishui",,28.419638,119.883884,155,70,81,10,3,8,27,22,1010,65,0,20140905180000
552,"Monitoring station building, Lishui",,28.444379,119.923103,160,74,66,13,4,5,27,22,1010,65,0,20140905180000
553,"Liandu primary school, Lishui",,28.450912,119.939332,156,78,70,15,2,5,27,22,1010,65,0,20140905180000
554,Lishui,,28.464224,119.927201,160,78,81,15,4,8,27,22,1010,65,0,20140905180000
1248,Jingningxian,,27.977454,119.634837,122,68,8,11,2,7,27,22,1010,65,0,20140905180000
555,Taigu Primary School,,29.864178,121.60022,117,50,31,15,5,7,24,23,1010,94,2,20140905180000
556,Qianhu shuihan,,29.862459,121.5328,127,50,34,9,4,6,24,23,1010,94,1,20140905180000
557,Sanjiang secondary schools,,29.891563,121.568427,122,53,32,24,8,7,24,23,1010,94,2,20140905180000
558,Longsai Hospital,,29.957301,121.726734,117,43,38,12,12,7,24,23,1010,94,2,20140905180000
559,Beilun District EPB,,29.911633,121.850773,102,42,32,6,4,6,24,23,1010,94,2,20140905180000
560,Wanli University,,29.821314,121.574364,127,54,40,10,6,7,24,23,1010,94,2,20140905180000
561,Qianhu water plant,,29.774416,121.648136,91,38,35,5,132,6,24,23,1010,94,2,20140905180000
562,Municipal management station,,29.899182,121.626691,144,59,33,13,42,11,24,23,1010,94,2,20140905180000
1177,Daxie Literary Museum,,29.9027,121.986447,107,41,26,11,2,7,24,23,1010,94,2,20140905180000
1178,Cixi EPB,,30.165807,121.248991,132,52,41,8,6,14,24,23,1010,94,2,20140905180000
1179,Cixi Experimently Primary School,,30.179808,121.268672,147,60,43,9,6,10,24,23,1010,94,2,20140905180000
1180,"Yongsan Park, Yuyao",,30.050842,121.162477,153,59,43,10,7,8,24,23,1010,94,2,20140905180000
1182,Fenghua EPB,,29.666557,121.42069,117,50,48,4,3,9,24,23,1010,94,2,20140905180000
1183,"Yuelong station, Ninghai",,29.296505,121.445872,151,71,35,10,7,7,24,23,1010,94,2,20140905180000
1184,"Wenfeng Primary School, Xiangshan",,29.470908,121.889544,97,39,33,3,3,8,24,23,1010,94,2,20140905180000
1185,"Chengnan Primary School, Ninghai",,29.293812,121.43666,132,60,37,7,9,7,24,23,1010,94,2,20140905180000
1186,"Xingang Primary School, Xiangshan",,29.203878,121.952514,76,41,39,6,3,6,24,23,1010,94,2,20140905180000
1356,Haishu City Monitoring Center,,29.86835,121.539341,132,52,32,11,4,6,24,23,1010,94,2,20140905180000
1357,Fenghua Xikou government,,29.693164,121.29331,151,58,31,25,4,6,24,23,1010,94,2,20140905180000
1294,Ningbo,,29.865766,121.548164,144,59,38,13,132,11,24,23,1010,94,2,20140905180000
1187,Fuyang,,30.046157,119.96468,168,91,26,9,9,10,-,-,0,-,-,20140905180000
1188,Yiwu,,29.304353,120.079794,154,65,34,15,12,10,-,-,0,-,-,20140905180000
1189,Zhuji,,29.711185,120.240748,164,96,73,12,4,11,26,21,1010,74,0,20140905180000
563,"Shanxi Road , Nanjing",,32.06795,118.779216,176,89,36,14,15,13,23,23,1009,100,3,20140905180000
564,"Ruijin Road , Nanjing",,32.029321,118.80817,172,78,21,14,13,11,23,23,1009,100,3,20140905180000
565,"Xuanwu Lake, Nanjing",,32.075423,118.800188,174,85,25,17,13,9,23,23,1009,100,3,20140905180000
566,"Olympic Center, Nanjing",,32.007171,118.742217,168,86,41,7,3,9,23,23,1009,100,3,20140905180000
567,"Xianlin University Town , Nanjing",,32.106958,118.919882,164,77,39,6,5,12,23,23,1009,100,3,20140905180000
568,Nanjing,,32.058179,118.802061,171,98,57,21,11,13,23,23,1009,100,3,20140905180000
569,"Shangfang hill , Suzhou",,31.24502,120.565211,155,67,76,11,5,6,25,22,1011,83,3,20140905180000
570,"Wuzhong District , Suzhou",,31.268105,120.61717,157,-,66,7,2,9,25,22,1010,83,3,20140905180000
571,"Suzhou New District , Suzhou",,31.297277,120.547262,156,58,23,10,17,9,25,22,1010,83,3,20140905180000
572,"Suzhou Industrial Area, Suzhou",,31.307603,120.673257,158,61,68,16,8,9,25,22,1010,83,3,20140905180000
573,"Xiangcheng district, Suzhou",,31.368674,120.645209,154,65,49,17,8,11,25,22,1010,83,3,20140905180000
574,Suzhou,,31.296701,120.589493,158,65,59,14,8,8,25,22,1010,83,3,20140905180000
575,"South suburb , Nantong",,31.957836,120.917218,164,68,45,13,20,6,21,20,1003,95,2,20140905180000
576,"Xinghu park, Nantong",,31.927873,120.944254,134,54,51,7,5,6,21,20,1003,95,2,20140905180000
577,"Zilang school, Nantong",,32.039638,120.814358,161,66,45,14,18,0,21,20,1003,95,2,20140905180000
578,Nantong,,31.978005,120.898555,164,64,49,13,22,8,21,20,1003,95,2,20140905180000
579,Lianyungang,,34.595509,119.226814,152,84,21,27,10,7,8,8,1016,96,0,20140905180000
580,"Hongmen police substation, Lianyungang",,34.588692,119.146693,78,31,34,7,8,7,22,21,1013,88,1,20140905180000
581,"Xugou Nuclear Expert Village , Lianyungang",,34.749957,119.373707,102,66,15,18,19,9,22,21,1013,88,1,20140905180000
582,"Hengrui pharmaceutical company, BDA, Lianyungang",,34.697574,119.353668,82,43,31,27,9,9,22,21,1013,88,1,20140905180000
583,"City Monitoring Station, Lianyungang",,34.586791,119.186929,204,46,29,6,7,6,22,21,1013,88,1,20140905180000
584,"Yellow river new village , Xuzhou",,34.271542,117.177241,166,87,44,11,19,13,24,20,1012,75,2,20140905180000
585,"Tongshan Veterinary Hospital , Xuzhou",,34.307086,117.197766,155,80,40,17,53,10,22,20,1012,87,1,20140905180000
586,"New Town , Xuzhou",,34.213992,117.261718,163,105,40,7,7,17,22,20,1012,87,1,20140905180000
587,"Taoyuan road, Xuzhou",,34.289822,117.249721,159,89,7,14,7,12,24,20,1012,75,2,20140905180000
588,"Agricultural Science Academy , Xuzhou",,34.27655,117.299079,87,76,21,17,15,11,22,20,1012,87,1,20140905180000
589,"Tongshan EPA, Xuzhou",,34.179384,117.171798,165,102,30,11,10,11,24,20,1012,75,2,20140905180000
590,Xuzhou,,34.20346,117.289825,166,89,44,25,53,12,24,20,1012,75,2,20140905180000
591,Yangzhou,,32.39233,119.418446,159,69,10,19,10,5,11,9,0,90,6,20140905180000
592,"Hanjiang Monitoring Station, Yangzhou",,32.374218,119.394484,151,62,33,16,17,7,20,20,0,98,2,20140905180000
593,"No. 4 Hospital, Yangzhou",,32.401394,119.44444,142,71,40,7,10,4,20,20,0,98,2,20140905180000
594,"City Monitoring Station, Yangzhou",,32.406588,119.41591,159,71,30,9,9,6,20,20,0,98,2,20140905180000
595,"University Town , Wuxi",,31.484752,120.273571,147,65,47,9,9,7,25,22,1010,83,3,20140905180000
596,"Shibei High School , Wuxi",,31.619969,120.279584,160,73,42,17,14,3,25,22,1011,83,3,20140905180000
597,"Yuhong Elementary School , Wuxi",,31.561155,120.249588,158,68,44,13,8,9,25,22,1010,83,3,20140905180000
598,Wuxi,,31.488746,120.31575,162,81,89,26,14,11,-,-,0,-,-,20140905180000
599,Changzhou,,31.808037,119.979205,172,86,6,22,36,13,11,9,0,88,5,20140905180000
600,"Chengjian School, Changzhou",,31.776476,119.937681,165,81,34,24,13,10,21,21,1003,96,2,20140905180000
601,"Changzhou Engineering Institute , Changzhou",,31.806828,119.966724,165,68,34,19,18,10,21,21,1003,96,2,20140905180000
602,"Wujin Monitoring Station, Changzhou",,31.701788,119.939676,159,70,30,24,18,11,21,21,1003,96,2,20140905180000
603,"City Monitoring Station, Changzhou",,31.777201,119.979426,164,76,38,20,19,10,21,21,1003,96,2,20140905180000
604,Zhenjiang,,32.18597,119.431281,170,79,4,39,15,13,9,8,0,93,5,20140905180000
605,"New District Administrative office , Zhenjiang",,32.186174,119.685021,157,77,32,22,10,10,23,23,1009,100,3,20140905180000
696,Taiyuan,,37.871115,112.555178,185,121,50,11,11,12,-,-,0,-,-,20140905180000
606,"Vocational Education Center , Zhenjiang",,32.212973,119.496253,155,58,24,14,8,12,23,23,1009,100,3,20140905180000
607,"Dantu Monitoring Station , Zhenjiang",,32.130026,119.435432,155,80,34,18,9,11,23,23,1009,100,3,20140905180000
608,"City Monitoring Station, Zhenjiang",,32.202178,119.439766,155,69,37,18,11,7,23,23,1009,100,3,20140905180000
609,"Gaogang Adminstrative office , Taizhoushi",,32.300768,119.886757,151,52,33,8,8,7,20,20,0,98,2,20140905190000
610,"Students Innovation Park , Taizhoushi",,32.461672,119.892761,163,64,37,1,10,5,20,20,0,98,2,20140905190000
611,Taizhoushi,,32.453555,119.927852,163,65,37,14,20,11,20,20,0,98,2,20140905190000
612,"Yancheng power station , Yancheng",,33.400859,120.123067,153,59,42,7,4,5,-,-,0,-,-,20140905190000
613,Yancheng,,33.345939,120.168504,144,52,30,5,3,7,11,10,1016,95,4,20140905190000
614,"Wenfeng Middle School , Yancheng",,33.370531,120.134041,137,55,37,10,6,6,-,-,0,-,-,20140905190000
615,"BDA Management Committe, Yancheng",,33.393191,120.22978,119,51,36,7,3,5,-,-,0,-,-,20140905190000
616,"City Monitoring Station, Yancheng",,33.390623,120.164423,142,59,38,19,2,6,20,20,0,98,2,20140905190000
617,Suqian,,33.960666,118.281004,160,87,24,7,5,7,11,10,0,91,6,20140905190000
618,"Suqian College , Suqian",,33.951472,118.298523,119,40,39,10,4,10,20,19,0,98,3,20140905190000
619,"Suqian Middle School , Suqian",,33.95784,118.249505,117,57,25,11,8,9,20,19,0,98,2,20140905190000
620,"Suyu District Environmental Protection Agency , Suqian",,33.94932,118.326569,129,55,29,7,24,11,20,19,0,98,2,20140905190000
621,"City Monitoring Station, Suqian",,33.956982,118.277022,124,47,25,1,4,10,20,19,0,98,3,20140905190000
622,Taizhou,,28.653436,121.425185,144,60,32,14,4,9,22,21,0,93,1,20140905190000
623,Donghu Liyuan,,30.572324,114.377844,157,77,33,30,3,9,22,21,1009,94,1,20140905190000
624,Yuehu Lake,,30.554662,114.256937,156,77,24,61,4,9,22,21,1009,94,1,20140905190000
625,Hankou Huaqiao ,,30.61724,114.287652,152,86,23,57,8,13,22,21,1009,94,1,20140905190000
626,Wuchang Ziyang ,,30.530801,114.309438,169,137,28,52,5,6,22,21,1009,94,1,20140905190000
627,Qingshan Ganghua,,30.622435,114.375599,188,144,29,63,14,13,22,21,1009,94,1,20140905190000
628,Dunkou Xinou,,30.480091,114.162176,154,104,21,33,5,8,22,21,1009,94,1,20140905190000
629,Donghu Gaoxin,,30.48095,114.40724,174,245,27,60,6,9,22,21,1009,94,1,20140905190000
630,Wujianshan,,30.63114,114.135907,168,87,40,41,3,9,23,22,1010,94,1,20140905190000
631,Yuanshun Road,,30.297142,113.858587,114,36,39,5,2,5,22,21,1009,94,0,20140905190000
632,Wuhan,,30.590689,114.310838,188,144,33,65,14,13,22,21,1009,94,1,20140905190000
1190,"Silingsan Factory, Yichang",,30.713288,111.306585,95,60,12,14,2,6,22,20,1009,89,1,20140905190000
633,Yichang,,30.689528,111.292131,129,69,16,18,23,8,22,20,1009,89,1,20140905190000
633,Yichang,,30.689528,111.292131,129,69,16,18,23,8,22,20,1009,89,1,20140905190000
1191,"City Library , Jingzhou",,30.31494,112.260844,149,60,11,17,4,10,25,21,1008,73,2,20140905190000
1192,"City committee communist party school, Jingzhou",,30.35054,112.20743,119,63,18,8,5,11,25,21,1008,73,2,20140905190000
1193,"kerong EPA, Jingzhou",,30.302965,112.29443,144,69,25,12,19,13,25,21,1008,73,2,20140905190000
634,Jingzhou,,30.332608,112.245451,149,63,23,17,5,12,25,21,1008,73,2,20140905190000
634,Jingzhou,,30.332608,112.245451,149,63,23,17,5,12,25,21,1008,73,2,20140905190000
635,Huangshi,,30.19723,115.043908,160,87,27,64,22,24,20,21,1012,95,1,20140905190000
635,Huangshi,,30.19723,115.043908,160,87,27,64,22,24,20,21,1012,95,1,20140905190000
1194,"Chenjiaying, Huangshi",,30.232823,115.067923,159,87,11,22,1,24,20,,1012,95,1,20140905190000
1195,"Chenjiawan , Huangshi",,30.200422,115.082138,153,67,24,16,9,23,20,,1012,95,1,20140905190000
1196,"Xinxialu, Huangshi",,30.17332,114.954357,158,81,26,64,22,21,20,,1012,95,1,20140905190000
1197,"Tie montian, Huangshi",,30.203885,114.906439,155,64,27,3,1,11,20,,1012,95,1,20140905190000
1198,"BDA, Huangshi",,30.207491,115.031739,160,82,19,34,4,23,20,,1012,95,1,20140905190000
636,Shiyan,,32.627208,110.803311,175,76,32,31,7,4,16,,0,93,1,20140905190000
636,Shiyan,,32.627208,110.803311,175,76,32,31,7,4,16,,0,93,1,20140905190000
1199,"Wudang Mountain , Shiyan",,32.392921,111.047655,114,42,20,1,3,6,16,,,93,1,20140905190000
1200,"Riverside Village , Shiyan",,32.647286,110.785335,154,65,32,31,3,4,16,,0,93,1,20140905190000
1201,"Liujiagou , Shiyan",,32.636732,110.731129,175,76,19,22,6,4,16,,0,93,1,20140905190000
1202,"Yunyang County District automatic air station , Shiyan",,32.833065,110.816809,-,-,-,-,-,-,-,,0,-,-,20140905190000
637,Xiangyang,,32.007029,112.128496,144,70,33,6,21,7,21,,1010,91,3,20140905190000
637,Xiangyang,,32.007029,112.128496,144,70,33,6,21,7,21,,1010,91,3,20140905190000
638,Ezhou,,30.389244,114.899884,169,119,32,33,14,36,22,21,1019,98,3,20140905190000
638,Ezhou,,30.389244,114.899884,169,119,32,33,14,36,22,21,1019,98,3,20140905190000
1203,"City government, Ezhou",,30.391836,114.892822,167,74,23,27,12,17,22,,1019,98,3,20140905190000
1204,"Zhaojiaba, Ezhou",,30.368966,114.90365,162,74,32,9,6,21,22,,1019,98,3,20140905190000
1205,"Fankou BDA, Ezhou",,30.410759,114.818225,169,119,21,33,14,36,22,,1019,98,3,20140905190000
639,Jingmen,,31.033208,112.205093,134,-,34,-,-,13,-,21,0,-,-,20140905190000
639,Jingmen,,31.033208,112.205093,134,-,34,-,-,13,-,21,0,-,-,20140905190000
640,Xiaogan,,30.922089,113.922387,175,104,16,1,1,6,22,21,1009,94,1,20140905190000
640,Xiaogan,,30.922089,113.922387,175,104,16,1,1,6,22,21,1009,94,1,20140905190000
1206,"wenhua street, Shenyang , Xiaogan",,30.925856,113.92104,-,-,-,-,-,-,-,21,0,-,-,20140905190000
1207,"Dongcheng District , Huludao , Xiaogan",,30.917963,113.943904,175,104,16,1,1,6,22,21,1009,94,1,20140905190000
641,Huanggang,,30.45124,114.877378,167,82,36,12,6,24,22,21,1019,94,2,20140905190000
641,Huanggang,,30.45124,114.877378,167,82,36,12,6,24,22,21,1019,94,2,20140905190000
1208,"Dazhou Island, Huanggang",,30.446205,114.900323,169,83,32,18,7,23,22,,1019,94,2,20140905190000
1209,"Workers Center , Huanggang",,30.469244,114.912504,164,81,36,7,4,24,22,,1019,94,2,20140905190000
642,Xianning,,29.838978,114.327898,154,91,25,12,5,17,19,21,985,93,1,20140905190000
642,Xianning,,29.838978,114.327898,154,91,25,12,5,17,19,21,985,93,1,20140905190000
1210,"Municipal Development and Reform Commission , Xianning",,29.818645,114.328461,154,91,15,12,2,17,18,,984,91,1,20140905190000
1211,"Xianan District Governement, Xianning",,29.51107,114.181864,149,73,12,11,5,16,20,,993,90,1,20140905190000
1212,"Yangtze River Industrial Park , Xianning",,29.883098,114.32909,151,73,25,12,5,14,18,,984,91,1,20140905190000
1213,"Qianshan Park, Xianning",,29.815351,114.328689,153,66,22,6,1,15,18,,984,91,1,20140905190000
643,Suizhou,,31.688342,113.388675,164,92,-,6,5,17,19,,1005,90,1,20140905190000
643,Suizhou,,31.688342,113.388675,164,92,-,6,5,17,19,,1005,90,1,20140905190000
1338,"City committee communist party school, Suizhou",,31.725316,113.3648,164,92,-,6,5,17,19,,1005,90,1,20140905190000
1339,"Forestry Bureau, Suizhou",,31.690065,113.383157,-,-,-,-,-,-,-,,0,-,-,20140905190000
644,Enshi,,30.292138,109.484562,59,-,42,-,-,12,-,20,0,-,-,20140905190000
644,Enshi,,30.269587,109.493042,59,-,42,-,-,12,-,20,0,-,-,20140905190000
645,Xiantao,,30.360228,113.460616,162,-,30,-,-,5,-,22,0,-,-,20140905190000
645,Xiantao,,30.360228,113.460616,162,-,30,-,-,5,-,22,0,-,-,20140905190000
646,Qianjiang,,30.399387,112.905661,134,-,34,-,-,13,-,21,0,-,-,20140905190000
646,Qianjiang,,30.399387,112.905661,134,-,34,-,-,13,-,21,0,-,-,20140905190000
647,Tianmen,,30.661027,113.172549,162,-,30,-,-,5,-,21,0,-,-,20140905190000
647,Tianmen,,30.661027,113.172549,162,-,30,-,-,5,-,21,0,-,-,20140905190000
1088,Shennongjia,,31.741307,110.685554,164,-,40,-,-,4,-,20,0,-,-,20140905190000
1088,Shennongjia,,31.741307,110.685554,164,-,40,-,-,4,-,20,0,-,-,20140905190000
1214,"Xiangcheng Yundong Street, Xiangfan",,32.017716,112.16102,144,70,33,6,21,7,21,,1010,91,3,20140905190000
655,"City Environmental Monitoring Station, Baotou",,40.657201,109.886738,161,97,21,37,33,13,,,0,,,20140905190000
656,"Donghe EPB, Baotou",,40.586213,110.002224,156,109,34,25,42,12,,,0,,,20140905190000
657,"Baotou shopping mall, Baotou",,40.508334,109.819085,163,100,28,25,20,9,,,0,,,20140905190000
658,"Huilong logistics, Baotou",,40.633436,109.879821,154,116,30,29,23,13,,,0,,,20140905190000
659,Baotou,,40.658597,109.846051,167,128,34,35,42,12,19,4,0,24,1,20140905190000
660,"Huatai Automobile Mall, Eerduosi",,39.837048,109.972209,129,84,129,22,4,4,19,4,1006,24,1,20140905190000
661,"Olympus Garden, Eerduosi",,39.789171,109.987742,99,77,132,23,22,7,19,4,1006,24,1,20140905190000
662,Eerduosi,,39.609284,109.78704,129,84,169,23,30,12,19,4,1006,24,1,20140905190000
663,"Tianyi Road, Chifeng",,42.275552,118.88507,144,92,46,12,12,9,16,14,1012,82,1,20140905190000
664,"Songshan No.1 Middle School, Chifeng",,42.329307,118.793045,132,111,46,21,9,9,16,14,1012,82,1,20140905190000
665,"Hada Street, Chifeng",,42.280714,118.988235,139,101,29,10,11,15,16,14,1012,82,1,20140905190000
666,"Songshan Road, Chifeng",,42.171487,118.89501,107,68,56,7,19,8,16,14,1012,82,1,20140905190000
667,Chifeng,,42.259752,118.893027,144,111,56,21,19,15,16,14,1012,82,1,20140905190000
674,Fuzhou,,26.071406,119.301294,89,39,59,7,1,8,27,24,1007,84,5,20140905190000
675,"Xidong, Xiamen",,24.815345,118.161848,99,47,67,8,2,6,28,24,1007,79,3,20140905190000
676,"Hongwen, Xiamen",,24.473969,118.156281,95,43,101,11,7,8,28,24,1007,79,3,20140905190000
677,"Gulangyu, Xiamen",,24.443168,118.068571,119,59,103,6,3,9,28,24,1007,79,3,20140905190000
678,"Huli, Xiamen",,24.51235,118.099146,80,45,130,14,4,7,28,24,1007,79,3,20140905190000
679,Xiamen,,24.477187,118.094402,119,59,130,14,4,9,-,-,0,-,-,20140905190000
680,"Qingyuan Montain, Quanzhou",,24.939503,118.598337,74,34,28,3,4,6,28,24,1007,79,3,20140905190000
681,"Tushan Street, Quanzhou",,24.90867,118.586397,82,32,61,3,5,6,28,24,1007,79,3,20140905190000
682,"Wanan, Quanzhou",,24.304154,118.070903,89,31,29,7,4,8,28,24,1007,79,3,20140905190000
683,Quanzhou,,24.87179,118.68001,89,31,61,7,5,8,28,24,1007,79,3,20140905190000
687,"Jiancaoping, Taiyuan",,37.887889,112.528383,185,111,50,11,11,12,20,14,1013,68,5,20140905190000
688,"Jianhe, Taiyuan",,37.910779,112.579258,242,138,32,29,11,13,20,14,1013,68,4,20140905190000
689,"Shanglan, Taiyuan",,38.011589,112.440679,186,124,47,34,14,12,20,14,1013,68,4,20140905190000
690,"Jinyuan, Taiyuan",,37.713164,112.475552,169,94,51,9,20,11,20,14,1013,68,4,20140905190000
691,"Xiaodian, Taiyuan",,37.782137,112.483533,168,106,144,6,32,11,20,14,1013,68,4,20140905190000
692,"Taoyuan, Taiyuan",,37.869752,112.543332,181,131,40,6,14,16,20,14,1013,68,4,20140905190000
693,"Wucheng, Taiyuan",,37.819998,112.576252,176,137,46,8,10,13,20,14,1013,68,5,20140905190000
694,"Nanzhai, Taiyuan",,37.985902,112.555312,175,117,64,6,16,14,20,14,1013,68,4,20140905190000
695,"Jinsheng, Taiyuan",,37.781205,112.494494,540,104,99,13,23,12,20,14,1013,68,5,20140905190000
697,"Monitoring station, Changzhi",,36.194062,113.10389,109,54,38,10,9,5,25,15,0,54,2,20140905190000
698,"Auditing bureau, Changzhi",,36.212787,113.095221,137,51,38,6,8,8,25,15,0,54,2,20140905190000
699,"Qinghua station, Changzhi",,36.154328,113.116385,112,49,24,5,14,11,25,15,0,54,2,20140905190000
700,"No.8 middle school, Changzhi",,36.185451,113.099481,134,52,39,6,14,9,,,0,,,20140905190000
701,Changzhi,,36.195553,113.12292,137,54,38,10,14,11,23,13,0,44,1,20140905190000
702,"Yungang Hotel, Datong",,40.076997,113.278079,153,72,47,17,10,10,19,11,1009,51,2,20140905190000
703,"college of education, Datong",,40.085608,113.27808,160,68,38,12,10,11,19,11,1009,51,2,20140905190000
704,Datong,,40.078016,113.307143,176,148,47,43,11,11,10,9,1010,94,0,20140905190000
705,"Technical Schools, Linfen",,36.07131,111.509046,119,61,30,11,19,22,15,10,0,74,3,20140905190000
706,"Municipal party committee, Linfen",,36.087425,111.508771,87,47,19,1,18,17,15,10,0,74,3,20140905190000
1073,"City Monitoring Station, Linfen",,36.097676,111.518739,-,-,-,-,-,-,-,-,0,-,-,20140905190000
707,"South Airport, Linfen",,36.041614,111.497968,104,53,11,7,2,19,15,10,0,74,3,20140905190000
708,Linfen,,36.087944,111.525098,119,38,30,9,11,22,15,10,0,74,3,20140905190000
709,"City center, Yangquan",,37.848012,113.578636,195,144,57,47,19,18,20,14,1013,68,4,20140905190000
710,Yangquan,,37.857475,113.586921,198,167,47,31,43,23,20,14,1013,68,5,20140905190000
711,"Water Company, Jincheng",,35.504787,112.857245,38,45,35,18,4,5,23,13,1010,44,1,20140905190000
712,"Baiyun shopping mall, Jincheng",,35.492858,112.841566,89,40,17,17,34,8,23,13,1010,44,1,20140905190000
713,"City EPA, Jincheng",,35.488422,112.858528,61,37,13,30,17,8,23,13,1010,44,1,20140905190000
714,"Institute of Technology, Jincheng",,35.484844,112.878073,78,59,44,22,10,7,23,13,1010,44,1,20140905190000
715,"No.1 middle school, Jincheng",,35.478725,112.838636,59,38,17,27,30,3,23,13,1010,44,1,20140905190000
716,Jincheng,,35.490287,112.85794,89,59,44,30,34,8,23,13,1010,44,1,20140905190000
718,"District Government, Shuozhou",,39.320857,112.430641,-,98,-,10,45,-,23,12,1009,40,1,20140905190000
719,"City EPA, Shuozhou",,39.331495,112.407997,-,-,-,-,-,-,-,-,0,-,-,20140905190000
720,"No.2 middle school, Shuozhou",,39.377963,112.432877,156,64,50,6,20,11,23,12,1009,40,1,20140905190000
721,Shuozhou,,39.332756,112.439672,156,63,50,11,22,11,23,12,1009,40,1,20140905190000
722,"Jinlun compound, Jinzhong",,37.697891,112.771017,167,87,42,6,4,20,20,14,1013,68,5,20140905190000
723,"Hydraulic Component Factory, Jinzhong",,37.688355,112.725844,161,78,38,18,13,16,20,14,1013,68,4,20140905190000
724,"Nandu compound, Jinzhong",,37.713148,112.732036,163,78,19,9,6,12,20,14,1013,68,4,20140905190000
725,"Yuci district government, Jinzhong",,37.698228,112.714167,170,84,13,7,6,13,20,14,1013,68,4,20140905190000
726,Jinzhong,,37.687705,112.759187,170,87,42,18,13,20,20,14,1013,68,4,20140905190000
727,"Yuncheng Middle School, Yuncheng",,35.012345,111.003215,89,60,71,6,39,15,25,14,1007,44,4,20140905190000
728,"Yudou BDA, Yuncheng",,35.05065,111.029571,70,57,42,5,16,38,25,14,1007,44,4,20140905190000
730,"Regional Technical School, Yuncheng",,35.028727,110.974076,134,59,62,2,19,20,25,14,1007,44,4,20140905190000
731,"Airport new district, Yuncheng",,35.084515,111.05339,99,70,38,4,29,19,25,14,1007,44,4,20140905190000
732,Yuncheng,,35.025675,111.013344,134,70,71,6,39,38,-,-,0,-,-,20140905190000
733,"Jiyin, Xinzhou",,38.413292,112.742432,-,-,-,-,-,-,-,-,0,-,-,20140905190000
734,"BDA, Xinzhou",,38.450069,112.736723,178,81,28,6,36,17,20,14,1013,68,5,20140905190000
735,"Convention Center, Xinzhou",,38.492043,112.709772,190,114,27,8,35,18,20,14,1013,68,5,20140905190000
736,Xinzhou,,38.417244,112.740742,190,114,28,8,36,18,20,14,1013,68,5,20140905190000
737,"City EPA, Luliang",,37.522189,111.144365,163,86,17,41,21,18,22,18,0,71,4,20140905190000
738,"Soybean factory, Luliang",,37.51689,111.135101,194,89,24,33,16,18,15,15,0,99,1,20140905190000
739,"Water Company, Luliang",,37.53394,111.138834,164,112,21,39,18,20,15,15,0,99,1,20140905190000
740,Luliang,,25.027007,103.668566,194,86,17,41,21,18,22,18,0,99,4,20140905190000
741,"City government, Sanmenxia",,34.776251,111.198781,149,76,24,13,13,2,24,15,1007,47,3,20140905190000
743,"BDA, Sanmenxia",,34.800434,111.204332,173,92,38,14,29,6,24,15,1007,47,3,20140905190000
744,Sanmenxia,,34.771506,111.206129,173,92,39,14,29,10,24,15,1007,47,3,20140905190000
745,"Food Factory, Changchun",,43.919094,125.329521,132,111,2,33,6,4,13,11,1013,88,2,20140905190000
746,"Bus Factory, Changchun",,43.912337,125.293431,147,78,1,16,6,10,13,11,1013,88,2,20140905190000
747,"Institute of Posts and Telecommunications, Changchun",,43.842368,125.285005,93,73,1,37,4,12,14,12,1013,88,1,20140905190000
748,"Laodong Park, Changchun",,43.877293,125.371519,76,63,2,17,4,12,13,11,1013,88,2,20140905190000
749,"Forest area, Changchun",,43.871825,125.331519,97,71,2,28,3,9,14,12,1013,88,1,20140905190000
750,"Jinyuetan, Changchun",,43.79031,125.460561,57,20,9,5,1,4,14,12,1013,88,1,20140905190000
751,"Shuaiwanzi, Changchun",,43.552321,125.639086,55,34,11,9,1,5,13,11,1013,88,2,20140905190000
752,"Economic Development Zone Sanitation Department, Changchun",,43.869221,125.42365,78,64,3,22,3,6,13,11,1013,88,2,20140905190000
753,"High-tech Zone Administrative Committee, Changchun",,43.819064,125.256375,57,51,6,21,2,6,13,11,1013,88,2,20140905190000
754,"Daishan Park, Changchun",,43.852365,125.223399,80,68,6,33,3,6,13,11,1013,88,2,20140905190000
755,Changchun,,43.819415,125.329977,93,73,2,37,4,12,-,-,0,-,-,20140905190000
756,"Hadawan, Jilin",,43.888081,126.545727,151,74,5,21,7,11,12,10,0,92,2,20140905190000
757,"Fengman, Jilin",,43.768169,126.678802,30,12,16,1,2,4,12,10,0,92,2,20140905190000
758,"Electric Power College, Jilin",,43.827403,126.502281,53,23,14,12,2,4,11,10,0,93,2,20140905190000
936,Haikou,,20.028742,110.333225,65,25,17,3,4,5,25,25,1006,100,0,20140905190000
759,"Jiangnan Park, Jilin",,43.83531,126.556519,55,25,11,8,4,5,12,10,0,92,2,20140905190000
760,"Dongjuzi, Jilin",,43.838597,126.590068,34,24,13,6,1,6,12,10,0,92,2,20140905190000
763,Jilin,,43.840137,126.555262,151,74,5,21,7,11,12,10,0,92,2,20140905190000
764,"Lingbei, Haerbin",,45.756979,126.548008,50,26,30,16,6,2,15,13,1011,88,2,20140905190000
765,"Songbei Commercial University, Haerbin",,45.818624,126.566963,42,22,5,8,6,3,15,13,1011,88,2,20140905190000
766,"Acheng huining, Haerbin",,45.544286,126.985183,46,11,31,2,4,4,15,13,1011,88,2,20140905190000
767,"Nangang College Street, Haerbin",,45.724121,126.604906,68,41,34,21,4,3,15,13,1011,88,2,20140905190000
768,"Taiping Hongwei Park, Haerbin",,45.775332,126.695101,72,26,31,22,3,5,15,13,1011,88,2,20140905190000
769,"Daowai Chengde Square, Haerbin",,45.768637,126.640955,55,37,31,29,5,2,15,13,1011,88,2,20140905190000
770,"Xiangfang Hongqi Street, Haerbin",,45.733936,126.691083,53,34,34,14,4,5,15,13,1011,88,2,20140905190000
771,"Dongli Heping Road, Haerbin",,45.727765,126.651974,70,27,32,29,6,3,15,13,1011,88,2,20140905190000
772,"Daoli Jianguo Road, Haerbin",,45.749715,126.59891,53,28,29,30,8,5,15,13,1011,88,2,20140905190000
773,"Pingfang Light Factory, Haerbin",,45.611951,126.620898,46,11,31,6,2,11,15,13,1011,88,2,20140905190000
774,"Hulan Normal College, Haerbin",,45.983745,126.616553,57,20,33,7,6,3,15,13,1011,88,2,20140905190000
775,"Provincial Academy of Agricultural Sciences, Haerbin",,45.686141,126.626517,57,33,29,14,8,6,15,13,1011,88,2,20140905190000
776,Haerbin,,45.805757,126.541007,50,26,30,16,6,3,-,-,0,-,-,20140905190000
777,"Anju Compound, Qiqihaer",,47.365672,123.937016,34,15,33,8,1,6,16,14,1010,87,1,20140905190000
778,"Farming Vehicule Factory, Qiqihaer",,47.326793,123.961427,30,19,28,9,3,8,16,14,1010,87,1,20140905190000
779,"Fuqu EPA, Qiqihaer",,47.1853,123.62322,177,122,46,4,6,41,16,14,1010,87,1,20140905190000
780,"City Center Square, Qiqihaer",,47.343096,123.96192,42,17,26,6,1,7,16,14,1010,87,1,20140905190000
1217,"City Environmental Monitoring Station, Qiqihaer",,47.303639,123.957551,61,40,25,9,5,6,16,14,1010,87,1,20140905190000
781,Qiqihaer,,47.356387,123.924736,57,50,46,11,5,9,16,14,1010,87,1,20140905190000
782,"Saertu District, Daqing",,46.582368,125.152904,68,29,28,5,8,3,16,14,1011,91,1,20140905190000
783,"Datong District, Daqing",,46.036786,124.842115,50,16,38,2,4,4,16,14,1011,91,1,20140905190000
784,"Honggang District, Daqing",,46.418381,124.88973,25,13,34,3,4,4,16,14,1011,91,1,20140905190000
785,"Longfeng District, Daqing",,46.535426,125.107043,46,27,38,9,8,5,16,14,1011,91,1,20140905190000
786,"Ranghulu District, Daqing",,46.635123,124.85648,76,32,41,4,7,2,16,14,1011,91,1,20140905190000
787,Daqing,,46.591414,125.110838,70,30,44,15,9,5,20,16,1010,70,2,20140905190000
788,"Locomotive Factory, Mudanjiang",,44.610589,129.652672,70,32,36,11,4,4,15,12,1011,74,1,20140905190000
789,"No. 1 hospital, Mudanjiang",,44.567775,129.617043,65,38,29,13,1,3,15,12,1011,74,1,20140905190000
1220,"EPA building, Mudanjiang",,44.567777,129.620658,76,44,12,11,6,1,15,12,1011,74,1,20140905190000
1221,"Cultural Square, Mudanjiang",,44.586388,129.623164,78,35,8,13,5,4,15,12,1011,74,1,20140905190000
790,Mudanjiang,,44.553619,129.640246,82,56,40,15,6,4,15,12,1011,74,1,20140905190000
791,"Mingzhu Plaza, Hefei",,31.782847,117.201512,181,116,100,22,13,17,21,21,1010,100,2,20140905190000
792,"Sanli Street, Hefei",,31.874637,117.312573,184,88,86,23,6,14,21,21,1010,100,2,20140905190000
793,"Hupo Compound, Hefei",,31.868583,117.264491,188,89,41,6,10,11,21,21,1010,100,2,20140905190000
794,"Dongpu Reservoir, Hefei",,31.90319,117.165584,183,89,91,11,2,12,21,21,1010,100,2,20140905190000
795,"Changjiang middle road, Hefei",,31.855185,117.255484,184,114,10,9,2,12,21,21,1010,100,2,20140905190000
796,"Luyang District, Hefei",,31.941771,117.271504,190,98,6,1,16,13,21,21,1010,100,2,20140905190000
797,"Yaohai District, Hefei",,31.856595,117.341644,189,93,18,3,5,8,21,21,1010,100,2,20140905190000
798,"Baohe District, Hefei",,31.793644,117.307554,223,196,4,5,1,25,21,21,1010,100,2,20140905190000
799,"Lake district, Hefei",,31.736619,117.283501,191,107,19,13,2,8,21,21,1010,100,2,20140905190000
800,"High-tech zone, Hefei",,31.849755,117.129624,195,114,32,11,31,10,21,21,1010,100,2,20140905190000
801,Hefei,,31.819449,117.232753,184,114,10,9,2,12,-,-,0,-,-,20140905190000
802,"Hudong Road No.4 Elementary School, Maanshan",,31.684121,118.511017,177,79,140,15,8,14,23,23,1009,100,3,20140905190000
803,"Tianping Garment Factory, Maanshan",,31.64197,118.488043,174,82,183,12,9,12,23,23,1009,100,3,20140905190000
804,"City education base, Maanshan",,31.711216,118.648913,162,90,4,5,1,8,23,23,1009,100,3,20140905190000
805,"Cihu No.2 elementary school, Maanshan",,31.748546,118.515729,211,97,177,13,8,11,23,23,1009,100,3,20140905190000
806,"Maanshan steel factory power plant, Maanshan",,31.690864,118.48528,180,121,18,6,8,14,23,23,1009,100,3,20140905190000
807,Maanshan,,31.668461,118.511939,211,121,183,15,9,14,23,23,1009,100,3,20140905190000
808,"Science Innovation Center, Wuhu",,31.417056,118.375406,175,100,9,5,3,16,23,22,1009,94,2,20140905190000
809,"No.4 Water Plant, Wuhu",,31.315914,118.376231,182,93,27,14,2,18,23,22,1009,94,2,20140905190000
810,"Monitoring station, Wuhu",,31.348955,118.358154,176,95,20,7,3,10,23,23,1009,100,3,20140905190000
811,"Wuqierling Factory, Wuhu",,31.382068,118.407639,169,100,19,5,7,10,23,22,1009,94,2,20140905190000
812,Wuhu,,31.351007,118.438322,182,100,27,14,7,18,23,22,1009,94,2,20140905190000
1331,Chuzhou,,32.299549,118.322508,-,-,-,-,-,-,-,22,0,-,-,20140905190000
813,"Jiangxi Foreign Affairs Office, Nanchang",,28.678027,115.903436,155,71,11,23,21,5,23,22,1009,87,2,20140905190000
814,"Provincial forestry company, Nanchang",,28.69065,115.898546,152,71,13,31,10,8,23,22,1009,87,2,20140905190000
815,"Institute of Forestry, Nanchang",,28.731518,115.82478,124,65,20,16,12,8,23,22,1009,87,2,20140905190000
816,"Jingdong town government, Nanchang",,28.680659,115.972736,167,100,15,36,21,9,23,22,1009,87,2,20140905190000
817,"Contruction Industry College, Nanchang",,28.684018,115.865891,137,69,8,37,18,12,23,22,1009,87,2,20140905190000
818,"Xianghu, Nanchang",,28.637831,115.9033,165,102,7,33,25,9,23,22,1009,87,2,20140905190000
819,"Martial Arts School, Nanchang",,28.794538,115.752876,50,27,8,3,5,7,23,22,1009,87,2,20140905190000
820,"Petrifaction Company, Nanchang",,28.608634,115.912999,107,104,12,6,6,14,23,22,1009,87,2,20140905190000
821,"Provincial Station, Nanchang",,28.677155,115.941896,147,91,15,22,1,11,23,22,1009,87,2,20140905190000
822,Nanchang,,28.679883,115.863022,167,102,20,37,25,13,23,22,1009,87,2,20140905190000
823,"Lushan Mountain Observatory, Jiujiang",,29.5751,115.998926,38,12,38,4,2,1,18,11,1011,54,2,20140905190000
824,"Shili, Jiujiang",,29.668119,115.992381,144,62,11,17,8,10,18,11,1011,54,2,20140905190000
825,"Maoshantou, Jiujiang",,29.700819,115.967192,127,72,12,19,11,9,18,11,1011,54,2,20140905190000
826,"Xiyuan, Jiujiang",,29.723929,115.998206,137,95,10,35,13,8,18,11,1011,54,2,20140905190000
827,"Wuqierling Factory, Jiujiang",,29.640802,116.022713,91,44,23,4,7,2,18,11,1011,54,2,20140905190000
828,"Water Scientific Research Institute, Jiujiang",,29.679179,116.068081,159,71,12,9,41,7,18,11,1011,54,2,20140905190000
829,"Zonghe Industrial Park, Jiujiang",,29.592047,115.916335,95,51,19,10,6,3,18,11,1011,54,2,20140905190000
830,"Petrochemical General Plant, Jiujiang",,29.738832,116.09463,160,107,12,32,33,8,18,11,1011,54,2,20140905190000
831,Jiujiang,,29.70254,116.007025,160,107,23,35,33,10,18,11,1011,54,2,20140905190000
1332,"Feiyu, Xinyu",,27.844697,115.000136,134,68,12,9,10,,23,,1009,92,1,20140905190000
1333,"Beigang, Xinyu",,27.932491,115.103767,93,53,11,2,6,,23,,1009,92,1,20140905190000
1334,"No.2 water factory, Xinyu",,27.839577,114.933915,134,63,6,18,12,,23,,1009,92,1,20140905190000
1335,"Bureau of Meteorology, Xinyu",,27.81048,114.936507,134,73,23,0,10,,23,,1009,92,1,20140905190000
1336,Xinyu,,27.814351,114.922194,134,68,12,9,14,13,23,22,1009,92,1,20140905190000
832,"Tobacco Factory, Zhengzhou",,34.753419,113.687131,104,54,29,12,5,11,20,18,1011,88,1,20140905190000
833,"Textile Machinery Factory, Zhengzhou",,34.773366,113.647067,132,64,10,13,8,12,20,18,1011,88,1,20140905190000
834,"Banking College, Zhengzhou",,34.800856,113.681126,95,70,32,20,12,8,20,18,1011,88,1,20140905190000
835,"Water Supply Company, Zhengzhou",,34.807188,113.571089,134,82,23,33,10,13,20,18,1011,88,1,20140905190000
836,"Economic Development Zone Management Committee, Zhengzhou",,34.717652,113.733182,139,109,15,38,6,6,20,18,1011,88,1,20140905190000
837,"No. 47 middle school, Zhengzhou",,34.772211,113.74009,119,74,9,20,7,5,20,18,1011,88,1,20140905190000
838,"City Monitoring Station, Zhengzhou",,34.748404,113.60514,107,73,28,18,4,9,20,18,1011,88,1,20140905190000
839,"Henan Medical University, Zhengzhou",,34.752637,113.641658,132,92,16,23,8,5,20,18,1011,88,1,20140905190000
840,"Gangli Reservoir, Zhengzhou",,34.952652,113.64248,127,64,49,13,13,7,25,15,1008,54,2,20140905190000
841,Zhengzhou,,34.745417,113.631415,132,92,28,23,8,9,-,-,0,-,-,20140905190000
842,"Henan University No.1 Hospital, Kaifeng",,34.799302,114.352706,165,83,43,10,11,14,20,18,1011,88,1,20140905190000
843,"Maternity And Child Hospital, Kaifeng",,34.795803,114.386103,162,104,26,15,9,25,20,18,1011,88,1,20140905190000
844,"Cancer Hospital, Kaifeng",,34.775428,114.350292,167,78,29,22,39,3,20,18,1011,88,1,20140905190000
845,"Yellow River Conservancy Institute, Kaifeng",,34.826066,114.324772,-,-,-,-,-,-,-,-,0,-,-,20140905190000
846,"Shijixing Kindergarden, Kaifeng",,34.793606,114.302744,153,61,32,10,13,14,20,18,1011,88,1,20140905190000
847,Kaifeng,,34.796346,114.313426,167,83,43,22,39,14,20,18,1011,88,1,20140905190000
852,Jiaozuo,,35.215381,113.248188,109,60,26,14,7,8,20,18,1011,88,1,20140905190000
853,"Cotton Research Institute, Anyang",,36.081435,114.486451,127,59,26,2,13,5,22,16,1010,59,1,20140905190000
