locationid,stationname,chinesename,latitude,longitude,pm25,pm10,o3,no2,so2,co,temperature,dewpoint,pressure,humidity,wind,est_time
1,Dongcheng Dongsi,,39.9304,116.423239,76,119,65,14,2,7,21,19,1005,88,3,20140809170000
2,"Temple of Heaven, Dongcheng",,39.887403,116.41324,40,15,95,11,2,6,21,19,1005,88,3,20140809170000
3,West Park officials,,39.930333,116.345162,66,74,83,12,2,7,21,19,1005,88,3,20140809170000
4,West Wanshou Nishinomiya,,39.879354,116.358183,55,19,82,14,2,7,21,19,1005,88,3,20140809170000
5,Chaoyang Olympic Sports Center,,39.983406,116.403253,48,5,73,14,2,4,21,19,1005,88,3,20140809170000
6,Chaoyang Agricultural Exhibition Hall,,39.938331,116.46715,56,20,111,14,2,7,21,19,1005,88,3,20140809170000
7,Haidian Wanliu,,39.988245,116.293062,65,30,50,18,4,5,21,19,1005,88,3,20140809170000
8,The Haidian northern New Area,,40.091313,116.180194,51,10,69,9,4,6,21,19,1005,88,3,20140809170000
9,Haidian Beijing Botanical Garden,,40.003252,116.213097,39,5,105,3,2,6,21,19,1005,88,3,20140809170000
10,Fengtai garden,,39.86423,116.285037,54,54,75,11,2,6,21,19,1005,88,3,20140809170000
11,Fengtai Yungang,,39.82535,116.152237,50,52,69,26,2,6,21,19,1005,88,3,20140809170000
12,Shijingshan city,,39.915286,116.190144,62,29,97,14,2,6,21,19,1005,88,3,20140809170000
13,"Fangshan, Liangxiang",,39.743357,116.14225,58,117,45,10,2,6,21,19,1005,88,3,20140809170000
14,"Huangcunzhen, Daxing",,39.719389,116.410219,43,59,91,15,2,6,21,19,1005,88,3,20140809170000
15,BDA,,39.796197,116.51197,64,110,129,13,2,7,21,19,1005,88,3,20140809170000
16,Tongzhou New Town,,39.887113,116.6689,70,121,91,16,2,6,21,19,1005,88,3,20140809170000
17,Shunyi New Town ,,40.128111,116.660908,95,76,116,13,2,7,21,19,1005,88,3,20140809170000
18,Changping Town,,40.218245,116.236084,59,6,91,10,2,6,21,19,1005,88,3,20140809170000
19,"Mentougou, Longquan Town",,39.938397,116.112323,44,12,83,9,2,7,21,19,1005,88,3,20140809170000
20,Pinggu town,,40.144433,117.106563,165,59,83,7,2,7,21,19,1005,88,3,20140809170000
21,Huairou town,,40.329104,116.63387,63,42,138,3,2,7,21,19,1005,88,3,20140809170000
22,The town of Miyun,,40.371186,116.838053,80,70,133,6,2,7,21,19,1005,88,3,20140809170000
23,Yanqing town,,40.454217,115.978106,35,-,95,6,2,5,21,19,1005,88,3,20140809170000
24,Changping Dingling,,40.293269,116.226108,50,24,100,4,2,6,21,19,1005,88,3,20140809170000
25,Badaling Northwest,,40.36623,115.994146,25,6,63,30,2,7,21,19,1005,88,3,20140809170000
26,Miyun Reservoir,,40.500157,116.91701,102,-,142,1,2,7,21,19,1005,88,3,20140809170000
27,"Donggaocun Zhen, Pinggu",,40.10142,117.126556,113,59,101,9,2,5,21,19,1005,88,3,20140809170000
28,"Yongledianzhen, Tongzhou",,39.713192,116.78905,109,99,43,13,2,6,21,19,1005,88,3,20140809170000
29,"Yufazhen, Daxing",,39.521203,116.306026,60,27,50,6,2,7,21,19,1005,88,3,20140809170000
30,"Liulihezhen, Fangshan",,39.581169,116.006089,57,43,50,14,10,4,21,19,1005,88,3,20140809170000
31,"Qianmen E St, Dongcheng",,39.900402,116.401242,60,119,19,26,2,7,21,19,1005,88,3,20140809170000
32,Yongdingmen Inner St,,39.877401,116.400238,52,108,67,22,2,7,21,19,1005,88,3,20140809170000
33,Xizhimen N St,,39.955352,116.355187,66,5,45,24,2,6,21,19,1005,88,3,20140809170000
34,South Ring Road,,39.857377,116.37421,75,38,31,43,3,8,21,19,1005,88,3,20140809170000
35,East Fourth Ring Road,,39.940273,116.489075,61,20,55,19,2,8,21,19,1005,88,3,20140809170000
36,Beijing,,39.955906,116.474246,61,20,111,14,2,7,21,19,1005,88,3,20140809170000
37,Putuo,,31.232979,121.415378,110,45,8,27,10,6,26,25,1003,94,2,20140809170000
38,Yangpu Sipiao,,31.263795,121.540311,110,51,18,24,6,2,26,25,1003,94,2,20140809170000
39,Shanghai Normal College Primary Division,,31.199031,121.487719,137,50,7,33,3,10,26,25,1003,94,2,20140809170000
40,Dianshan Lake,,31.091338,120.982293,135,60,23,21,8,8,26,25,1003,94,2,20140809170000
41,Hongkou Liangcheng,,31.298906,121.47155,92,41,11,25,5,7,26,25,1003,94,2,20140809170000
42,Jingan,,31.224251,121.429637,120,44,9,29,5,9,26,25,1003,94,2,20140809170000
43,Shanghai Normal University,,31.163531,121.416643,134,46,8,33,4,7,26,25,1003,94,2,20140809170000
44,Chuansha,,31.188626,121.707342,38,35,11,21,5,6,26,25,1003,94,2,20140809170000
45,Zhangjiang,,31.204896,121.581215,137,50,11,32,3,6,26,25,1003,94,2,20140809170000
46,Lingshan Road,,31.226286,121.537317,104,37,12,22,6,6,26,25,1003,94,2,20140809170000
1080,City average,,31.228451,121.478227,118,44,11,27,5,6,26,25,1003,94,2,20140809170000
47,Shanghai,,31.202842,121.453493,137,50,9,33,5,10,26,24,1003,89,1,20140809170000
48,Guangzhou,,23.138517,113.263701,82,26,22,19,11,8,30,26,1005,79,2,20140809170000
49,"Huadu town, Guangzhou",,23.389121,113.220062,93,38,31,18,8,8,30,26,1005,79,2,20140809170000
50,"Luogang Zhenlong, Guangzhou",,23.308027,113.567032,82,40,17,16,6,16,30,26,1005,79,2,20140809170000
51,"LuHu, Guangzhou",,23.151743,113.281842,78,26,22,15,9,6,30,26,1005,79,2,20140809170000
52,"Tianhu, Guangzhou",,23.647433,113.629715,55,37,58,12,12,5,30,26,1005,79,2,20140809170000
53,"Zhudong, Guangzhou",,23.418406,113.078552,102,51,42,24,17,8,30,26,1005,79,2,20140809170000
54,"Modiesha station, Guangzhou",,23.103814,113.338238,25,28,15,15,5,8,30,26,1005,79,2,20140809170000
55,Zhuhai,,22.225269,113.304202,46,34,25,13,3,10,29,26,1005,84,6,20140809170000
1075,"Huicai technical school, Foshan",,23.039667,113.105492,46,15,24,6,7,5,30,26,1005,79,2,20140809170000
56,"Sanshuiyun donghai, Foshan",,23.185788,112.865368,55,18,22,6,8,5,30,26,1005,79,2,20140809170000
57,"Nanhai Bureau of Meteorology, Foshan",,23.046836,113.145764,55,14,21,10,3,7,30,26,1005,79,2,20140809170000
58,"Sanshui Monitoring Station, Foshan",,23.163551,112.890843,59,18,22,6,10,6,30,26,1005,79,2,20140809170000
1087,Foshan,,22.999349,113.110189,55,15,24,10,7,7,30,26,1005,79,2,20140809170000
59,"Ronggui street committee, Shunde",,22.762729,113.258356,63,24,19,10,12,12,30,26,1005,79,3,20140809170000
60,Shunde,,22.806658,113.293112,63,24,19,10,18,12,30,26,1005,79,3,20140809170000
61,"Donghu, Jiangmen",,22.590411,113.087351,30,8,18,6,3,4,29,26,1005,84,5,20140809170000
62,"Taoyuan Atmosphere Premier Station, Jiangmen",,22.72489,112.93404,42,16,21,2,2,6,29,26,1005,84,7,20140809170000
63,Jiangmen,,22.604218,113.109062,38,13,18,6,8,10,29,26,1005,84,5,20140809170000
64,"Kengkouzi station, Zhaoqing",,23.158865,112.570287,5,20,25,5,4,6,30,26,1005,79,2,20140809170000
65,"Mugangzi station, Zhaoqing",,23.067961,112.431934,68,30,21,4,6,6,30,26,1005,79,2,20140809170000
66,"Qixingyanzi station, Zhaoqing",,23.075974,112.477437,-,-,14,-,-,11,-,-,0,-,-,20140809170000
67,Zhaoqing,,23.050167,112.476039,68,30,25,8,6,6,30,26,1005,79,2,20140809170000
68,"Jinguo Bay, Huizhou",,22.937223,114.385567,42,30,24,18,5,5,29,27,1005,89,7,20140809170000
1091,"Xiabu, Huizhou",,23.077493,114.410275,65,35,24,22,4,4,29,27,1005,89,7,20140809170000
69,"Xijiao, Huizhou",,23.338178,114.112867,76,31,46,8,2,4,30,27,1005,84,7,20140809170000
70,"Jiangbei, Huizhou",,23.111706,114.415274,61,50,26,25,4,6,29,27,1005,89,7,20140809170000
71,"Huiyang chuanhu, Huizhou",,22.814485,114.329292,59,21,17,10,6,6,29,27,1005,89,7,20140809170000
72,"Daya bay management committee, Huizhou",,22.739283,114.53631,57,49,11,17,6,4,29,27,1005,89,7,20140809170000
73,Huizhou,,23.079716,114.410253,70,50,26,25,5,6,29,27,1005,89,7,20140809170000
74,"Guancheng No.2 water plant, Dongguan",,23.057294,113.753254,59,18,22,11,9,6,29,27,1005,89,7,20140809170000
75,"Dongcheng Shijing, Dongguan",,23.010039,113.799529,50,14,23,7,4,5,29,27,1005,89,7,20140809170000
76,"Nancheng Xiping, Dongguan",,22.963051,113.743494,57,25,21,8,4,4,29,27,1005,89,7,20140809170000
77,"Nancheng Yuanling, Dongguan",,23.025058,113.751308,59,21,20,7,8,6,29,27,1005,89,7,20140809170000
78,Dongguan,,23.050873,113.787057,63,28,23,11,9,6,29,27,1005,89,7,20140809170000
79,"Zimaling, Zhongshan",,22.505112,113.407183,30,17,16,1,7,8,29,26,1005,84,6,20140809170000
80,"Yangtze River tourist area, Zhongshan",,22.48589,113.439054,34,11,21,3,3,7,29,26,1005,84,6,20140809170000
81,"Huabai Park, Zhongshan",,22.51839,113.374362,38,14,9,6,4,12,29,26,1005,84,6,20140809170000
82,Zhongshan,,22.545387,113.370459,38,19,21,6,7,12,29,26,1005,84,6,20140809170000
83,"No.8 middle school, Shaoguan",,24.767777,113.583537,109,56,38,21,13,8,30,24,1004,64,2,20140809170000
83,"No.8 middle school, Shaoguan",,24.767777,113.583537,109,56,38,21,13,8,30,24,1004,64,2,20140809170000
84,"Forest area, Shaoguan",,24.796106,113.612131,132,63,48,15,17,11,30,24,1004,64,2,20140809170000
84,"Forest area, Shaoguan",,24.796107,113.612131,132,63,48,15,17,11,30,24,1004,64,2,20140809170000
86,"Shaoguan University, Shaoguan",,24.790864,113.646598,124,51,49,11,12,3,30,24,1004,64,2,20140809170000
86,"Shaoguan University, Shaoguan",,24.790864,113.646599,124,51,49,11,12,3,30,24,1004,64,2,20140809170000
88,"Qujiang Monitoring Station, Shaoguan",,24.683042,113.60157,109,52,37,18,12,10,30,24,1004,64,2,20140809170000
88,"Qujiang Monitoring Station, Shaoguan",,24.683042,113.60157,109,52,37,18,12,10,30,24,1004,64,2,20140809170000
89,Shaoguan,,24.807342,113.602712,132,63,53,21,21,11,30,24,1004,64,2,20140809170000
90,"Chaonanzi Station, Shantou",,23.251213,116.406762,63,19,30,4,9,9,30,26,1005,79,2,20140809170000
91,Shantou,,23.350642,116.686306,65,30,27,6,9,9,30,26,1005,79,2,20140809170000
92,"City Environmental Monitoring Station, Zhanjiang",,21.220431,110.397317,30,38,7,6,6,4,28,25,1006,77,2,20140809170000
93,"EPB Dormitory, Zhanjiang",,21.197376,110.406487,42,21,7,6,2,5,28,25,1006,77,2,20140809170000
94,"Xiashan Swimming Park, Zhanjiang",,21.200431,110.415655,30,20,9,6,46,5,28,25,1006,77,2,20140809170000
95,"Zhanjiang Theatre, Zhanjiang",,21.268177,110.366445,46,33,4,5,4,4,28,25,1006,77,2,20140809170000
96,"Mazhang EPA, Zhanjiang",,21.265486,110.335993,21,16,17,3,4,12,28,25,1006,77,2,20140809170000
97,"Potou District EPB, Zhanjiang",,21.247604,110.454508,149,69,16,7,2,4,28,25,1006,77,2,20140809170000
98,Zhanjiang,,21.26832,110.363883,149,69,17,7,46,12,28,25,1006,77,2,20140809170000
99,"Maogang sub-office EPB, Maoming",,21.466435,111.033462,34,20,20,2,3,4,28,25,0,83,4,20140809170000
100,"Petrochemical No. 7 elementaty school, Maoming",,21.648905,110.937861,38,21,19,4,6,8,28,25,0,83,4,20140809170000
101,"Jiankang road, Maoming",,21.662211,110.909482,34,27,16,2,4,8,28,25,0,83,4,20140809170000
102,"Gaoling, Maoming",,21.690558,110.871146,34,31,13,8,9,11,28,25,0,83,4,20140809170000
1094,Maoming,,21.660223,110.929968,38,31,19,8,9,11,28,25,0,83,4,20140809170000
103,"Jiaying University, Meizhou",,24.325415,116.12816,80,40,41,2,4,7,30,26,1005,79,2,20140809170000
104,"Mexian new town, Meizhou",,24.269283,116.084546,91,40,42,6,4,8,30,26,1005,79,2,20140809170000
105,"Environmental Monitoring Center, Meizhou",,24.262778,116.129621,93,43,41,5,5,7,30,26,1005,79,2,20140809170000
1095,Meizhou,,24.285988,116.127065,93,43,42,6,5,8,30,26,1005,79,2,20140809170000
106,"City EPA, Shanwei",,22.772349,115.370227,38,16,20,4,4,8,29,28,1006,94,3,20140809170000
107,"City government, Shanwei",,22.787161,115.375536,34,30,22,4,4,7,29,28,1006,94,3,20140809170000
108,"Xincheng Middle School, Shanwei",,22.789851,115.367124,59,16,22,6,4,4,29,28,1006,94,3,20140809170000
1099,Shanwei,,22.783576,115.38022,59,30,22,6,4,8,29,28,1006,94,3,20140809170000
109,"No.3 elementary school, Heyuan",,23.755946,114.699091,61,34,40,11,1,8,29,25,1005,69,2,20140809170000
109,"No.3 elementary school, Heyuan",,23.75435,114.703514,61,34,40,11,1,8,29,25,1005,69,2,20140809170000
111,"City water company, Heyuan",,23.688709,114.954652,89,34,47,12,17,7,29,25,1005,69,2,20140809170000
111,"City water company, Heyuan",,23.754246,114.682459,89,34,47,12,17,7,29,25,1005,69,2,20140809170000
113,"Heyuan high school, Heyuan",,23.720037,114.699563,87,44,46,9,7,7,29,25,1005,69,2,20140809170000
113,"Heyuan high school, Heyuan",,23.720666,114.693879,87,44,46,9,7,7,29,25,1005,69,2,20140809170000
115,Heyuan,,23.740888,114.705147,89,44,47,12,17,8,29,25,1005,69,2,20140809170000
116,"Yuanyang Lake, Yangjiang",,21.855869,111.983676,50,15,24,4,2,7,28,24,1006,72,5,20140809170000
1100,Yangjiang,,21.855227,111.987308,53,24,24,4,2,8,28,24,1006,72,5,20140809170000
118,"Town governement, Qingyuan",,23.708005,113.026215,25,14,21,12,11,8,30,26,1005,79,3,20140809170000
119,"Fupin district, Qingyuan",,23.624781,113.067713,59,15,20,14,8,8,30,26,1005,79,3,20140809170000
119,"Fupin district, Qingyuan",,24.185415,113.419369,59,15,20,14,8,8,30,26,1005,79,3,20140809170000
121,"Environment protection office, Qingyuan",,23.685931,113.053239,68,30,22,9,11,9,30,26,1005,79,3,20140809170000
121,"Environment protection office, Qingyuan",,23.691109,113.047948,68,30,22,9,11,9,30,26,1005,79,3,20140809170000
123,"Fengcheng Subdistrict, Qingyuan",,23.695447,113.068189,25,14,21,12,11,8,30,26,1004,79,2,20140809170000
124,Qingyuan,,23.679304,113.061513,68,30,22,14,11,9,30,26,1005,79,3,20140809170000
125,"Xiyuan Road, Chaozhou",,23.668654,116.638272,114,43,21,9,14,18,30,26,1005,79,2,20140809170000
126,"Archives Bureau, Chaozhou",,23.667881,116.649104,112,44,22,7,6,19,30,26,1005,79,2,20140809170000
127,"Municipal Corporation, Chaozhou",,23.65035,116.621859,102,51,27,7,15,19,30,26,1005,79,2,20140809170000
1101,Chaozhou,,23.654204,116.626969,114,51,27,9,15,19,30,26,1005,79,2,20140809170000
128,"Donghu Park, Jieyang",,23.532877,116.374427,87,34,29,3,10,9,30,26,1005,79,2,20140809170000
129,"Yuhu Middle School, Jieyang",,23.52682,116.414123,85,33,28,22,13,9,30,26,1005,79,2,20140809170000
130,"Experimental Primary School, Jieyang",,23.571473,116.364137,74,33,32,6,6,9,30,26,1005,79,2,20140809170000
1102,Jieyang,,23.547596,116.37754,87,34,32,22,13,9,30,26,1005,79,2,20140809170000
131,"City Environmental Monitoring Station, Yunfu",,22.936779,112.042248,53,21,18,1,3,12,30,26,1005,79,2,20140809170000
132,"The new city government headquarters, Yunfu",,22.914275,112.044475,53,20,21,3,4,10,30,26,1005,79,2,20140809170000
133,"Muyang police sub-station, Yunfu",,22.951267,112.05923,72,24,20,11,6,5,30,26,1005,79,2,20140809170000
1103,Yunfu,,22.912436,112.049811,72,24,21,11,6,12,30,26,1005,79,2,20140809170000
134,Yantian,,22.587949,114.266899,38,14,28,8,3,5,29,27,1005,89,7,20140809170000
135,Kwai Chung,,22.354168,114.134558,53,20,14,19,4,10,29,27,1005,89,7,20140809170000
135,Kwai Chung,,22.572837,113.867166,53,20,14,19,4,10,29,27,1005,89,7,20140809170000
135,Kwai Chung,,22.627947,114.428875,53,20,14,19,4,10,29,27,1005,89,7,20140809170000
137,Nanyou,,22.513802,113.928051,42,11,27,13,14,4,29,27,1005,89,7,20140809170000
138,Meisha,,22.59611,114.318345,53,18,5,16,5,11,29,27,1005,89,7,20140809170000
139,Xi xiang,,22.717524,114.252304,42,17,13,15,3,7,29,27,1005,89,7,20140809170000
140,Liyuan,,22.54732,114.101205,46,14,9,13,2,6,29,27,1005,89,7,20140809170000
1072,Kwai Chung,,22.354168,114.134558,46,10,14,17,3,13,29,27,1005,89,7,20140809170000
1072,Kwai Chung,,22.627947,114.428875,46,10,14,17,3,13,29,27,1005,89,7,20140809170000
141,OCT,,22.539549,113.992458,38,20,14,13,3,14,29,27,1005,89,7,20140809170000
142,Honghu,,22.559647,114.121976,50,26,13,15,2,4,29,27,1005,89,7,20140809170000
143,Mission Hills,,22.694131,114.050496,38,37,14,12,3,9,29,27,1005,89,7,20140809170000
144,Shenzhen,,22.540382,114.062982,53,37,28,19,14,14,29,27,1005,89,7,20140809170000
145,Chengdu,,30.622581,104.069564,129,59,18,41,4,13,23,21,1006,88,1,20140809170000
146,"Jinquan lianghe, Chengdu",,30.710359,103.974209,117,52,7,18,2,12,23,21,1006,88,1,20140809170000
147,"Shilidian, Chengdu",,30.684718,104.17845,119,61,10,31,3,11,23,21,1006,88,1,20140809170000
148,"Sanwayao, Chengdu",,30.568159,104.081524,-,-,15,21,3,-,-,-,0,-,-,20140809170000
149,"Shahepu, Chengdu",,30.633685,104.120536,85,46,8,19,2,12,23,21,1006,88,1,20140809170000
150,"Liang Lane, Chengdu",,30.682601,104.076522,104,55,16,38,2,12,23,21,1006,88,1,20140809170000
151,"Caotang Temple, Chengdu",,30.651891,104.0284,99,58,8,26,4,14,23,21,1006,88,1,20140809170000
152,"Lingyansi, Chengdu",,31.025729,103.615022,70,31,22,19,13,3,23,21,1006,88,1,20140809170000
153,"Fuleshan, Mianyang",,31.472493,104.7806,70,31,16,15,7,8,26,22,1003,74,3,20140809170000
154,"High-tech Zone Water Company, Mianyang",,31.463309,104.674293,-,-,-,-,-,-,-,-,0,-,-,20140809170000
155,"No.3 water company, Mianyang",,31.505002,104.731054,112,57,14,22,6,6,26,22,1003,74,3,20140809170000
156,Mianyang,,31.465174,104.681731,112,57,19,22,8,9,27,21,1003,61,2,20140809170000
157,"Dongshan Park, Deyang",,31.118648,104.424587,42,18,21,3,2,8,23,21,1006,88,1,20140809170000
158,"Xixiaoqu, Deyang",,31.131159,104.390972,42,27,14,13,6,7,23,21,1006,88,1,20140809170000
159,"City Procuratorate, Deyang",,31.114554,104.407986,65,15,23,14,11,9,23,21,1006,88,1,20140809170000
160,"Refractory Factory, Deyang",,31.108606,104.356506,13,35,16,8,11,4,23,21,1006,88,1,20140809170000
161,Deyang,,31.124715,104.400703,65,35,23,14,11,9,23,21,1006,88,1,20140809170000
162,"Nongnongping, Panzhihua",,26.566698,101.695438,65,32,15,11,1,10,24,19,0,71,1,20140809170000
163,"Hemenkou, Panzhihua",,26.589072,101.578312,102,56,20,9,18,10,24,19,0,71,1,20140809170000
164,"Bingcaogang, Panzhihua",,26.58143,101.718473,107,68,11,22,4,12,24,19,0,71,1,20140809170000
165,"Renhe, Panzhihua",,26.498166,101.746887,55,24,15,6,2,11,24,19,0,71,1,20140809170000
166,"Jinjina, Panzhihua",,26.553226,101.84862,72,65,10,9,63,15,24,19,0,71,1,20140809170000
167,Panzhihua,,26.578779,101.720211,107,68,20,22,18,15,24,19,0,71,1,20140809170000
168,"Shima Middle School, Yibin",,28.815979,104.599199,46,22,24,15,15,6,25,20,1005,68,0,20140809170000
169,"Municipal party committee, Yibin",,28.762654,104.624834,85,33,17,11,3,10,25,20,1005,68,0,20140809170000
170,"No. 4 middle school, Yibin",,28.783257,104.608407,91,42,18,15,6,5,25,20,1005,68,0,20140809170000
171,"City government, Yibin",,28.760477,104.644079,50,21,23,12,17,7,25,20,1005,68,0,20140809170000
172,"Huangjinzui, Yibin",,28.712319,104.578389,59,33,27,20,5,7,25,20,1005,68,0,20140809170000
173,"Shaping Middle School, Yibin",,28.795569,104.681393,30,12,20,15,6,3,25,20,1005,68,0,20140809170000
174,Yibin,,28.748384,104.645766,91,42,27,20,17,10,25,20,1005,68,0,20140809170000
175,"Datang Hill, Zigong",,29.359969,104.757388,109,57,20,8,5,15,22,20,1001,92,1,20140809170000
176,"Yanma Road, Zigong",,29.355752,104.724036,57,59,24,3,5,7,22,20,1001,92,1,20140809170000
177,"Tanmulin Street, Zigong",,29.353555,104.777397,80,20,19,7,8,5,22,20,1001,92,1,20140809170000
178,"Chunhua Road, Zigong",,29.33825,104.771895,91,44,16,6,10,8,22,20,1001,92,1,20140809170000
179,Zigong,,29.33617,104.781138,109,59,24,8,10,15,22,20,1001,92,1,20140809170000
180,"Jiushi Hill, Luzhou",,28.955347,105.434207,99,29,33,8,8,3,23,21,1001,89,1,20140809170000
181,"Xiaoshishang Port, Luzhou",,28.899583,105.447192,85,37,26,11,12,7,23,21,1001,89,1,20140809170000
182,"Lantianxian Bridge, Luzhou",,28.852766,105.4358,80,27,33,13,4,2,23,21,1001,89,1,20140809170000
183,"City Environment Monitoring Station, Luzhou",,28.895898,105.435802,74,41,27,14,1,4,23,21,1001,89,1,20140809170000
184,Luzhou,,28.868782,105.445938,99,41,35,14,12,7,23,21,1001,89,1,20140809170000
185,"City Committee, Nanchong",,30.799993,106.082906,46,20,13,10,11,6,24,24,1004,100,1,20140809170000
186,"Refinery Factory, Nanchong",,30.819412,106.10712,80,26,34,10,8,4,24,24,1004,100,1,20140809170000
187,"Gaoping District Monitoring Station, Nanchong",,30.783291,106.110417,59,26,26,9,14,6,24,24,1004,100,1,20140809170000
188,"Jialing District EPB, Nanchong",,30.761255,106.06818,65,15,11,10,3,9,24,24,1004,100,1,20140809170000
189,"City Environmental Monitoring Station, Nanchong",,30.836519,106.11272,91,21,6,9,11,4,24,24,1004,100,1,20140809170000
190,Nanchong,,30.835511,106.114717,91,33,49,18,14,9,24,24,1004,100,1,20140809170000
1249,"City Monitoring Station, Neijiang",,29.592673,105.036234,91,46,16,5,9,4,22,20,1001,92,1,20140809170000
1250,"Dongxing District Government , Neijiang",,29.592148,105.074966,102,42,14,11,7,6,22,20,1001,92,1,20140809170000
1251,"No 2 middle school, Neijiang",,29.579135,105.068548,102,42,15,12,9,5,22,20,1001,92,1,20140809170000
1252,Neijiang,,29.577653,105.06166,109,46,16,12,9,6,22,20,1001,92,1,20140809170000
1253,"City Monitoring Station, Suining",,30.610641,105.683583,68,28,24,6,1,3,23,22,0,96,1,20140809170000
1254,"Administrative center , Suining",,30.63206,105.819747,42,43,41,3,1,3,23,22,0,96,1,20140809170000
1255,Suining,,30.530053,105.596307,68,43,41,6,1,12,23,22,0,96,1,20140809170000
1256,"City Monitoring Station, Leshan",,29.560651,103.759211,74,41,10,17,7,10,21,20,0,92,0,20140809170000
1257,"Leshan Giant Buddha Scenic Area , Leshan",,29.543938,103.772706,80,48,14,11,6,9,21,20,0,92,0,20140809170000
1258,Leshan,,29.54935,103.767777,80,48,14,22,7,11,21,20,0,92,0,20140809170000
1259,"Heilongtan , Meishan",,30.047726,103.900649,78,31,16,6,1,5,23,21,1006,88,1,20140809170000
1260,"Bureau of Meteorology, Meishan",,30.084591,103.843715,119,49,12,5,9,6,23,21,1006,88,1,20140809170000
1261,"Xuguang Community , Meishan",,30.066277,103.8516,95,47,9,1,2,7,23,21,1006,88,1,20140809170000
1262,"City Monitoring Station, Meishan",,30.059205,103.836229,107,36,10,6,11,7,23,21,1006,88,1,20140809170000
1263,Meishan,,30.072618,103.85064,119,49,16,6,11,7,23,21,1006,88,1,20140809170000
1264,"Ziyang middle school, Ziyang",,30.147763,104.638024,122,55,19,9,1,6,22,20,1001,92,1,20140809170000
1265,Ziyang,,30.126054,104.63004,122,58,25,10,2,9,22,20,1001,92,1,20140809170000
191,Shenyang US Consulate,,41.785668,123.432865,68,66,45,19,55,6,21,16,1005,73,2,20140809170000
192,"Huishan, Shenyang",,41.835421,123.647773,102,59,44,13,7,6,21,16,1005,73,2,20140809170000
193,"Hunnan, Shenyang",,41.758263,123.540809,109,63,42,19,35,7,21,16,1005,73,2,20140809170000
194,"Zhangshi, Shenyang",,41.771679,123.289859,117,66,34,15,40,8,21,16,1005,73,2,20140809170000
195,"Artillery College, Shenyang",,41.835749,123.547799,63,80,76,22,11,6,21,16,1005,73,2,20140809170000
196,"Beiling, Shenyang",,41.849633,123.434146,102,58,38,14,17,8,21,16,1005,73,2,20140809170000
197,"Wenyi Road, Shenyang",,41.767444,123.416144,91,66,59,19,55,7,21,16,1005,73,2,20140809170000
198,"Xiaoheyan, Shenyang",,41.779828,123.484015,107,59,49,17,27,8,21,16,1005,73,2,20140809170000
199,"Taiyuan Street, Shenyang",,41.799646,123.406146,139,64,19,19,13,8,21,16,1005,73,2,20140809170000
200,"Ermao, Shenyang",,41.783011,123.366679,95,51,117,16,38,6,21,16,1005,73,2,20140809170000
201,"Liaoning University, Shenyang",,41.830704,123.361071,107,70,30,22,8,7,21,16,1005,73,2,20140809170000
202,Shenyang,,41.808126,123.437611,139,64,19,19,13,8,21,17,1005,78,2,20140809170000
1104,"wenhua street, Shenyang , Shenyang",,41.774139,123.441839,122,59,46,27,52,8,21,16,1005,73,2,20140809170000
1105,"Tanglin Road , Shenyang , Shenyang",,41.823665,123.562317,63,80,76,22,11,6,21,17,1005,78,2,20140809170000
203,"Ganjingzi, Dalian",,38.9747,121.616893,72,40,25,13,1,3,22,18,1006,78,2,20140809170000
204,"Zhoushuizi, Dalian",,38.951928,121.569981,61,33,26,22,3,5,22,18,1006,78,2,20140809170000
205,"Xinghai No 3 station, Dalian",,38.885779,121.568864,65,23,42,12,2,3,22,18,1006,78,2,20140809170000
206,"Qingniwa Bridge, Dalian",,38.91274,121.638018,57,27,28,26,1,5,22,18,1006,78,2,20140809170000
207,"Fujiazhuang, Dalian",,38.864647,121.629947,61,25,32,12,3,6,22,18,1006,78,2,20140809170000
208,"Qixianling, Dalian",,38.856978,121.523169,30,23,35,9,2,9,22,18,1006,78,2,20140809170000
209,"Lushun, Dalian",,38.808946,121.264063,61,28,18,4,1,4,22,18,1006,78,2,20140809180000
210,"Jinzhou, Dalian",,39.132192,121.753259,63,27,22,18,2,1,22,18,1006,78,2,20140809180000
211,"BDA, Dalian",,39.05213,121.782022,61,25,15,18,5,4,22,18,1006,78,2,20140809180000
212,"D&D Port, Dalian",,39.064087,121.981874,61,19,23,9,1,7,22,18,1006,78,2,20140809180000
213,Dalian,,38.91478,121.619625,61,27,32,26,3,6,22,18,1006,78,2,20140809180000
214,"Bearing Factory, Dandong",,40.068929,124.345703,80,55,27,12,10,8,22,14,1007,49,2,20140809180000
215,"Financial school, Dandong",,40.158723,124.432593,74,34,37,3,7,17,22,14,1007,49,2,20140809180000
216,"Yuanbaoshan water, Dandong",,40.149431,124.391698,74,36,36,4,10,14,22,14,1007,49,2,20140809180000
217,"Experimental Primary School, Dandong",,39.887343,124.158056,119,63,21,23,15,23,22,14,1007,49,2,20140809180000
218,Dandong,,40.002046,124.360479,119,61,35,22,12,23,22,14,1007,49,2,20140809180000
1106,"minzhu bridge, Dandong , Dandong",,40.112974,124.373604,119,61,17,22,11,23,22,14,1007,49,2,20140809180000
1107,"yuanbaoshan, Dandong , Dandong",,40.146298,124.399081,72,34,35,4,10,14,22,14,1007,49,2,20140809180000
1108,"linjiang houjie, Dandong , Dandong",,40.152757,124.431745,78,36,34,12,6,17,22,14,1007,49,2,20140809180000
219,"BDA, Panjin",,41.157144,122.06645,134,15,38,3,7,13,19,18,0,96,2,20140809180000
220,"Xinglongtai, Panjin",,41.140948,122.111343,68,38,35,6,10,6,19,18,0,96,2,20140809180000
221,"Dingxiang, Panjin",,41.16139,121.928781,82,30,41,3,6,4,19,18,0,94,3,20140809180000
222,Panjin,,41.122089,122.076206,134,38,39,6,10,13,19,18,0,96,2,20140809180000
223,"No.3 water company, Yingkou",,40.682052,122.385352,34,18,47,4,2,4,24,22,1006,85,2,20140809180000
224,"Yingkou University, Yingkou",,40.683689,122.388285,34,27,69,4,3,4,24,22,1006,85,2,20140809180000
225,"Botanical garden, Yingkou",,40.711674,122.281568,74,30,40,17,2,4,24,22,1006,85,2,20140809180000
226,Yingkou,,40.668578,122.24059,57,23,66,11,4,8,24,22,1006,85,2,20140809180000
1109,"jinghu west street, Yingkou , Yingkou",,40.653831,122.221943,34,17,46,4,2,5,24,22,1006,85,2,20140809180000
1110,"Daqing Road , Yingkou , Yingkou",,40.709181,122.28243,57,22,38,11,2,5,24,22,1006,85,2,20140809180000
227,"Xishanpo, Huludao",,40.724078,120.921974,156,57,60,3,6,3,19,18,0,94,3,20140809180000
228,"Huagong hospital, Huludao",,40.755662,120.848435,157,62,36,17,3,8,19,18,0,94,3,20140809180000
229,"New district park, Huludao",,40.723415,120.853801,82,53,34,16,2,4,19,18,0,94,3,20140809180000
230,"Lianshan district governement, Huludao",,40.775488,120.872292,122,61,43,27,8,2,19,18,0,94,3,20140809180000
231,Huludao,,40.712501,120.842107,161,70,40,21,8,8,-,-,0,-,-,20140809180000
1111,"Dongcheng District , Huludao , Huludao",,40.775362,120.871706,149,62,40,21,8,2,,,,,,20140809180000
1112,"huagong street, Huludao , Huludao",,40.758901,120.842935,161,70,33,12,2,8,,,,,,20140809180000
232,Anshan,,41.110466,123.000147,74,61,37,25,13,13,21,17,1005,78,2,20140809180000
233,"Qianshan Park, Anshan",,41.033486,123.143897,50,16,37,1,5,2,21,16,1005,73,2,20140809180000
234,"Tiexi, Anshan",,41.121636,122.97506,99,70,31,13,15,6,21,17,1005,78,2,20140809180000
235,"Taiping Station, Anshan",,41.153322,123.052433,68,39,29,6,7,13,21,16,1005,73,2,20140809180000
236,"Central Station, Anshan",,41.106731,123.002736,139,69,38,8,15,12,21,16,1005,73,2,20140809180000
237,"Shengou Temple, Anshan",,41.137157,123.031901,59,23,35,9,4,5,21,16,1005,73,2,20140809180000
1113,"Qianshan , Anshan , Anshan",,41.014521,123.122538,53,17,35,1,5,2,21,16,1005,73,2,20140809180000
1114,"Tiexi Sandao jie, Anshan",,41.103264,122.978613,74,49,27,13,16,7,21,16,1005,73,2,20140809180000
1115,"Taiyang, Anshan",,41.094946,123.019037,57,29,37,3,13,12,21,16,1005,73,2,20140809180000
238,Fushun,,41.883028,123.962984,152,78,47,33,39,12,21,17,1005,78,2,20140809180000
239,"Shenfu new town, Fushun",,41.804638,123.631684,152,70,39,25,39,8,21,16,1005,73,2,20140809180000
240,"Reservoir, Fushun",,41.8464,123.802857,144,59,49,19,8,11,21,16,1005,73,2,20140809180000
241,"Train Station, Fushun",,41.89726,124.017604,97,64,50,10,24,9,21,16,1005,73,2,20140809180000
242,"Dongzhou, Fushun",,41.855578,124.044738,151,61,57,12,28,11,21,16,1005,73,2,20140809180000
243,"Xinhua, Fushun",,41.888598,123.932932,153,89,41,40,9,11,21,16,1005,73,2,20140809180000
244,"Wanghua, Fushun",,41.888825,123.093723,172,85,75,14,50,13,21,16,1005,73,2,20140809180000
245,Benxi,,41.296267,123.772371,375,607,30,24,12,28,21,17,1005,78,2,20140809180000
246,"Weining, Benxi",,41.349663,123.826071,80,53,12,10,3,23,21,16,1005,73,2,20140809180000
247,"Occupational disease hospital, Benxi",,41.305432,123.74645,50,18,34,12,5,21,21,16,1005,73,2,20140809180000
248,"Dongming, Benxi",,41.292369,123.765058,97,46,21,23,12,28,21,16,1005,73,2,20140809180000
249,"Caitun, Benxi",,41.301591,123.746039,93,59,17,9,3,11,21,16,1005,73,2,20140809180000
250,"Xihu, Benxi",,41.331332,123.773537,375,607,28,24,1,12,21,16,1005,73,2,20140809180000
251,"Dayu, Benxi",,41.308091,123.818442,59,27,33,6,9,17,21,16,1005,73,2,20140809180000
1116,"Xinlitun , Benxi , Benxi",,41.264104,123.811523,50,16,30,11,5,21,21,16,1005,73,2,20140809180000
252,Jinzhou,,41.097169,121.132647,102,52,33,9,67,9,24,17,1006,59,5,20140809180000
253,"Beihu Park, Jinzhou",,41.141447,121.137339,74,28,43,8,5,5,24,17,1006,59,5,20140809180000
254,"Monitoring station, Jinzhou",,41.113441,121.140911,85,54,42,12,5,4,24,17,1006,59,5,20140809180000
255,"Nanshan, Jinzhou",,41.570689,122.046753,89,31,38,19,5,6,24,17,1006,59,5,20140809180000
1118,"BDA, Jinzhou",,40.853915,121.061756,102,52,33,9,67,9,24,17,1006,59,5,20140809180000
1119,"tianan street, Jinzhou , Jinzhou",,41.124468,121.126119,82,41,40,11,5,4,24,17,1006,59,5,20140809180000
1120,"baigu street, Jinzhou, Jinzhou",,41.12214,121.21027,93,53,32,21,5,4,24,17,1006,59,5,20140809180000
1121,Chaoyang,,41.576022,120.456053,78,44,54,6,4,27,-,-,0,-,-,20140809180000
472,"Fukang road, Tianjin",,39.098136,117.157621,151,87,38,19,10,9,26,20,1003,69,2,20140809180000
1122,"Agricultural Area, Chaoyang",,43.93968,125.247371,78,30,7,3,17,11,25,15,1004,43,3,20140809180000
1123,Tieling,,42.225197,123.732174,160,90,38,21,10,9,21,17,1005,78,2,20140809180000
260,"Waterpark, Tieling",,42.297031,123.880748,124,87,24,17,10,7,21,16,1005,73,2,20140809180000
1124,"Huigong Street West , Tieling , Tieling",,42.311115,123.845614,160,90,90,18,5,9,21,16,1005,73,2,20140809180000
1125,Liaoyang,,41.269312,123.24268,61,86,31,19,21,17,21,17,1005,78,2,20140809180000
1126,"Riverside Road , Liaoyang , Liaoyang",,41.176884,123.419859,70,57,42,10,12,10,21,16,1005,73,2,20140809180000
1127,Fuxin,,42.02373,121.675733,109,118,41,12,15,5,-,-,0,-,-,20140809180000
266,"Agricultural Area, Fuxin",,42.071291,121.696445,74,61,36,6,53,5,18,17,0,96,2,20140809180000
267,"Industrial Area, Fuxin",,42.041052,121.715554,109,54,32,12,9,5,18,17,0,96,2,20140809180000
1128,"Yulong Metro , Fuxin , Fuxin",,42.035091,121.666531,95,118,41,8,15,5,18,17,0,96,2,20140809180000
1129,"Dongyuan , Fuxin , Fuxin",,42.029119,121.681553,-,-,-,-,-,-,-,-,0,-,-,20140809180000
268,"City Monitoring Station, Jinan",,36.662614,117.054645,157,62,32,11,18,6,21,18,1007,78,1,20140809180000
269,"Shandong Institute of Economics, Jinan",,36.63819,117.074975,124,66,28,12,18,8,21,18,1007,78,1,20140809180000
270,"Quancheng Plaza, Jinan",,36.661711,117.027043,151,82,23,12,23,8,21,18,1007,78,1,20140809180000
271,"Kegansuo, Jinan",,36.611582,116.99384,114,62,26,12,15,8,21,18,1007,78,1,20140809180000
272,"Agriculture Science Institute, Jinan",,36.663115,116.95063,144,85,24,37,12,10,21,18,1007,78,1,20140809180000
273,"Lanxiang technical school, Jinan",,36.700421,116.95342,160,88,41,31,25,7,21,18,1007,78,1,20140809180000
274,"Chemical factory, Jinan",,36.687463,116.994406,95,72,24,33,14,6,21,18,1007,78,1,20140809180000
275,"Provincial Seed Warehouse, Jinan",,36.685706,117.066348,151,75,39,22,20,9,21,18,1007,78,1,20140809180000
276,"Shandong Architecture University, Jinan",,36.681732,117.191868,154,80,27,27,17,11,21,18,1007,78,1,20140809180000
277,"Baosheng cable company, Jinan",,36.724638,117.130855,154,95,28,33,8,6,21,18,1007,78,1,20140809180000
278,"Paomaling, Jinan",,36.47869,117.219027,153,59,49,6,19,10,21,18,1007,78,1,20140809180000
279,"Changqing District Communist Party School, Jinan",,36.548797,116.770859,152,67,25,27,17,11,21,18,1007,78,1,20140809180000
280,"BDA, Jinan",,36.685835,117.130851,147,74,33,33,15,9,21,18,1007,78,1,20140809180000
281,Jinan,,36.651426,117.126625,160,108,41,37,25,10,21,18,1007,78,1,20140809180000
282,"Shinan district No. 1, Qingdao",,36.065534,120.40839,97,49,31,28,8,3,22,20,1004,88,1,20140809180000
283,"Shibei district No. 1, Qingdao",,36.069919,120.341264,63,32,24,14,15,6,22,20,1004,88,1,20140809180000
284,"Shibei district No. 2, Qingdao",,36.104146,120.36637,55,38,34,17,6,6,22,20,1004,88,1,20140809180000
285,"Huangdao District No. 1, Qingdao",,35.958935,120.191041,89,71,26,17,12,4,22,20,1004,88,1,20140809180000
286,"Huangdao District No. 2, Qingdao",,35.970487,120.160339,63,99,8,1,6,6,22,20,1004,88,1,20140809180000
287,"Laoshan District No. 1, Qingdao",,36.085881,120.451839,102,49,13,28,16,7,22,20,1004,88,1,20140809180000
288,"Laoshan District No. 2, Qingdao",,36.091075,120.490388,59,28,45,21,9,5,22,20,1004,88,1,20140809180000
289,"Licang District No. 1, Qingdao",,36.184872,120.38533,55,70,13,24,16,5,22,20,1004,88,1,20140809180000
290,"Licang District No. 2, Qingdao",,36.154369,120.432287,78,58,24,28,8,4,22,20,1004,88,1,20140809180000
291,"Chengyang District No. 1, Qingdao",,36.308502,120.40008,127,57,4,22,11,6,22,20,1004,88,1,20140809180000
292,"Chengyang District No. 2, Qingdao",,36.308429,120.465806,63,33,26,12,7,3,22,20,1004,88,1,20140809180000
293,Qingdao,,36.067358,120.387773,102,71,38,28,16,7,22,20,1004,88,1,20140809180000
294,"Zichuan Meteo. Stations, Zibo",,36.637916,117.960222,157,83,43,21,30,11,19,17,0,88,2,20140809180000
295,"Dongfeng Chemical factory, Zibo",,36.838576,118.050785,154,118,24,62,111,22,19,17,0,88,2,20140809180000
296,"Boshan shuangshan, Zibo",,36.497278,117.853581,137,56,22,31,18,11,19,17,0,88,2,20140809180000
297,"Linzi Putian Park, Zibo",,36.820171,118.315022,168,131,46,49,64,20,19,17,0,88,2,20140809180000
298,"Qilu Petrochemical, Zibo",,36.765907,118.254967,161,98,39,39,53,17,19,17,0,88,2,20140809180000
299,"Zhoucun sanjin Group, Zibo",,36.8044,117.85694,157,60,63,17,15,21,19,17,0,88,2,20140809180000
300,"Vocational College, Zibo",,36.825208,117.926305,124,76,42,25,29,27,19,17,0,88,2,20140809180000
301,"BDA, Zibo",,36.905214,118.021824,132,91,22,33,31,13,19,17,0,88,2,20140809180000
302,Zibo,,36.813618,118.060948,160,118,47,62,111,22,19,17,0,88,2,20140809180000
303,"Shizhong District Government, Zaozhuang",,34.850397,117.569545,151,84,27,6,39,8,21,20,1007,92,1,20140809180000
304,"Sewage treatment plant, Zaozhuang",,34.818951,117.595345,168,80,22,15,59,6,21,20,1007,92,1,20140809180000
305,"Xuecheng EPA, Zaozhuang",,34.790214,117.272455,153,56,31,17,39,4,21,20,1007,92,1,20140809180000
306,"Yicheng District government, Zaozhuang",,34.772806,117.57647,160,82,27,20,53,3,21,20,1007,92,1,20140809180000
307,"Taierzhuang EPA, Zaozhuang",,34.579462,117.741067,137,62,18,13,11,6,21,20,1007,92,1,20140809180000
308,"Shanting EPA, Zaozhuang",,35.070373,117.457691,119,59,31,2,14,8,21,20,1007,92,1,20140809180000
309,"City EPA, Zaozhuang",,34.809466,117.320608,153,75,24,27,56,4,21,20,1007,92,1,20140809180000
310,"High-tech zone, Zaozhuang",,34.821779,117.363495,162,64,20,11,47,5,21,20,1007,92,1,20140809180000
311,Zaozhuang,,34.809693,117.329634,162,84,31,20,53,8,21,20,1007,92,1,20140809180000
312,"City EPA, Dongying",,37.432052,118.672871,91,58,44,17,28,9,22,20,0,83,2,20140809180000
313,"Vocational College, Dongying",,37.438653,118.630567,93,79,50,14,35,8,22,20,0,83,2,20140809180000
314,"Xianhe Oil Production Plant, Dongying",,37.442419,118.510222,176,134,101,12,32,7,22,20,0,83,2,20140809180000
315,"Gengjin village, Dongying",,37.445072,118.55839,149,80,43,9,33,8,22,20,0,83,2,20140809180000
316,"City environmental company, Dongying",,37.466599,118.508012,169,117,96,10,25,8,22,20,0,83,2,20140809180000
317,"Hekou  district, Dongying",,37.883786,118.522171,93,54,46,12,15,9,22,20,0,83,2,20140809180000
318,"BDA, Dongying",,37.435162,118.701827,87,57,45,17,19,9,22,20,0,83,2,20140809180000
319,Dongying,,37.435429,118.680434,176,134,101,17,35,9,22,20,0,83,2,20140809180000
320,"Bearing Factory, Yantai",,37.544126,121.376956,72,57,25,53,11,4,,,,,,20140809180000
321,"Xijiao Chemical Station, Yantai",,37.547148,121.323695,74,50,42,22,6,7,,,,,,20140809180000
322,"Fushan Monitoring Stations, Yantai",,37.472245,121.260116,95,-,28,6,2,7,,,,,,20140809180000
323,"Mouping EPA, Yantai",,37.376681,121.586509,72,31,22,12,5,5,,,,,,20140809180000
324,"Laishan EPA, Yantai",,37.478422,121.44829,61,30,31,13,10,4,,,,,,20140809180000
325,"Laishan Shengquan Industrial Park, Yantai",,37.4271,121.408386,65,57,32,24,11,4,,,,,,20140809180000
326,"China Agricultural University, Yantai",,37.423568,121.511838,46,54,31,20,10,4,,,,,,20140809180000
327,"BDA EPA, Yantai",,37.560827,121.257954,82,72,18,22,6,5,,,,,,20140809180000
329,"Dajijia, Yantai",,37.673849,121.071465,55,19,19,10,7,3,,,,,,20140809180000
330,Yantai,,37.464793,121.453142,95,57,40,53,17,7,23,19,0,76,2,20140809180000
331,"BDA, Weifang",,36.720022,119.054064,74,53,26,32,11,3,,,,,,20140809180000
332,"Business School, Weifang",,36.682442,119.105909,59,50,24,27,8,3,,,,,,20140809180000
333,"Hanting District, Weifang",,36.773484,119.199705,87,50,25,17,10,5,,,,,,20140809180000
334,"Gongda Company, Weifang",,36.657635,119.167266,80,57,23,13,5,4,,,,,,20140809180000
335,"City EPA, Weifang",,36.701272,119.16838,87,51,24,9,6,8,,,,,,20140809180000
336,"City Arbitration Committee, Weifang",,36.702422,119.145927,82,38,25,9,8,5,,,,,,20140809180000
337,"Xinhui Group, Weifang",,36.641581,119.11679,63,45,25,18,2,4,,,,,,20140809180000
338,"Jincheng Middle School, Weifang",,36.773611,119.115539,61,43,27,34,11,10,,,,,,20140809180000
339,Weifang,,36.707217,119.167638,87,53,27,34,11,10,22,20,0,83,2,20140809180000
340,"City Monitoring Station, Jining",,35.408443,116.623917,155,90,23,18,11,9,22,19,1006,78,2,20140809180000
1090,"Shengdi Hollidays Resort, Jining",,35.424746,116.699093,159,87,23,20,-,13,22,19,1006,78,2,20140809180000
341,"Sewage treatment plant, Jining",,35.364286,116.609177,166,77,19,14,10,6,22,19,1006,78,2,20140809180000
342,"Electrochemical Factory, Jining",,35.390473,116.552956,149,75,24,23,12,9,22,19,1006,78,2,20140809180000
343,"Rencheng BDA, Jining",,35.390484,116.662995,168,100,18,27,18,13,22,19,1006,78,2,20140809180000
344,"Agricultural School, Jining",,35.44235,116.601682,124,88,15,19,6,6,22,19,1006,78,2,20140809180000
345,"BDA Huojucheng, Jining",,35.436377,116.642953,158,83,26,19,28,11,22,19,1006,78,2,20140809180000
346,Jining,,35.414473,116.59239,168,100,26,27,28,13,22,19,1006,78,2,20140809180000
347,"Taishan monitoring station, Taian",,36.194362,117.159648,102,56,22,25,5,10,13,13,0,99,5,20140809180000
348,"Shandong Electric Power School, Taian",,36.176071,117.12413,104,54,29,24,5,10,13,13,0,99,5,20140809180000
349,"Population Education school, Taian",,36.194417,117.104131,91,65,30,5,5,9,13,13,0,99,5,20140809180000
350,"Houfeng company, Taian",,36.204863,117.19015,89,62,21,12,5,9,13,13,0,99,5,20140809180000
351,"Nongda new campus, Taian",,36.170179,117.165191,132,101,12,30,8,15,13,13,0,99,5,20140809180000
352,"Transportation technical school, Taian",,36.202126,117.047068,93,40,15,16,5,11,13,13,0,99,5,20140809180000
353,"ICT Technology, Taian",,36.116621,117.107458,99,79,20,20,7,13,13,13,0,99,5,20140809180000
354,Taian,,36.200502,117.093682,132,101,30,30,8,15,13,13,0,99,5,20140809180000
355,"City Environmental Monitoring Station, Weihai",,37.513939,122.067058,46,19,42,5,2,3,23,19,0,76,2,20140809180000
356,"Woodworking Factory, Weihai",,37.325455,122.160777,59,25,42,23,12,3,23,19,0,76,2,20140809180000
357,"Lantian Hotel, Weihai",,37.514641,122.146276,30,20,48,12,4,3,23,19,0,76,2,20140809180000
358,"Zhang village government, Weihai",,37.485561,122.049436,42,27,32,14,3,4,23,19,0,76,2,20140809180000
359,"Gao District Bank, Weihai",,37.534919,122.056294,46,20,42,8,8,3,23,19,0,76,2,20140809180000
360,"Huxia technical school, Weihai",,37.427951,122.130811,59,23,34,15,6,4,23,19,0,76,2,20140809180000
361,Weihai,,37.5141,122.125477,59,27,48,23,12,4,23,19,0,76,2,20140809180000
362,"City governement square, Rizhao",,35.4075,119.526008,57,28,25,7,6,3,22,21,1006,93,2,20140809180000
363,"Port Authority, Rizhao",,35.381297,119.55396,57,24,20,14,4,4,22,21,1006,93,2,20140809180000
364,"City Monitoring Station, Rizhao",,35.388683,119.496405,46,30,27,7,3,2,22,21,1006,93,2,20140809180000
365,"Professor Garden, Rizhao",,35.462161,119.574193,21,30,34,3,4,5,22,21,1006,93,2,20140809180000
366,"Vocational and Technical College, Rizhao",,35.441939,119.538187,46,20,32,4,4,2,22,21,1006,93,2,20140809180000
367,"Lanshan EPA branch, Rizhao",,35.293405,119.345716,142,64,16,25,9,6,22,21,1006,93,2,20140809180000
368,"Jinma Industrial Park, Rizhao",,35.373339,119.514108,53,32,18,30,30,2,22,21,1006,93,2,20140809180000
369,Rizhao,,35.416089,119.532316,142,64,34,30,30,6,22,21,1006,93,2,20140809180000
370,"Vegetable oil factory, Laiwu",,36.205028,117.700917,168,68,27,10,16,14,22,19,1007,82,2,20140809180000
371,"Nursing home, Laiwu",,36.266067,117.652769,114,74,23,9,13,9,22,19,1007,82,2,20140809180000
372,"Xinyi middle school, Laiwu",,36.245086,117.739025,95,64,16,12,11,9,22,19,1007,82,2,20140809180000
373,"Risheng International School, Laiwu",,36.208125,117.730959,155,95,22,14,33,23,22,19,1007,82,2,20140809180000
374,"Gangcheng EPA, Laiwu",,36.066836,117.871823,147,83,18,27,66,20,22,19,1007,82,2,20140809180000
375,"City EPA, Laiwu",,36.228913,117.694797,127,56,25,15,36,15,22,19,1007,82,2,20140809180000
376,Laiwu,,36.213688,117.682612,168,68,27,10,16,14,22,19,1007,82,2,20140809180000
377,"Lunan Pharmaceutical Factory, Linyi",,35.061671,118.299527,147,102,8,17,16,17,18,17,0,95,1,20140809180000
378,"Yihe compound, Linyi",,35.056752,118.34739,139,79,9,23,13,14,18,17,0,95,1,20140809180000
379,"Linyi University, Linyi",,35.114777,118.293414,174,89,11,21,25,16,18,17,0,95,1,20140809180000
380,City EPA,Nanfang,35.104871,118.353518,119,76,13,11,9,15,18,17,0,95,1,20140809180000
381,"Xinguang woolen factory, Linyi",,34.981004,118.282,119,78,12,21,21,11,18,17,0,95,1,20140809180000
382,"Hongfu Baijiu Factory, Linyi",,34.998788,118.257275,151,88,11,21,18,18,18,17,0,95,1,20140809180000
384,"Hedong insurance company, Linyi",,35.089354,118.40812,124,78,17,12,12,10,18,17,0,95,1,20140809180000
385,"Jianghua vehicule center, Linyi",,35.010082,118.435749,154,76,5,24,16,17,18,17,0,95,1,20140809180000
386,Linyi,,35.10428,118.362202,174,102,17,27,25,19,18,17,0,95,1,20140809180000
387,"Heima group, Dezhou",,37.466063,116.314134,129,66,45,13,5,8,24,18,1005,63,1,20140809180000
388,"Monitoring station, Dezhou",,37.433107,116.377312,129,81,36,19,9,1,24,18,1005,63,1,20140809180000
389,"Supervision Station, Dezhou",,37.449689,116.324709,132,70,41,10,9,12,24,18,1005,63,1,20140809180000
390,"Huayu technical school, Dezhou",,37.462809,116.357559,93,74,52,10,7,8,24,18,1005,63,1,20140809180000
391,"Shuangyi group, Dezhou",,37.478848,116.316362,159,102,38,28,6,11,24,18,1005,63,1,20140809180000
392,Dezhou,,37.434959,116.363366,159,102,52,28,12,12,24,18,1005,63,1,20140809180000
393,"Dongchang District Government, Liaocheng",,36.444473,115.971733,152,76,37,17,10,16,22,19,1006,81,0,20140809180000
394,"Light Machinery Factory No. 2, Liaocheng",,36.456788,116.002383,157,83,39,12,10,14,22,19,1006,81,0,20140809180000
395,"City committee communist party school, Liaocheng",,36.479537,115.989288,154,79,32,18,7,12,22,19,1006,81,0,20140809180000
396,"Customs, Liaocheng",,36.431933,115.956974,158,89,28,17,8,13,22,19,1006,81,0,20140809180000
397,"Hongshun Garden, Liaocheng",,36.471124,115.960319,129,77,35,28,8,15,22,19,1006,81,0,20140809180000
398,"BDA, Liaocheng",,36.459407,116.043621,159,89,29,12,4,11,22,19,1006,81,0,20140809180000
399,Liaocheng,,36.456792,115.991051,158,89,39,28,10,16,22,19,1006,81,1,20140809180000
400,"City EPA, Binzhou",,37.38024,118.026895,166,77,29,12,37,15,26,19,1005,57,3,20140809180000
401,"Beizhong new school, Binzhou",,37.38374,117.988996,173,88,28,10,26,12,26,19,1005,57,3,20140809180000
402,"No.2 water factory, Binzhou",,37.36155,118.002648,171,93,30,15,48,8,26,19,1005,57,3,20140809180000
403,"Keling Chemical factory, Binzhou",,37.396138,117.943609,178,92,17,13,16,10,26,19,1005,57,3,20140809180000
404,"Yinhe logistics company, Binzhou",,37.356122,117.943326,173,115,19,15,15,12,26,19,1005,57,3,20140809180000
405,"Bilin compond, Binzhou",,37.36815,117.978964,166,90,26,8,32,11,26,19,1005,57,3,20140809180000
406,Binzhou,,37.382639,117.976606,178,115,30,15,48,15,26,19,1005,57,3,20140809180000
407,"Bureau of Meteorology, Heze",,35.248625,115.428775,119,48,31,8,11,8,19,18,0,95,2,20140809180000
408,"Sewage treatment plant, Heze",,35.222517,115.531511,132,53,26,8,7,10,19,18,0,95,2,20140809180000
409,"Municipal CPPCC, Heze",,35.237125,115.480591,117,44,32,7,9,11,19,18,0,95,2,20140809180000
410,"Huarun Pharmaceutical Company, Heze",,35.261463,115.524873,87,40,33,7,5,11,19,18,0,95,2,20140809180000
411,"Heze University, Heze",,35.269706,115.460934,112,50,39,7,7,8,19,18,0,95,2,20140809180000
412,Heze,,35.233354,115.486503,119,50,39,11,11,11,19,18,0,95,2,20140809180000
413,"Shiji Park, Shijiazhuang",,38.03155,114.547873,192,126,40,22,29,7,21,19,1005,88,2,20140809180000
414,"Xinan College, Shijiazhuang",,38.012764,114.473163,176,109,30,21,29,7,21,19,1005,88,2,20140809180000
415,"Chemical College, Shijiazhuang",,38.055503,114.569816,633,123,23,22,13,7,21,19,1005,88,2,20140809180000
383,Xingtai,,37.071066,114.510749,190,144,35,37,43,12,23,19,1006,72,1,20140809180000
416,"Worker hospital, Shijiazhuang",,38.051784,114.461209,164,87,45,13,20,8,21,19,1005,88,2,20140809180000
417,"Northwest Water Company, Shijiazhuang",,38.140638,114.508038,177,102,35,17,26,7,21,19,1005,88,2,20140809180000
418,"High-tech zone, Shijiazhuang",,38.040482,114.610775,160,106,31,17,18,7,21,19,1005,88,2,20140809180000
419,"Fenglong Montain, Shijiazhuang",,37.910829,114.360264,164,81,171,7,30,8,21,19,1005,88,2,20140809180000
1130,"Zhengding Unicom, Shijiazhuang",,38.159458,114.59879,189,126,97,36,21,9,21,19,1005,88,2,20140809180000
1131,"Luancheng Communications, Shijiazhuang",,37.906534,114.638785,186,102,84,27,55,8,21,19,1005,88,2,20140809180000
1132,"Gaocheng Experimental School, Shijiazhuang",,38.039518,114.867812,175,96,111,18,29,11,21,19,1005,88,2,20140809180000
1133,"Wuji EPA, Shijiazhuang",,38.17862,114.997012,188,93,129,11,24,8,21,19,1005,88,2,20140809180000
1134,"Shenze Power Supply Bureau, Shijiazhuang",,38.197674,115.219126,176,99,114,14,15,8,21,19,1005,88,2,20140809180000
1135,"Zhaoxian EPA, Shijiazhuang",,37.77171,114.775957,164,84,116,22,27,8,21,19,1005,88,2,20140809180000
1136,"Gaoyi County City Hall, Shijiazhuang",,37.623535,114.612729,190,126,95,32,12,10,21,19,1005,88,2,20140809180000
1137,"Zanhuang County City Hall, Shijiazhuang",,37.672898,114.398269,183,115,158,23,13,10,21,19,1005,88,2,20140809180000
1138,"Jingxing Bureau of Meteorology, Shijiazhuang",,38.038788,114.158406,152,162,120,36,17,11,21,19,1005,88,2,20140809180000
1139,"Pingshan Ye River, Shijiazhuang",,38.266657,114.210275,171,101,110,21,17,10,21,19,1005,88,2,20140809180000
420,Shijiazhuang,,38.042926,114.520834,192,126,45,26,30,8,21,19,1005,88,2,20140809180000
421,"No. 12 middle school, Tangshan",,39.659306,118.190271,163,97,32,23,54,14,-,-,0,-,-,20140809180000
422,"Ceramics Company, Tangshan",,39.669255,118.225185,107,51,27,16,14,5,26,20,1003,69,2,20140809180000
1089,"Xiaoshanzi Station, Tangshan",,39.631273,118.206223,-,-,-,-,-,-,-,-,0,-,-,20140809180000
423,"Commodities Bureau, Tangshan",,39.642301,118.191265,89,57,28,14,22,5,26,20,1003,69,2,20140809180000
424,"Leidazhanzi Station, Tangshan",,39.644375,118.150383,154,80,32,11,18,6,26,20,1003,69,2,20140809180000
425,"Supply and marketing cooperatives, Tangshan",,39.632334,118.17232,149,71,26,11,18,5,26,20,1003,69,2,20140809180000
1140,"Guye District City Hall, Tangshan",,39.741379,118.460246,168,87,41,19,51,11,26,21,1004,74,1,20140809180000
1141,"Kaiping Stations, Tangshan",,39.675246,118.275149,153,99,40,13,6,3,26,21,1004,74,1,20140809180000
1142,"Fengnan District City Hall, Tangshan",,39.5834,118.097454,162,75,43,45,25,15,26,21,1004,74,1,20140809180000
1143,"Fengrun City Hall, Tangshan",,39.840355,118.175338,151,121,36,34,23,10,26,21,1004,74,1,20140809180000
1144,"Qianxi EPA, Tangshan",,40.153339,118.317265,164,74,71,17,38,12,26,21,1004,74,1,20140809180000
1145,"Caofeidian Xinli  Primary School, Tangshan",,39.291232,118.462182,117,50,61,1,5,1,26,21,1004,74,1,20140809180000
1146,"Zunhua EPA, Tangshan",,40.206249,117.997315,163,77,203,13,11,17,26,21,1004,74,1,20140809180000
1147,"Qianan No.1 middle school, Tangshan",,40.004248,118.717055,161,80,44,15,7,8,26,21,1004,74,1,20140809180000
1266,"Luannan County , Tangshan",,39.511132,118.686928,-,-,-,-,-,-,-,-,0,-,-,20140809180000
1267,"Yutian County , Tangshan",,39.908249,117.751417,-,-,-,-,-,-,-,-,0,-,-,20140809180000
426,Tangshan,,39.632175,118.186472,154,80,32,17,22,6,26,20,1003,69,2,20140809180000
427,"City Monitoring Station, Qinhuangdao",,39.958109,119.607773,87,6,42,3,2,5,,,,,,20140809180000
428,"Beidaihe, Qinhuangdao",,39.829209,119.53194,85,21,27,4,10,5,,,,,,20140809180000
429,"Shanhai Pass, Qinhuangdao",,40.019298,119.767898,85,34,12,26,15,2,,,,,,20140809180000
430,"Contruction Plazz, Qinhuangdao",,39.943187,119.542912,109,27,40,5,1,1,,,,,,20140809180000
431,"City government, Qinhuangdao",,39.93711,119.612769,74,24,42,3,7,2,,,,,,20140809180000
1148,"Qinglong EPA, Qinhuangdao",,40.419223,118.958002,137,65,106,6,6,2,26,21,1004,74,1,20140809180000
1149,"Changli EPA, Qinhuangdao",,39.714369,119.173237,154,64,44,22,5,2,,,,,,20140809180000
1268,"Lulong County Bureau of Meteorology , Qinhuangdao",,39.901091,118.904857,-,-,-,-,-,-,27,20,1004,65,3,20140809180000
432,Qinhuangdao,,39.936485,119.606263,74,24,42,3,7,2,26,20,1003,69,2,20140809180000
433,"CongTai Park, Handan",,36.620197,114.501891,177,95,39,13,6,5,23,19,1006,72,1,20140809180000
434,"City EPA, Handan",,36.618145,114.518822,178,68,36,20,4,7,23,19,1006,72,1,20140809180000
435,"East Sewage Factory, Handan",,36.616064,114.548714,137,60,23,2,8,4,23,19,1006,72,1,20140809180000
436,"Mine Hospital, Handan",,36.578149,114.509854,178,73,37,9,3,3,23,19,1006,72,1,20140809180000
1150,"Fengfeng mine Inland Revenue Department, Handan",,36.423085,114.245994,203,139,24,20,12,11,21,18,1006,84,3,20140809180000
1151,"Shexian EPA, Handan",,36.589084,113.692341,172,73,34,6,8,8,,,,,,20140809180000
1152,"Ci County Vocational Education Center, Handan",,36.380247,114.390119,-,-,-,-,-,-,,,,,,20140809180000
1153,"Yongnian government guesthouse, Handan",,36.783297,114.502905,192,155,29,28,59,6,23,19,1006,72,1,20140809180000
1154,"Wuan BDA, Handan",,36.686223,114.269009,203,157,45,1,7,19,,,,,,20140809180000
1085,Handan,,36.625683,114.544812,178,95,39,20,8,7,23,19,1006,72,1,20140809180000
437,"Road and Bridge Corporation, Xingtai",,37.096415,114.538799,172,119,35,28,13,9,23,19,1006,72,1,20140809180000
438,"Dahuo fontain, Xingtai",,37.097563,114.488001,173,142,20,37,12,12,23,19,1006,72,1,20140809180000
439,"Xingtai Normal College, Xingtai",,37.053404,114.531819,154,132,27,26,10,10,23,19,1006,72,1,20140809180000
440,"Environment protection office, Xingtai",,37.06253,114.490985,190,144,20,33,43,12,23,19,1006,72,1,20140809180000
1155,"Cultural centers within the mound, Xingtai",,37.293569,114.524873,173,96,43,15,15,9,23,19,1006,72,1,20140809180000
441,"City Monitoring Station, Baoding",,38.871737,115.527103,154,70,128,3,6,6,20,18,1005,84,1,20140809180000
442,"Surface water Company, Baoding",,38.842891,115.467326,162,82,80,27,25,4,20,18,1005,84,1,20140809180000
443,"Huadian II, Baoding",,38.896748,115.528102,119,59,127,2,2,1,20,18,1005,84,1,20140809180000
444,"Reception Center, Baoding",,38.911905,115.477301,89,36,67,17,3,7,20,18,1005,84,1,20140809180000
445,"Film Factory, Baoding",,38.876949,115.448383,170,78,76,10,7,9,20,18,1005,84,1,20140809180000
446,"Natatorium, Baoding",,38.863815,115.499212,102,54,110,7,18,6,20,18,1005,84,1,20140809180000
1156,"Qingyuan City Hall, Baoding",,38.771758,115.502189,179,100,89,4,11,5,20,18,1005,84,1,20140809180000
1157,"Xushui EPA, Baoding",,39.025781,115.668023,102,36,135,2,12,7,20,18,1005,84,1,20140809180000
1158,"Zhouzhou Monitoring Stations, Baoding",,39.493241,116.040187,91,29,120,3,6,2,25,19,1004,61,2,20140809180000
1159,"Gaobeidian EPA, Baoding",,39.3329,115.885891,82,34,101,6,24,3,20,18,1005,84,1,20140809180000
447,Baoding,,38.874791,115.471124,170,82,128,27,25,9,20,18,1005,84,1,20140809180000
448,"Century Compound, Zhangjiakou",,40.770279,114.909106,99,29,12,13,6,3,17,15,1005,80,1,20140809180000
449,"North Pumping Station, Zhangjiakou",,40.874362,114.910119,76,25,45,6,19,9,17,15,1005,80,1,20140809180000
450,"Hardware Warehouse, Zhangjiakou",,40.81232,114.887119,9,9,25,11,13,11,17,15,1005,80,1,20140809180000
451,"Tanji Chang, Zhangjiakou",,40.796301,114.89811,57,20,33,5,22,4,17,15,1005,80,1,20140809180000
1160,"Xiahuayuan EPA, Zhangjiakou",,40.509345,115.302442,93,44,45,22,6,2,17,15,1005,80,1,20140809180000
1161,"Huaian EPA, Zhangjiakou",,40.68157,114.398646,152,54,31,23,22,2,17,15,1005,80,1,20140809180000
1162,"Huailai Fuqian Primary School, Zhangjiakou",,40.422204,115.530285,97,45,44,11,17,4,17,15,1005,80,1,20140809180000
1269,"Zhangbei EPA , Zhangjiakou",,41.166775,114.732369,-,-,-,-,-,-,-,-,0,-,-,20140809180000
1270,"Kangbao County Environmental Protection Agency , Zhangjiakou",,41.837866,114.591246,-,-,-,-,-,-,-,-,0,-,-,20140809180000
1271,"Guyuan County welfare , Zhangjiakou",,41.669984,115.687401,-,-,-,-,-,-,-,-,0,-,-,20140809180000
1272,"Shangyi County Environmental Protection Bureau , Zhangjiakou",,41.086638,113.984688,-,-,-,-,-,-,-,-,0,-,-,20140809180000
1273,"Yuxian Secondary School , Zhangjiakou",,39.84699,114.601986,-,-,-,-,-,-,-,-,0,-,-,20140809180000
1274,"Yang County Vocational Education Center , Zhangjiakou",,40.106343,114.134732,-,-,-,-,-,-,-,-,0,-,-,20140809180000
1275,"Wan county Environmental Protection Agency , Zhangjiakou",,40.770459,114.75033,-,-,-,-,-,-,-,-,0,-,-,20140809180000
473,"Nankou road, Tianjin",,39.174022,117.199688,127,56,37,25,11,10,26,20,1003,69,1,20140809180000
1276,"Zhuolu County Environmental Protection Agency , Zhangjiakou",,40.374273,115.221393,-,-,-,-,-,-,-,-,0,-,-,20140809180000
452,Zhangjiakou,,40.825744,114.893659,99,29,45,13,22,11,17,15,1005,80,1,20140809180000
453,"Railway, Chengde",,40.917557,117.972331,117,69,130,11,10,11,19,18,1004,94,0,20140809180000
454,"Cultural Center, Chengde",,40.974625,117.824437,91,34,117,6,2,8,19,18,1004,94,0,20140809180000
455,"Bank of China, Chengde",,40.985582,117.958304,114,52,109,8,25,9,19,18,1004,94,0,20140809180000
456,"BDA, Chengde",,40.937567,117.969325,157,62,145,7,9,11,19,18,1004,94,0,20140809180000
457,"Ligong, Chengde",,41.012579,117.94428,152,30,57,5,1,9,19,18,1004,94,0,20140809180000
1163,"Chengde County EPA, Chengde",,40.776643,118.17646,169,102,136,11,3,16,19,18,1004,94,0,20140809180000
1164,"Xinglong County City Hall, Chengde",,40.424301,117.513488,158,63,64,14,5,12,19,18,1004,94,0,20140809180000
1165,"Luanping EPA, Chengde",,40.950792,117.350715,74,27,105,6,1,8,19,18,1004,94,0,20140809180000
1166,"Fengning County City Hall, Chengde",,41.216739,116.658037,89,33,129,1,4,7,19,18,1004,94,0,20140809180000
1277,"Longhua EPA , Chengde",,41.311956,117.739605,-,-,-,-,-,-,-,-,0,-,-,20140809190000
458,Chengde,,40.955652,117.968737,157,69,145,11,25,11,19,18,1004,94,0,20140809190000
459,"Municipal EPB, Cangzhou",,38.323507,116.876746,127,71,63,10,4,5,26,20,1003,69,1,20140809190000
460,"Cangxian Urban Construction Bureau, Cangzhou",,38.299495,116.890734,124,56,46,9,3,4,26,20,1003,69,1,20140809190000
461,"TV Broadcast Station, Cangzhou",,38.325525,116.863761,144,64,43,8,7,5,26,20,1003,69,1,20140809190000
1167,"Qing County City Hall, Cangzhou",,38.589643,116.815876,182,79,25,35,6,5,26,20,1003,69,1,20140809190000
1168,"Poyoushi City Hall, Cangzhou",,38.089516,116.590575,159,71,1,10,17,5,26,20,1003,69,1,20140809190000
1169,"Huanghua Finance Bureau Training Center, Cangzhou",,38.377793,117.343356,179,28,47,17,34,2,26,20,1003,69,1,20140809190000
462,Cangzhou,,38.305035,116.844625,144,71,63,10,7,5,26,20,1003,69,1,20140809190000
463,"Environmental Monitoring Supervision Center, Langfang",,39.558157,116.720995,102,50,43,14,2,5,25,20,1003,74,2,20140809190000
464,"TCM Medical Material Company, Langfang",,39.519096,116.689914,80,28,47,7,1,5,25,20,1003,74,2,20140809190000
465,"BDA, Langfang",,39.576175,116.779041,93,39,46,13,4,7,25,20,1003,74,2,20140809190000
466,"North China Institute of Aerospace, Langfang",,39.53517,116.743027,82,15,78,3,2,8,26,21,1004,74,1,20140809190000
1170,"Guan Party School, Langfang",,39.446185,116.311026,78,31,111,8,2,4,26,21,1004,74,1,20140809190000
1171,"Xianghe EPA, Langfang",,39.76725,117.015252,117,59,139,10,6,5,26,21,1004,74,1,20140809190000
1172,"Wenan County EPA, Langfang",,38.880927,116.47001,174,83,122,12,15,6,26,21,1004,74,1,20140809190000
1173,"Three Rivers Department of Transportation, Langfang",,39.989419,117.091528,163,76,109,13,5,7,26,21,1004,74,1,20140809190000
1278,"Yongqing EPA , Langfang",,39.329071,116.510917,-,-,-,-,-,-,-,-,0,-,-,20140809190000
1279,"Dacheng EPA, Langfang",,38.712628,116.665751,-,-,-,-,-,-,-,-,0,-,-,20140809190000
467,Langfang,,39.539148,116.689668,102,50,47,14,2,5,25,20,1003,74,2,20140809190000
468,"Hengshui City EPB, Hengshui",,37.739679,115.695929,161,68,49,4,6,4,20,18,0,89,3,20140809190000
469,"Environmental Monitoring Station, Hengshui",,37.738593,115.648837,107,38,46,14,2,5,20,18,0,89,3,20140809190000
470,"Electrical Machine North Factory, Hengshui",,37.758686,115.70094,107,68,50,7,10,5,20,18,0,89,3,20140809190000
1174,"Anping EPA, Hengshui",,38.238559,115.537988,194,86,113,15,15,9,21,18,0,83,3,20140809190000
1175,"Jizhou EPA, Hengshui",,37.548552,115.58679,158,61,72,12,8,6,21,18,0,83,3,20140809190000
1280,"Zaoqiang EPA, Hengshui",,37.520698,115.714936,-,-,-,-,-,-,-,-,0,-,-,20140809190000
1281,"Wuyi EPA, Hengshui",,37.801554,115.898697,-,-,-,-,-,-,-,-,0,-,-,20140809190000
1282,"Wuqiang EPA , Hengshui",,38.03557,115.959767,-,-,-,-,-,-,-,-,0,-,-,20140809190000
1283,"Raoyang EPA , Hengshui",,38.230652,115.741041,-,-,-,-,-,-,-,-,0,-,-,20140809190000
1284,"Gucheng County , Hengshui",,37.347569,115.966707,-,-,-,-,-,-,-,-,0,-,-,20140809190000
471,Hengshui,,37.739562,115.676066,161,68,50,7,10,5,20,18,0,89,3,20140809190000
1176,"Xinji City Hall, Xinji",,37.949711,115.230084,183,85,63,18,14,8,20,18,0,89,3,20140809190000
474,"Qinjian street, Tianjin",,39.166588,117.15104,104,77,32,14,4,10,26,20,1003,69,1,20140809190000
475,"Nanjing Road, Tianjin",,39.120958,117.195112,153,83,34,16,8,11,26,20,1003,69,1,20140809190000
476,"Dazhigu No.8 road, Tianjin",,39.111811,117.25147,142,57,30,15,6,6,26,20,1003,69,1,20140809190000
477,"Qianjin street, Tianjin",,39.09371,117.207981,157,84,33,19,11,10,26,20,1003,69,1,20140809190000
478,"Huaihe street, Tianjin",,39.227167,117.191293,112,68,33,-,3,9,26,20,1003,69,1,20140809190000
479,"Xiangshan street, Tianjin",,39.134752,117.275125,151,67,31,11,5,14,26,20,1003,69,1,20140809190000
480,"Yuejin Road, Tianjin",,39.088177,117.320884,157,87,29,30,7,10,26,20,1003,69,1,20140809190000
481,"Zhujiang street, Tianjin",,39.064463,117.231268,-,-,-,-,-,-,-,-,0,-,-,20140809190000
482,"No.4 street, Tianjin",,39.035228,117.713424,134,66,28,22,10,11,26,20,1003,69,1,20140809190000
483,"Yongming road, Tianjin",,38.840392,117.463805,163,88,40,37,29,12,26,20,1003,69,1,20140809190000
484,"Xinhua street, Tianjin",,39.138671,117.010083,76,70,45,8,5,5,26,20,1003,69,1,20140809190000
485,"Jingu Road, Tianjin",,38.985659,117.381254,159,106,40,6,11,8,26,20,1003,69,1,20140809190000
486,"Tanggu Yingkou street, Tianjin",,39.021768,117.656454,124,37,41,22,13,0,26,20,1003,69,1,20140809190000
487,"Hexi Yijing road, Tianjin",,39.248392,117.798043,74,22,37,5,4,7,26,20,1003,69,1,20140809190000
488,"Jianshe Road, Tianjin",,39.720075,117.310588,93,56,45,6,3,7,26,20,1003,69,1,20140809190000
489,"Quanzhou South road, Tianjin",,39.373857,117.050329,80,52,41,8,3,11,26,20,1003,69,1,20140809190000
490,"Donghuan road, Tianjin",,40.043144,117.451062,72,64,59,7,2,16,26,20,1003,69,1,20140809190000
491,"Tuanpowa, Tianjin",,38.920418,117.16299,155,94,37,9,8,11,26,20,1003,69,1,20140809190000
493,"Beiwei No.2 road, Tianjin",,38.943857,116.920624,132,64,59,12,3,8,26,20,1003,69,1,20140809190000
494,"Haitai fazhan No.2 road, Tianjin",,39.079608,117.096583,124,42,46,16,5,12,26,20,1003,69,1,20140809190000
495,"Hangtian road, Tianjin",,39.152244,117.381309,153,64,27,22,3,13,26,20,1003,69,1,20140809190000
496,"Hanbei road, Tianjin",,39.159768,117.770477,97,35,44,12,6,9,26,20,1003,69,1,20140809190000
497,"Baobai highway, Tianjin",,39.51757,117.349635,109,302,41,6,4,8,26,20,1003,69,1,20140809190000
498,Tianjin,,39.085164,117.207281,157,84,34,19,11,11,26,20,1003,69,2,20140809190000
499,"Wolong bridge, Hangzhou",,30.24371,120.132762,119,51,30,6,4,7,27,22,1003,74,2,20140809190000
500,"Hemu primary school, Hangzhou",,30.309669,120.124507,137,48,41,15,9,9,27,22,1003,74,2,20140809190000
501,"Zhejiang Agricultural University, Hangzhou",,30.265601,120.197583,153,72,28,26,17,13,27,22,1003,74,2,20140809190000
502,"Xiasha, Hangzhou",,30.303516,120.352618,139,44,34,12,5,6,27,22,1003,74,2,20140809190000
503,"Yunqi, Hangzhou",,30.178555,120.093142,112,52,27,6,4,7,27,22,1003,74,2,20140809190000
504,"Xixi, Hangzhou",,30.272425,120.068144,134,52,31,9,4,11,27,22,1003,74,2,20140809190000
505,"Chengxiang town, Hangzhou",,30.179493,120.274184,109,51,39,9,5,8,27,22,1003,74,2,20140809190000
506,"Qiandao lake, Hangzhou",,29.638139,119.031092,61,18,30,4,3,10,27,22,1003,74,2,20140809190000
507,"Linping town, Hangzhou",,30.415948,120.305059,124,44,33,19,6,8,27,22,1003,74,2,20140809190000
509,"No.2 Middle School, Hangzhou",,30.044303,119.956356,137,55,-,-,-,9,27,22,1003,74,2,20140809190000
510,"City Hall, Hangzhou",,30.234185,119.723503,142,63,38,7,4,7,27,22,1003,74,2,20140809190000
511,"No. 4 middle school, Hangzhou",,30.229428,119.699591,119,60,13,5,7,9,27,22,1003,74,2,20140809190000
512,Hangzhou,,30.271756,120.159765,153,72,41,26,17,14,27,22,1003,74,2,20140809190000
513,"City Station, Wenzhou",,28.009715,120.679129,129,56,14,21,7,10,24,23,0,95,0,20140809190000
514,"Ouhai, Wenzhou",,28.001846,120.641982,142,61,8,33,2,14,24,23,0,95,0,20140809190000
515,"Longwan, Wenzhou",,27.968122,120.768393,99,51,17,26,3,6,24,23,0,95,0,20140809190000
516,"Nanpu, Wenzhou",,27.981763,120.683685,134,62,8,22,1,17,24,23,0,95,0,20140809190000
517,Wenzhou,,27.990985,120.703425,142,62,17,33,7,17,24,23,0,95,0,20140809190000
518,"Monitoring station, Jiaxing",,30.75437,120.767373,89,39,21,15,15,9,26,25,1002,94,2,20140809190000
519,"Jiaxing University, Jiaxing",,30.745099,120.735004,97,38,26,12,7,7,26,25,1002,94,2,20140809190000
520,"Qinghe Primary School, Jiaxing",,30.775685,120.747969,78,53,21,16,10,7,26,25,1002,94,2,20140809190000
521,Jiaxing,,30.751627,120.762862,89,53,26,16,15,9,26,25,1002,94,2,20140809190000
522,"Chengbei water plant, Huzhou",,30.891155,120.096593,89,51,12,21,7,7,26,25,1002,94,2,20140809190000
523,"Jishan new village, Huzhou",,30.859939,120.120168,112,50,15,24,9,9,26,25,1002,94,2,20140809190000
524,"Town west water plant, Huzhou",,30.862371,120.084577,87,52,6,20,7,7,26,25,1002,94,2,20140809190000
525,Huzhou,,30.892304,120.091694,112,52,15,24,9,9,26,25,1002,94,2,20140809190000
526,"Donghu middle school, Shaoxing",,29.990447,120.647547,114,48,40,13,12,7,27,22,1003,74,2,20140809190000
527,"City EPA station, Shaoxing",,30.001695,120.584318,152,56,41,12,7,4,27,22,1003,74,2,20140809190000
528,"Chengdong BDA committee, Shaoxing",,29.986643,120.613578,147,46,40,8,19,4,27,22,1003,74,2,20140809190000
529,"Paojiang station, Shaoxing",,30.07574,120.62154,117,50,35,15,16,9,27,22,1003,74,2,20140809190000
530,"Shaoxing technical school, Shaoxing",,29.930983,120.577131,117,51,24,12,8,8,27,22,1003,74,2,20140809190000
531,"Library, Shaoxing",,29.706266,120.253183,151,66,47,4,7,19,27,22,1003,74,2,20140809190000
532,"Transporation management station, Shaoxing",,29.726405,120.221602,132,67,47,1,10,22,27,22,1003,74,2,20140809190000
533,"Dongpu Town Governement, Shaoxing",,30.049601,120.539893,107,53,31,18,18,8,27,22,1003,74,2,20140809190000
534,Shaoxing,,29.993122,120.590182,152,50,41,15,19,9,27,22,1003,74,2,20140809190000
535,"City Monitoring Station, Jinhua",,29.100031,119.690373,162,68,56,13,19,9,24,23,0,96,1,20140809190000
536,"No.15 middle school, Jinhua",,29.074022,119.652121,156,59,47,9,9,10,24,23,0,96,1,20140809190000
537,"No.4 middle school, Jinhua",,29.110109,119.653654,153,59,48,13,9,10,24,23,0,96,1,20140809190000
538,"Beiyuan, Jinhua",,29.332898,120.083351,154,70,38,16,15,11,24,23,0,96,1,20140809190000
539,"Jiangdong, Jinhua",,29.302486,120.095291,158,70,43,13,26,12,24,23,0,96,1,20140809190000
540,Jinhua,,29.076083,119.65215,162,68,56,13,19,10,24,23,0,96,1,20140809190000
541,"EPA building, Quzhou",,28.937291,118.876081,112,48,17,15,4,10,27,26,1003,96,0,20140809190000
542,"Experimental school, Quzhou",,28.961502,118.880916,122,36,14,11,9,9,27,26,1003,96,0,20140809190000
543,"Quzhou University, Quzhou",,28.971452,118.860052,93,40,18,26,9,8,27,26,1003,96,0,20140809190000
544,Quzhou,,28.966994,118.864252,122,48,18,26,9,10,27,26,1003,96,1,20140809190000
545,"Putuo east port, Zhoushan",,29.951412,122.317679,74,33,26,6,4,9,28,25,1003,84,1,20140809190000
546,"Dinghai tanfeng, Zhoushan",,30.018014,122.126566,53,27,21,10,2,4,28,25,1003,84,1,20140809190000
547,Zhoushan,,29.983049,122.210763,74,33,26,10,4,9,28,25,1003,84,1,20140809190000
548,"Taizhou EPA building, Taizhou",,28.651216,121.42331,142,60,20,9,1,8,25,24,0,97,1,20140809190000
549,"Luqiao Tian Yang Wang, Taizhou",,28.574364,121.381194,122,56,13,12,3,6,25,24,0,97,1,20140809190000
550,"Huangyan EPA building, Taizhou",,28.656151,121.285064,91,38,7,12,2,17,25,24,0,97,1,20140809190000
551,"Yu Zhuang Qian, Lishui",,28.419638,119.883884,122,0,39,23,10,5,28,26,1004,80,1,20140809190000
552,"Monitoring station building, Lishui",,28.444379,119.923103,154,0,32,17,15,7,28,26,1004,80,1,20140809190000
553,"Liandu primary school, Lishui",,28.450912,119.939332,112,46,35,11,3,8,28,26,1004,80,1,20140809190000
554,Lishui,,28.464224,119.927201,154,46,39,23,15,8,28,26,1004,80,1,20140809190000
555,Taigu Primary School,,29.858177,121.593738,117,54,16,14,9,6,27,25,1003,89,0,20140809190000
556,Qianhu shuihan,,29.862459,121.5328,117,56,11,19,6,8,28,25,1003,84,1,20140809190000
557,Sanjiang secondary schools,,29.884687,121.562713,124,60,10,14,7,7,27,25,1003,89,0,20140809190000
558,Longsai Hospital,,29.949294,121.720671,134,54,17,11,7,8,27,25,1003,89,0,20140809190000
559,Beilun District EPB,,29.899544,121.827597,95,55,18,16,5,5,28,25,1003,84,1,20140809190000
560,Wanli University,,29.896155,121.541154,119,72,20,11,8,7,27,25,1003,89,0,20140809190000
561,Qianhu water plant,,29.788156,121.652415,155,62,15,14,5,6,27,25,1003,89,0,20140809190000
562,Municipal management station,,29.893743,121.620269,147,57,11,14,5,5,27,25,1003,89,0,20140809190000
1177,Daxie Literary Museum,,29.891281,121.952741,72,30,16,9,2,4,27,25,1003,89,0,20140809190000
1178,Cixi EPB,,30.159852,121.242331,142,64,21,8,7,12,27,25,1003,89,0,20140809190000
1179,Cixi Experimently Primary School,,30.174341,121.262169,142,64,23,6,6,10,27,25,1003,89,0,20140809190000
1180,"Yongsan Park, Yuyao",,30.045532,121.157602,-,-,-,-,-,-,-,-,0,-,-,20140809190000
1181,"Qilupu Water Company, Yuyao",,30.039112,121.133416,-,-,-,-,-,-,-,-,0,-,-,20140809190000
1182,Fenghua EPB,,29.660537,121.414074,134,50,20,11,6,10,27,25,1003,89,0,20140809190000
1183,"Yuelong station, Ninghai",,29.290223,121.439263,156,52,15,7,5,26,27,25,1003,89,0,20140809190000
1184,"Wenfeng Primary School, Xiangshan",,29.470841,121.895054,112,34,23,4,3,6,27,25,1003,89,0,20140809190000
1185,"Chengnan Primary School, Ninghai",,29.282647,121.428839,104,47,15,5,7,6,27,25,1003,89,0,20140809190000
1186,"Xingang Primary School, Xiangshan",,29.199718,121.935879,72,35,25,6,3,6,27,25,1003,89,0,20140809190000
1187,Fuyang,,30.046157,119.96468,137,55,-,-,-,9,27,22,1003,74,2,20140809190000
1188,Yiwu,,29.304353,120.079794,158,70,43,16,26,12,-,-,0,-,-,20140809190000
1189,Zhuji,,29.711185,120.240748,151,67,47,4,10,22,27,22,1003,74,2,20140809190000
563,"Shanxi Road , Nanjing",,32.06795,118.779216,119,42,10,12,7,5,23,22,1004,94,2,20140809190000
564,"Ruijin Road , Nanjing",,32.029321,118.80817,114,43,8,15,7,6,23,22,1004,94,2,20140809190000
565,"Xuanwu Lake, Nanjing",,32.075423,118.800188,112,43,10,8,3,3,23,22,1004,94,2,20140809190000
566,"Olympic Center, Nanjing",,32.007171,118.742217,85,38,9,2,1,5,23,22,1004,94,2,20140809190000
567,"Xianlin University Town , Nanjing",,32.106958,118.919882,70,30,10,4,1,4,23,22,1004,94,2,20140809190000
568,Nanjing,,32.058179,118.802061,124,52,8,15,3,7,23,22,1004,94,2,20140809190000
569,"Shangfang hill , Suzhou",,31.24502,120.565211,87,30,4,10,4,7,26,25,1002,94,4,20140809190000
570,"Wuzhong District , Suzhou",,31.268105,120.61717,93,30,13,20,3,8,26,25,1002,94,4,20140809190000
571,"Suzhou New District , Suzhou",,31.297277,120.547262,104,62,12,14,12,11,26,25,1002,94,4,20140809190000
572,"Suzhou Industrial Area, Suzhou",,31.307603,120.673257,144,52,5,15,6,10,26,25,1002,94,4,20140809190000
573,"Xiangcheng district, Suzhou",,31.368674,120.645209,132,61,9,14,20,9,26,25,1002,94,4,20140809190000
574,Suzhou,,31.296701,120.589493,144,40,13,20,15,11,26,25,1002,94,4,20140809190000
575,"South suburb , Nantong",,31.957836,120.917218,91,34,15,6,5,4,24,23,1003,97,1,20140809190000
576,"Xinghu park, Nantong",,31.927873,120.944254,82,40,17,10,6,4,24,23,1003,97,1,20140809190000
577,"Zilang school, Nantong",,32.039638,120.814358,82,46,16,9,3,0,24,23,1003,97,1,20140809190000
578,Nantong,,31.978005,120.898555,102,42,17,10,6,4,24,23,1003,97,1,20140809190000
579,Lianyungang,,34.595509,119.226814,152,84,21,27,10,7,8,8,1016,96,0,20140809190000
580,"Hongmen police substation, Lianyungang",,34.588692,119.146693,149,70,8,22,17,9,22,22,1004,99,0,20140809190000
581,"Xugou Nuclear Expert Village , Lianyungang",,34.749957,119.373707,164,65,6,24,6,7,22,22,1004,99,0,20140809190000
582,"Hengrui pharmaceutical company, BDA, Lianyungang",,34.697574,119.353668,188,95,13,32,13,4,22,22,1004,99,0,20140809190000
583,"City Monitoring Station, Lianyungang",,34.586791,119.186929,152,65,11,22,18,8,22,22,1004,99,0,20140809190000
584,"Yellow river new village , Xuzhou",,34.271542,117.177241,80,31,12,6,13,7,21,20,1006,94,2,20140809190000
585,"Tongshan Veterinary Hospital , Xuzhou",,34.307086,117.197766,68,26,19,8,7,4,21,20,1006,94,2,20140809190000
586,"New Town , Xuzhou",,34.213992,117.261718,70,30,16,6,4,14,21,20,1006,94,2,20140809190000
587,"Taoyuan road, Xuzhou",,34.289822,117.249721,102,38,12,9,7,22,21,20,1006,94,2,20140809190000
588,"Agricultural Science Academy , Xuzhou",,34.27655,117.299079,89,51,15,12,21,12,21,20,1006,94,2,20140809190000
589,"Tongshan EPA, Xuzhou",,34.179384,117.171798,63,28,19,2,7,5,21,20,1006,94,2,20140809190000
590,Xuzhou,,34.20346,117.289825,109,46,19,14,8,22,21,20,1006,94,2,20140809190000
591,Yangzhou,,32.39233,119.418446,159,69,10,19,10,5,11,9,0,90,6,20140809190000
592,"Hanjiang Monitoring Station, Yangzhou",,32.374218,119.394484,59,16,23,10,2,5,22,21,0,98,3,20140809190000
593,"No. 4 Hospital, Yangzhou",,32.401394,119.44444,50,23,21,1,5,1,22,22,0,99,3,20140809190000
594,"City Monitoring Station, Yangzhou",,32.406588,119.41591,65,22,18,5,14,4,22,21,0,98,3,20140809190000
595,"University Town , Wuxi",,31.484752,120.273571,112,40,18,13,10,12,26,25,1002,94,4,20140809190000
596,"Shibei High School , Wuxi",,31.619969,120.279584,114,56,5,9,10,4,26,25,1002,94,4,20140809190000
597,"Yuhong Elementary School , Wuxi",,31.561155,120.249588,114,49,11,13,20,10,26,25,1002,94,4,20140809200000
598,Wuxi,,31.488746,120.31575,117,56,18,13,8,12,26,25,1002,94,4,20140809200000
599,Changzhou,,31.808037,119.979205,172,86,6,22,36,13,11,9,0,88,5,20140809200000
600,"Chengjian School, Changzhou",,31.776476,119.937681,122,43,13,9,6,5,23,23,1003,96,3,20140809200000
601,"Changzhou Engineering Institute , Changzhou",,31.806828,119.966724,114,40,10,8,7,4,23,23,1003,96,3,20140809200000
602,"Wujin Monitoring Station, Changzhou",,31.701788,119.939676,144,43,13,6,7,8,23,23,1003,96,3,20140809200000
603,"City Monitoring Station, Changzhou",,31.777201,119.979426,117,50,11,4,8,4,23,23,1003,96,3,20140809200000
604,Zhenjiang,,32.18597,119.431281,170,79,4,39,15,13,9,8,0,93,5,20140809200000
605,"New District Administrative office , Zhenjiang",,32.186174,119.685021,72,27,23,11,5,12,23,22,1004,94,2,20140809200000
606,"Vocational Education Center , Zhenjiang",,32.212973,119.496253,53,44,21,9,2,10,23,22,1004,94,2,20140809200000
607,"Dantu Monitoring Station , Zhenjiang",,32.130026,119.435432,72,39,18,11,6,8,23,22,1004,94,2,20140809200000
608,"City Monitoring Station, Zhenjiang",,32.202178,119.439766,70,35,17,6,4,11,23,22,1004,94,2,20140809200000
609,"Gaogang Adminstrative office , Taizhoushi",,32.300768,119.886757,89,39,12,6,8,5,22,21,0,98,3,20140809200000
610,"Students Innovation Park , Taizhoushi",,32.461672,119.892761,112,47,28,1,9,2,22,21,0,98,3,20140809200000
611,Taizhoushi,,32.453555,119.927852,112,30,28,12,14,7,22,21,0,98,3,20140809200000
612,"Yancheng power station , Yancheng",,33.400859,120.123067,53,18,34,5,6,2,-,-,0,-,-,20140809200000
613,Yancheng,,33.345939,120.168504,144,52,30,5,3,7,11,10,1016,95,4,20140809200000
614,"Wenfeng Middle School , Yancheng",,33.370531,120.134041,53,10,21,8,2,3,-,-,0,-,-,20140809200000
615,"BDA Management Committe, Yancheng",,33.393191,120.22978,21,9,36,5,1,4,-,-,0,-,-,20140809200000
616,"City Monitoring Station, Yancheng",,33.390623,120.164423,42,32,33,9,7,3,22,21,0,98,3,20140809200000
617,Suqian,,33.960666,118.281004,160,87,24,7,5,7,11,10,0,91,6,20140809200000
618,"Suqian College , Suqian",,33.951472,118.298523,72,51,21,25,11,5,19,18,0,96,2,20140809200000
619,"Suqian Middle School , Suqian",,33.95784,118.249505,117,57,10,21,8,6,19,18,0,96,2,20140809200000
620,"Suyu District Environmental Protection Agency , Suqian",,33.94932,118.326569,70,55,17,17,10,5,19,18,0,96,2,20140809200000
621,"City Monitoring Station, Suqian",,33.956982,118.277022,127,53,14,23,7,6,19,18,0,96,2,20140809200000
622,Taizhou,,28.653436,121.425185,137,59,18,14,3,8,24,24,0,98,0,20140809200000
623,Donghu Liyuan,,30.572324,114.377844,159,67,28,7,2,8,22,20,1006,88,2,20140809200000
624,Yuehu Lake,,30.554662,114.256937,160,67,26,10,0,8,22,20,1006,88,2,20140809200000
625,Hankou Huaqiao ,,30.61724,114.287652,171,69,23,19,0,10,22,20,1006,88,2,20140809200000
626,Wuchang Ziyang ,,30.530801,114.309438,158,78,21,18,0,8,22,20,1006,88,2,20140809200000
627,Qingshan Ganghua,,30.622435,114.375599,166,69,27,11,7,8,22,20,1006,88,2,20140809200000
628,Dunkou Xinou,,30.480091,114.162176,162,78,19,15,3,9,22,20,1006,88,2,20140809200000
629,Donghu Gaoxin,,30.48095,114.40724,161,66,12,13,5,15,22,20,1006,88,2,20140809200000
630,Wujianshan,,30.63114,114.135907,177,64,23,10,0,7,22,20,1006,88,2,20140809200000
631,Yuanshun Road,,30.297142,113.858587,160,54,36,4,1,8,22,20,1006,88,2,20140809200000
632,Wuhan,,30.591973,114.306887,171,78,24,19,7,11,22,20,1006,88,2,20140809200000
1190,"Silingsan Factory, Yichang",,30.713288,111.306585,161,89,14,13,51,9,20,19,1007,91,2,20140809200000
633,Yichang,,30.689528,111.292131,164,90,15,13,51,15,20,19,1007,91,2,20140809200000
633,Yichang,,30.689528,111.292131,164,90,15,13,51,15,20,19,1007,91,2,20140809200000
1191,"City Library , Jingzhou",,30.31494,112.260844,117,55,34,5,7,7,21,18,1007,76,2,20140809200000
1192,"City committee communist party school, Jingzhou",,30.35054,112.20743,114,53,35,6,6,10,21,18,1007,76,2,20140809200000
1193,"kerong EPA, Jingzhou",,30.302965,112.29443,147,66,34,9,9,13,21,18,1007,76,2,20140809200000
634,Jingzhou,,30.332608,112.245451,147,66,35,9,9,13,21,18,1007,76,2,20140809200000
634,Jingzhou,,30.332608,112.245451,147,66,35,9,9,13,21,18,1007,76,2,20140809200000
635,Huangshi,,30.19723,115.043908,163,87,9,18,11,18,25,20,1007,94,0,20140809200000
635,Huangshi,,30.19723,115.043908,163,87,9,18,11,18,25,20,1007,94,0,20140809200000
1194,"Chenjiaying, Huangshi",,30.232823,115.067923,157,77,7,7,5,14,25,,1007,94,0,20140809200000
1195,"Chenjiawan , Huangshi",,30.200422,115.082138,161,78,6,11,11,17,25,,1007,94,0,20140809200000
1196,"Xinxialu, Huangshi",,30.17332,114.954357,154,87,5,18,4,13,25,,1007,94,0,20140809200000
1197,"Tie montian, Huangshi",,30.203885,114.906439,163,79,4,10,1,18,25,,1007,94,0,20140809200000
1198,"BDA, Huangshi",,30.207491,115.031739,158,77,9,3,1,13,25,,1007,94,0,20140809200000
636,Shiyan,,32.627208,110.803311,119,57,6,6,3,12,20,19,941,81,1,20140809200000
636,Shiyan,,32.627208,110.803311,119,57,6,6,3,12,20,19,941,81,1,20140809200000
1199,"Wudang Mountain , Shiyan",,32.392921,111.047655,9,4,8,1,-,5,18,,956,99,1,20140809200000
1200,"Riverside Village , Shiyan",,32.647286,110.785335,119,57,6,5,2,-,20,,941,81,1,20140809200000
1201,"Liujiagou , Shiyan",,32.636732,110.731129,119,57,5,6,3,12,20,,941,81,1,20140809200000
1202,"Yunyang County District automatic air station , Shiyan",,32.833065,110.816809,34,31,3,2,2,5,20,,941,81,1,20140809200000
637,Xiangyang,,32.007029,112.128496,74,41,12,3,4,7,20,,1008,99,1,20140809200000
637,Xiangyang,,32.007029,112.128496,74,41,12,3,4,7,20,,1008,99,1,20140809200000
638,Ezhou,,30.389244,114.899884,161,78,12,6,3,18,26,20,1015,89,4,20140809200000
638,Ezhou,,30.389244,114.899884,161,78,12,6,3,18,26,20,1015,89,4,20140809200000
1203,"City government, Ezhou",,30.391836,114.892822,159,67,7,4,1,5,26,,1014,80,2,20140809200000
1204,"Zhaojiaba, Ezhou",,30.368966,114.90365,159,78,7,6,1,10,26,,1014,80,2,20140809200000
1205,"Fankou BDA, Ezhou",,30.410759,114.818225,161,75,12,2,3,18,26,,1014,80,2,20140809200000
639,Jingmen,,31.033208,112.205093,1,37,31,9,20,11,23,18,1000,78,2,20140809200000
639,Jingmen,,31.033208,112.205093,1,37,31,9,20,11,23,18,1000,78,2,20140809200000
640,Xiaogan,,30.922089,113.922387,158,69,8,-,1,2,22,20,1006,88,2,20140809200000
640,Xiaogan,,30.922089,113.922387,158,69,8,-,1,2,22,20,1006,88,2,20140809200000
1206,"wenhua street, Shenyang , Xiaogan",,30.925856,113.92104,-,-,-,-,-,-,-,23,0,-,-,20140809200000
1207,"Dongcheng District , Huludao , Xiaogan",,30.917963,113.943904,158,69,8,-,1,2,22,20,1006,88,2,20140809200000
641,Huanggang,,30.45124,114.877378,158,99,10,4,1,14,26,20,1014,80,2,20140809200000
641,Huanggang,,30.45124,114.877378,158,99,10,4,1,14,26,20,1014,80,2,20140809200000
1208,"Dazhou Island, Huanggang",,30.446205,114.900323,158,99,3,4,1,14,26,,1014,80,2,20140809200000
1209,"Workers Center , Huanggang",,30.469244,114.912504,153,64,10,2,4,13,26,,1014,80,2,20140809200000
642,Xianning,,29.838978,114.327898,159,74,9,9,4,16,23,20,980,98,1,20140809200000
642,Xianning,,29.838978,114.327898,159,74,9,9,4,16,23,20,980,98,1,20140809200000
1210,"Municipal Development and Reform Commission , Xianning",,29.818645,114.328461,156,73,8,-,-,16,23,,980,98,1,20140809200000
1211,"Xianan District Governement, Xianning",,29.51107,114.181864,157,78,5,9,6,16,24,,989,96,1,20140809200000
1212,"Yangtze River Industrial Park , Xianning",,29.883098,114.32909,159,74,9,6,4,15,23,,980,98,1,20140809200000
1213,"Qianshan Park, Xianning",,29.815351,114.328689,158,72,7,9,3,16,23,,980,98,1,20140809200000
644,Enshi,,30.269587,109.493042,154,57,41,9,9,17,22,19,909,91,2,20140809200000
644,Enshi,,30.269587,109.493042,154,57,41,9,9,17,22,19,909,91,2,20140809200000
645,Xiantao,,30.360228,113.460616,158,81,8,3,3,2,24,20,1015,81,4,20140809200000
645,Xiantao,,30.360228,113.460616,158,81,8,3,3,2,24,20,1015,81,4,20140809200000
646,Qianjiang,,30.399387,112.905661,1,75,31,8,5,11,25,18,1014,66,3,20140809200000
646,Qianjiang,,30.399387,112.905661,1,75,31,8,5,11,25,18,1014,66,3,20140809200000
647,Tianmen,,30.661027,113.172549,158,55,8,9,5,2,25,18,1014,66,4,20140809200000
647,Tianmen,,30.661027,113.172549,158,55,8,9,5,2,25,18,1014,66,4,20140809200000
1088,Shennongjia,,31.741307,110.685554,119,16,6,7,1,12,18,19,877,97,1,20140809200000
1088,Shennongjia,,31.741307,110.685554,119,16,6,7,1,12,18,19,877,97,1,20140809200000
1214,"Xiangcheng Yundong Street, Xiangfan",,32.017716,112.16102,74,41,12,3,3,7,20,,1008,99,1,20140809200000
655,"City Environmental Monitoring Station, Baotou",,40.657201,109.886738,85,61,22,33,11,7,,,,,,20140809200000
656,"Donghe EPB, Baotou",,40.586213,110.002224,89,94,32,25,9,8,,,,,,20140809200000
657,"Baotou shopping mall, Baotou",,40.508334,109.819085,82,52,27,23,9,10,,,,,,20140809200000
658,"Huilong logistics, Baotou",,40.633436,109.879821,68,48,32,33,10,6,,,,,,20140809200000
659,Baotou,,40.658597,109.846051,102,72,32,37,11,10,15,12,1006,79,1,20140809200000
660,"Huatai Automobile Mall, Eerduosi",,39.837048,109.972209,59,22,76,9,2,3,15,12,1006,79,1,20140809200000
661,"Olympus Garden, Eerduosi",,39.789171,109.987742,50,29,57,13,2,5,15,12,1006,79,1,20140809200000
662,Eerduosi,,39.609284,109.78704,59,29,83,13,6,7,15,12,1006,79,1,20140809200000
663,"Tianyi Road, Chifeng",,42.275552,118.88507,85,46,75,6,9,8,17,16,1004,96,1,20140809200000
664,"Songshan No.1 Middle School, Chifeng",,42.329307,118.793045,91,52,47,8,8,13,17,16,1004,96,1,20140809200000
665,"Hada Street, Chifeng",,42.280714,118.988235,149,60,28,4,15,9,17,16,1004,96,1,20140809200000
666,"Songshan Road, Chifeng",,42.171487,118.89501,97,39,113,2,4,7,17,16,1004,96,1,20140809200000
667,Chifeng,,42.259752,118.893027,97,52,113,8,9,13,17,16,1004,96,1,20140809200000
674,Fuzhou,,26.071406,119.301294,104,51,46,17,3,4,27,26,1002,94,2,20140809200000
675,"Xidong, Xiamen",,24.815345,118.161848,104,46,119,6,2,5,28,26,1002,89,2,20140809200000
676,"Hongwen, Xiamen",,24.473969,118.156281,74,40,111,24,21,9,28,26,1002,89,2,20140809200000
677,"Gulangyu, Xiamen",,24.443168,118.068571,107,49,65,19,18,8,28,26,1002,89,2,20140809200000
678,"Huli, Xiamen",,24.51235,118.099146,112,52,146,22,18,6,28,26,1002,89,2,20140809200000
679,Xiamen,,24.477187,118.094402,112,52,146,22,18,8,28,26,1002,89,2,20140809200000
680,"Qingyuan Montain, Quanzhou",,24.939503,118.598337,65,20,48,4,4,4,28,26,1002,89,2,20140809200000
681,"Tushan Street, Quanzhou",,24.90867,118.586397,74,40,43,2,4,5,28,26,1002,89,2,20140809200000
682,"Wanan, Quanzhou",,24.304154,118.070903,57,19,48,1,2,6,28,26,1002,89,2,20140809200000
683,Quanzhou,,24.87179,118.68001,74,43,61,10,5,7,28,26,1002,89,2,20140809200000
687,"Jiancaoping, Taiyuan",,37.887889,112.528383,134,75,26,26,12,9,18,15,1009,83,1,20140809200000
688,"Jianhe, Taiyuan",,37.910779,112.579258,119,68,32,16,14,9,18,15,1009,83,1,20140809200000
689,"Shanglan, Taiyuan",,38.011589,112.440679,65,61,39,7,4,6,18,15,1009,83,1,20140809200000
690,"Jinyuan, Taiyuan",,37.713164,112.475552,149,76,20,29,27,11,18,15,1009,83,1,20140809200000
691,"Xiaodian, Taiyuan",,37.782137,112.483533,167,93,16,45,42,10,18,15,1009,83,1,20140809200000
692,"Taoyuan, Taiyuan",,37.869752,112.543332,99,64,27,44,14,9,18,15,1009,83,1,20140809200000
693,"Wucheng, Taiyuan",,37.819998,112.576252,153,108,31,35,8,11,18,15,1009,83,1,20140809200000
694,"Nanzhai, Taiyuan",,37.985902,112.555312,134,74,32,24,15,12,18,15,1009,83,1,20140809200000
695,"Jinsheng, Taiyuan",,37.781205,112.494494,152,64,26,28,21,16,18,15,1009,83,1,20140809200000
696,Taiyuan,,37.871115,112.555178,134,75,27,30,13,9,18,15,1009,83,1,20140809200000
697,"Monitoring station, Changzhi",,36.194062,113.10389,91,38,13,27,12,12,17,17,1006,100,1,20140809200000
698,"Auditing bureau, Changzhi",,36.212787,113.095221,155,79,10,33,13,16,17,17,1006,100,1,20140809200000
699,"Qinghua station, Changzhi",,36.154328,113.116385,114,69,9,18,6,18,17,17,1006,100,1,20140809200000
700,"No.8 middle school, Changzhi",,36.185451,113.099481,132,69,13,39,15,14,,,,,,20140809200000
701,Changzhi,,36.195553,113.12292,155,79,10,39,15,18,17,16,1007,94,1,20140809200000
702,"Yungang Hotel, Datong",,40.076997,113.278079,63,36,34,15,9,9,13,12,1006,92,1,20140809200000
703,"college of education, Datong",,40.085608,113.27808,91,35,30,14,12,8,13,12,1006,92,1,20140809200000
704,Datong,,40.078016,113.307143,97,45,28,14,20,6,13,12,1006,92,1,20140809200000
705,"Technical Schools, Linfen",,36.07131,111.509046,179,100,31,11,7,45,16,13,0,82,1,20140809200000
706,"Municipal party committee, Linfen",,36.087425,111.508771,160,99,23,2,24,24,16,13,0,82,1,20140809200000
1073,"City Monitoring Station, Linfen",,36.097676,111.518739,178,110,7,11,10,30,16,13,0,82,2,20140809200000
707,"South Airport, Linfen",,36.041614,111.497968,163,82,10,12,2,24,16,13,0,82,1,20140809200000
708,Linfen,,36.087944,111.525098,179,110,8,11,24,24,16,13,0,82,1,20140809200000
709,"City center, Yangquan",,37.848012,113.578636,102,80,16,38,39,7,18,15,1009,83,1,20140809200000
710,Yangquan,,37.857475,113.586921,151,140,44,49,78,26,18,15,1009,83,1,20140809200000
711,"Water Company, Jincheng",,35.504787,112.857245,154,80,13,7,21,16,17,16,1007,94,1,20140809200000
712,"Baiyun shopping mall, Jincheng",,35.492858,112.841566,68,62,7,22,11,15,17,16,1007,94,1,20140809200000
713,"City EPA, Jincheng",,35.488422,112.858528,91,49,9,25,30,23,17,16,1007,94,1,20140809200000
714,"Institute of Technology, Jincheng",,35.484844,112.878073,65,62,20,18,9,14,17,16,1007,94,1,20140809200000
715,"No.1 middle school, Jincheng",,35.478725,112.838636,82,58,5,15,8,9,17,16,1007,94,1,20140809200000
716,Jincheng,,35.490287,112.85794,154,80,15,22,27,24,17,16,1007,94,1,20140809200000
718,"District Government, Shuozhou",,39.320857,112.430641,46,29,35,17,5,9,18,15,1006,77,1,20140809200000
719,"City EPA, Shuozhou",,39.331495,112.407997,46,33,35,13,6,9,18,15,1006,77,1,20140809200000
720,"No.2 middle school, Shuozhou",,39.377963,112.432877,50,52,26,19,20,8,18,15,1006,77,1,20140809200000
721,Shuozhou,,39.332756,112.439672,74,48,35,17,13,9,18,15,1006,77,1,20140809200000
783,"Datong District, Daqing",,46.036786,124.842115,82,32,99,4,5,5,20,18,1006,82,2,20140809200000
722,"Jinlun compound, Jinzhong",,37.697891,112.771017,151,72,30,24,28,10,18,15,1009,83,1,20140809200000
723,"Hydraulic Component Factory, Jinzhong",,37.688355,112.725844,168,83,17,34,41,0,18,15,1009,83,1,20140809200000
724,"Nandu compound, Jinzhong",,37.713148,112.732036,166,49,15,32,54,9,18,15,1009,83,1,20140809200000
725,"Yuci district government, Jinzhong",,37.698228,112.714167,165,82,25,23,28,10,18,15,1009,83,1,20140809200000
726,Jinzhong,,37.687705,112.759187,168,83,24,34,41,10,18,15,1009,83,1,20140809200000
727,"Yuncheng Middle School, Yuncheng",,35.012345,111.003215,-,-,-,-,-,-,-,-,0,-,-,20140809200000
728,"Yudou BDA, Yuncheng",,35.05065,111.029571,152,96,20,22,12,24,18,17,1008,88,1,20140809200000
730,"Regional Technical School, Yuncheng",,35.028727,110.974076,165,79,18,7,8,39,18,17,1008,88,1,20140809200000
731,"Airport new district, Yuncheng",,35.084515,111.05339,129,78,13,0,0,23,18,17,1008,88,1,20140809200000
732,Yuncheng,,35.025675,111.013344,165,96,18,22,12,39,18,17,1008,88,1,20140809200000
733,"Jiyin, Xinzhou",,38.413292,112.742432,95,54,20,12,22,12,19,15,1009,78,2,20140809200000
734,"BDA, Xinzhou",,38.450069,112.736723,95,29,20,5,22,12,18,15,1009,83,1,20140809200000
735,"Convention Center, Xinzhou",,38.492043,112.709772,-,-,-,-,-,-,-,-,0,-,-,20140809200000
736,Xinzhou,,38.417244,112.740742,95,54,20,12,22,12,19,15,1009,78,2,20140809200000
737,"City EPA, Luliang",,37.522189,111.144365,122,59,14,12,11,15,20,18,0,92,1,20140809200000
738,"Soybean factory, Luliang",,37.51689,111.135101,122,64,8,42,21,12,20,18,0,92,1,20140809200000
739,"Water Company, Luliang",,37.53394,111.138834,109,68,16,22,1,11,20,18,0,92,1,20140809200000
740,Luliang,,25.027007,103.668566,122,64,8,42,21,12,20,18,0,92,1,20140809200000
741,"City government, Sanmenxia",,34.776251,111.198781,93,67,9,22,16,13,18,17,1008,88,1,20140809200000
743,"BDA, Sanmenxia",,34.800434,111.204332,129,61,8,7,2,5,18,17,1008,88,1,20140809200000
744,Sanmenxia,,34.771506,111.206129,142,68,18,22,16,13,18,17,1008,88,1,20140809200000
745,"Food Factory, Changchun",,43.919094,125.329521,117,56,25,7,4,7,19,13,1006,68,1,20140809200000
746,"Bus Factory, Changchun",,43.912337,125.293431,102,69,21,17,16,7,28,14,1011,42,3,20140809200000
747,"Institute of Posts and Telecommunications, Changchun",,43.842368,125.285005,89,62,11,11,3,7,19,13,1006,68,1,20140809200000
748,"Laodong Park, Changchun",,43.877293,125.371519,114,59,-,-,5,9,19,13,1006,68,1,20140809200000
749,"Forest area, Changchun",,43.871825,125.331519,95,69,20,9,3,9,19,13,1006,68,1,20140809200000
750,"Jinyuetan, Changchun",,43.79031,125.460561,76,26,29,1,1,6,19,13,1006,68,1,20140809200000
751,"Shuaiwanzi, Changchun",,43.552321,125.639086,46,30,28,3,1,4,19,13,1006,68,1,20140809200000
752,"Economic Development Zone Sanitation Department, Changchun",,43.869221,125.42365,89,40,18,6,4,6,19,13,1006,68,1,20140809200000
753,"High-tech Zone Administrative Committee, Changchun",,43.819064,125.256375,91,44,18,6,2,6,19,13,1006,68,1,20140809200000
754,"Daishan Park, Changchun",,43.852365,125.223399,93,44,19,11,2,6,19,13,1006,68,1,20140809200000
755,Changchun,,43.819415,125.329977,114,62,11,11,5,9,19,13,1006,68,1,20140809200000
756,"Hadawan, Jilin",,43.888081,126.545727,97,75,18,22,4,6,14,8,0,67,3,20140809200000
757,"Fengman, Jilin",,43.768169,126.678802,-,-,-,-,-,-,-,-,0,-,-,20140809200000
758,"Electric Power College, Jilin",,43.827403,126.502281,85,52,30,3,2,6,14,8,0,67,3,20140809200000
759,"Jiangnan Park, Jilin",,43.83531,126.556519,87,42,31,1,4,6,14,8,0,67,3,20140809200000
760,"Dongjuzi, Jilin",,43.838597,126.590068,78,51,27,8,2,2,14,8,0,67,3,20140809200000
763,Jilin,,43.840137,126.555262,107,75,65,22,10,7,14,8,0,67,3,20140809200000
764,"Lingbei, Haerbin",,45.756979,126.548008,97,44,42,21,9,5,20,14,1006,68,3,20140809200000
765,"Songbei Commercial University, Haerbin",,45.818624,126.566963,171,70,40,24,5,7,20,14,1006,68,3,20140809200000
766,"Acheng huining, Haerbin",,45.544286,126.985183,104,49,38,11,3,4,20,14,1006,68,3,20140809200000
767,"Nangang College Street, Haerbin",,45.724121,126.604906,117,60,42,30,4,6,20,14,1006,68,3,20140809200000
768,"Taiping Hongwei Park, Haerbin",,45.775332,126.695101,139,67,38,32,3,8,20,14,1006,68,3,20140809200000
769,"Daowai Chengde Square, Haerbin",,45.768637,126.640955,104,58,41,25,9,5,20,14,1006,68,3,20140809200000
770,"Xiangfang Hongqi Street, Haerbin",,45.733936,126.691083,99,70,39,17,1,8,20,14,1006,68,3,20140809200000
771,"Dongli Heping Road, Haerbin",,45.727765,126.651974,127,62,46,31,9,5,20,14,1006,68,3,20140809200000
772,"Daoli Jianguo Road, Haerbin",,45.749715,126.59891,76,42,45,29,2,18,20,14,1006,68,3,20140809200000
773,"Pingfang Light Factory, Haerbin",,45.611951,126.620898,85,31,41,11,2,3,20,14,1006,68,3,20140809200000
774,"Hulan Normal College, Haerbin",,45.983745,126.616553,119,39,43,16,3,6,20,14,1006,68,3,20140809200000
775,"Provincial Academy of Agricultural Sciences, Haerbin",,45.686141,126.626517,97,62,38,28,8,5,20,14,1006,68,3,20140809200000
776,Haerbin,,45.805757,126.541007,171,70,42,24,9,7,20,14,1006,68,3,20140809200000
777,"Anju Compound, Qiqihaer",,47.365672,123.937016,99,41,45,8,3,7,22,19,1005,77,4,20140809200000
778,"Farming Vehicule Factory, Qiqihaer",,47.326793,123.961427,87,39,48,6,1,6,22,19,1005,77,4,20140809200000
779,"Fuqu EPA, Qiqihaer",,47.1853,123.62322,99,56,133,1,2,8,22,19,1005,77,4,20140809200000
780,"City Center Square, Qiqihaer",,47.343096,123.96192,-,40,5,3,3,5,22,19,1005,77,4,20140809200000
1217,"City Environmental Monitoring Station, Qiqihaer",,47.303639,123.957551,109,55,48,1,3,7,22,19,1005,77,4,20140809200000
781,Qiqihaer,,47.356387,123.924736,109,56,133,8,3,8,22,19,1005,77,4,20140809200000
782,"Saertu District, Daqing",,46.582368,125.152904,93,46,20,12,9,3,20,18,1006,82,2,20140809200000
784,"Honggang District, Daqing",,46.418381,124.88973,85,35,50,8,4,5,20,18,1006,82,2,20140809200000
785,"Longfeng District, Daqing",,46.535426,125.107043,87,41,40,5,4,7,20,18,1006,82,2,20140809200000
786,"Ranghulu District, Daqing",,46.635123,124.85648,99,51,51,17,11,6,20,18,1006,82,2,20140809200000
787,Daqing,,46.591414,125.110838,99,51,78,17,11,7,20,18,1006,82,2,20140809200000
788,"Locomotive Factory, Mudanjiang",,44.610589,129.652672,93,66,105,9,4,3,14,8,1011,61,2,20140809200000
789,"No. 1 hospital, Mudanjiang",,44.567775,129.617043,127,-,44,6,4,5,14,8,1011,61,2,20140809200000
1220,"EPA building, Mudanjiang",,44.567777,129.620658,89,54,23,9,3,5,14,8,1011,61,2,20140809200000
1221,"Cultural Square, Mudanjiang",,44.586388,129.623164,142,75,15,17,10,4,14,8,1011,61,2,20140809200000
790,Mudanjiang,,44.553619,129.640246,147,75,80,17,10,5,14,8,1011,61,2,20140809200000
791,"Mingzhu Plaza, Hefei",,31.782847,117.201512,91,23,-,5,3,9,21,21,1006,100,2,20140809200000
792,"Sanli Street, Hefei",,31.874637,117.312573,89,30,2,4,3,5,21,21,1006,100,2,20140809200000
793,"Hupo Compound, Hefei",,31.868583,117.264491,91,32,41,-,4,6,21,21,1006,100,2,20140809200000
794,"Dongpu Reservoir, Hefei",,31.90319,117.165584,139,43,0,6,1,5,21,21,1006,100,2,20140809200000
795,"Changjiang middle road, Hefei",,31.855185,117.255484,82,37,5,5,3,5,21,21,1006,100,2,20140809200000
796,"Luyang District, Hefei",,31.941771,117.271504,142,41,3,1,14,4,21,21,1006,100,2,20140809200000
797,"Yaohai District, Hefei",,31.856595,117.341644,117,-,12,5,6,5,21,21,1006,100,2,20140809200000
798,"Baohe District, Hefei",,31.793644,117.307554,152,24,2,1,1,4,21,21,1006,100,2,20140809200000
799,"Lake district, Hefei",,31.736619,117.283501,114,37,19,6,7,5,21,21,1006,100,2,20140809200000
800,"High-tech zone, Hefei",,31.849755,117.129624,93,37,11,2,8,2,21,21,1006,100,2,20140809200000
801,Hefei,,31.819449,117.232753,91,37,5,5,3,9,21,21,1006,100,2,20140809200000
802,"Hudong Road No.4 Elementary School, Maanshan",,31.684121,118.511017,78,36,14,7,9,5,23,22,1004,94,2,20140809200000
803,"Tianping Garment Factory, Maanshan",,31.64197,118.488043,109,76,14,27,30,8,23,22,1004,94,2,20140809200000
804,"City education base, Maanshan",,31.711216,118.648913,78,36,5,4,3,2,23,22,1004,94,2,20140809200000
805,"Cihu No.2 elementary school, Maanshan",,31.748546,118.515729,85,38,20,4,1,11,23,22,1004,94,2,20140809200000
806,"Maanshan steel factory power plant, Maanshan",,31.690864,118.48528,119,102,2,1,3,10,23,22,1004,94,2,20140809200000
807,Maanshan,,31.668461,118.511939,119,102,20,27,30,11,23,22,1004,94,2,20140809200000
808,"Science Innovation Center, Wuhu",,31.417056,118.375406,78,22,12,1,3,6,23,22,1004,94,2,20140809200000
809,"No.4 Water Plant, Wuhu",,31.315914,118.376231,80,41,13,15,7,3,23,22,1004,94,2,20140809200000
810,"Monitoring station, Wuhu",,31.348955,118.358154,65,18,8,3,13,4,23,22,1004,94,2,20140809200000
811,"Wuqierling Factory, Wuhu",,31.382068,118.407639,74,49,19,16,14,7,23,22,1004,94,2,20140809200000
812,Wuhu,,31.351007,118.438322,80,49,19,16,14,7,23,22,1004,94,2,20140809200000
813,"Jiangxi Foreign Affairs Office, Nanchang",,28.681036,115.897845,109,57,21,15,10,8,28,24,1004,78,1,20140809200000
814,"Provincial forestry company, Nanchang",,28.694646,115.892851,97,73,18,9,9,7,28,24,1004,78,1,20140809200000
815,"Institute of Forestry, Nanchang",,28.74099,115.818017,17,26,21,3,6,12,28,24,1004,78,1,20140809200000
816,"Jingdong town government, Nanchang",,28.693649,115.97793,72,54,27,11,10,6,28,24,1004,78,1,20140809200000
817,"Contruction Industry College, Nanchang",,28.683582,115.856915,76,52,18,16,9,7,28,24,1004,78,1,20140809200000
818,"Xianghu, Nanchang",,28.639112,115.896843,68,60,32,14,12,11,28,24,1004,78,1,20140809200000
819,"Martial Arts School, Nanchang",,28.796292,115.747122,17,15,4,3,5,5,28,24,1004,78,1,20140809200000
820,"Petrifaction Company, Nanchang",,28.609697,115.916832,68,91,22,3,3,10,28,24,1004,78,1,20140809200000
821,"Provincial Station, Nanchang",,28.681053,115.935848,55,52,25,17,21,8,28,24,1004,78,1,20140809200000
822,Nanchang,,28.679883,115.863022,97,73,18,16,9,7,28,24,1004,78,1,20140809200000
823,"Lushan Mountain Observatory, Jiujiang",,29.584073,115.998671,72,33,25,2,1,5,20,19,1005,99,1,20140809200000
824,"Shili, Jiujiang",,29.678969,115.992271,165,75,19,9,11,6,20,19,1005,99,1,20140809200000
825,"Maoshantou, Jiujiang",,29.702089,115.963113,155,78,16,10,51,13,20,19,1005,99,1,20140809200000
826,"Xiyuan, Jiujiang",,29.726646,115.993055,144,67,14,14,10,7,20,19,1005,99,1,20140809200000
827,"Wuqierling Factory, Jiujiang",,29.650969,116.022581,157,93,2,7,2,4,20,19,1005,99,1,20140809200000
828,"Water Scientific Research Institute, Jiujiang",,29.690223,116.067992,102,40,14,1,9,8,20,19,1005,99,1,20140809200000
829,"Zonghe Industrial Park, Jiujiang",,29.601135,115.916354,157,81,14,18,16,8,20,19,1005,99,1,20140809200000
830,"Petrochemical General Plant, Jiujiang",,29.75101,116.094516,53,24,14,7,1,8,20,19,1005,99,1,20140809200000
831,Jiujiang,,29.70254,116.007025,165,93,25,18,16,13,20,19,1005,99,1,20140809200000
832,"Tobacco Factory, Zhengzhou",,34.753419,113.687131,153,85,6,23,5,11,17,17,1006,100,1,20140809200000
833,"Textile Machinery Factory, Zhengzhou",,34.773366,113.647067,154,75,10,24,10,21,17,17,1006,100,1,20140809200000
834,"Banking College, Zhengzhou",,34.800856,113.681126,157,94,8,31,14,18,17,17,1006,100,1,20140809200000
835,"Water Supply Company, Zhengzhou",,34.807188,113.571089,166,90,8,29,17,18,17,17,1006,100,1,20140809200000
836,"Economic Development Zone Management Committee, Zhengzhou",,34.717652,113.733182,157,100,5,28,6,10,17,17,1006,100,1,20140809200000
837,"No. 47 middle school, Zhengzhou",,34.772211,113.74009,152,89,13,29,8,7,17,17,1006,100,1,20140809200000
838,"City Monitoring Station, Zhengzhou",,34.748404,113.60514,159,91,9,19,4,11,17,17,1006,100,1,20140809200000
839,"Henan Medical University, Zhengzhou",,34.752637,113.641658,155,83,14,21,10,9,17,17,1006,100,1,20140809200000
840,"Gangli Reservoir, Zhengzhou",,34.952652,113.64248,134,59,7,18,11,10,17,17,1006,100,1,20140809200000
841,Zhengzhou,,34.745417,113.631415,159,91,14,21,10,11,17,17,1006,100,1,20140809200000
842,"Henan University No.1 Hospital, Kaifeng",,34.799302,114.352706,159,71,8,20,14,9,17,17,1006,100,1,20140809200000
843,"Maternity And Child Hospital, Kaifeng",,34.795803,114.386103,124,55,13,12,10,9,17,17,1006,100,1,20140809200000
844,"Cancer Hospital, Kaifeng",,34.775428,114.350292,114,54,17,14,8,6,17,17,1006,100,1,20140809200000
845,"Yellow River Conservancy Institute, Kaifeng",,34.826066,114.324772,132,59,6,9,17,27,17,17,1006,100,1,20140809200000
846,"Shijixing Kindergarden, Kaifeng",,34.793606,114.302744,13,6,-,-,-,-,17,17,1006,100,1,20140809200000
847,Kaifeng,,34.796346,114.313426,159,71,17,20,14,9,17,17,1006,100,1,20140809200000
852,Jiaozuo,,35.215381,113.248188,158,86,26,25,55,13,17,17,1006,100,1,20140809200000
853,"Cotton Research Institute, Anyang",,36.081435,114.486451,82,42,17,4,3,4,19,18,1005,90,2,20140809200000
854,"Hongmiao Street, Anyang",,36.086733,114.326,149,68,15,16,20,16,19,18,1005,90,2,20140809200000
855,"Yinxing Compound, Anyang",,36.056519,114.36495,119,69,16,20,12,11,19,18,1005,90,2,20140809200000
856,"Tiefo Temple, Anyang",,36.110041,114.309309,129,81,7,22,10,17,19,18,1005,90,2,20140809200000
857,Anyang,,36.097767,114.398846,153,81,19,22,20,17,19,18,1005,90,2,20140809200000
858,"City Monitoring Station, Luoyang",,34.669055,112.439633,87,44,8,10,4,7,,,,,,20140809200000
859,"BDA Management Committee, Luoyang",,34.622084,112.390759,85,40,12,16,3,12,,,,,,20140809200000
860,"New municipal office, Luoyang",,34.623745,112.432973,68,52,19,11,5,20,,,,,,20140809200000
861,"City committee communist party school, Luoyang",,34.650169,112.400212,78,56,10,17,4,10,,,,,,20140809200000
862,"Henan Forestry College, Luoyang",,34.685566,112.509429,91,53,12,16,4,18,,,,,,20140809200000
863,"CITIC No.2 Elementary School, Luoyang",,34.668212,112.36907,50,54,12,24,5,12,,,,,,20140809200000
864,"Yuxi Hotel, Luoyang",,34.685949,112.472611,124,61,7,29,6,20,,,,,,20140809200000
865,Luoyang,,34.617424,112.46054,124,61,19,29,6,20,17,16,1007,94,1,20140809200000
866,"City Planning Design Institute, Pingdingshan",,33.7352,113.297916,156,63,12,17,22,11,17,17,1006,100,1,20140809200000
867,"Xinhua Hotel, Pingdingshan",,33.737754,113.328814,149,72,13,18,21,10,17,17,1006,100,1,20140809200000
868,"Engineering College, Pingdingshan",,33.772474,113.188235,134,54,22,10,7,5,17,17,1006,100,1,20140809200000
869,"High Voltage Switchgear Factory, Pingdingshan",,33.719941,113.312665,129,67,8,22,13,10,17,17,1006,100,1,20140809200000
870,Pingdingshan,,33.764754,113.199082,156,72,22,22,22,11,17,17,1006,100,1,20140809200000
871,"Economic Development Zone EPA, Changsha",,28.239029,113.087873,168,87,36,13,9,8,25,23,1004,89,2,20140809200000
872,"High-tech Zone EPA, Changsha",,28.216766,112.893403,185,75,19,11,26,7,25,23,1004,89,2,20140809200000
