locationid,stationname,chinesename,latitude,longitude,pm25,pm10,o3,no2,so2,co,temperature,dewpoint,pressure,humidity,wind,est_time
1,Dongcheng Dongsi,,39.9304,116.423239,216,150,4,51,37,21,0,-5,1027,69,1,20141118170000
2,"Temple of Heaven, Dongcheng",,39.887403,116.41324,215,135,5,43,3,30,0,-5,1027,69,1,20141118170000
3,West Park officials,,39.930333,116.345162,199,117,3,51,23,17,0,-5,1027,69,1,20141118170000
4,West Wanshou Nishinomiya,,39.879354,116.358183,228,137,3,56,22,23,0,-5,1027,69,1,20141118170000
5,Chaoyang Olympic Sports Center,,39.983406,116.403253,212,132,1,60,20,19,0,-5,1027,69,1,20141118170000
6,Chaoyang Agricultural Exhibition Hall,,39.938331,116.46715,248,143,3,62,26,18,0,-5,1027,69,1,20141118170000
7,Haidian Wanliu,,39.988245,116.293062,191,130,1,53,17,22,0,-5,1027,69,1,20141118170000
8,The Haidian northern New Area,,40.091313,116.180194,182,120,1,36,7,23,0,-5,1027,69,1,20141118170000
9,Haidian Beijing Botanical Garden,,40.003252,116.213097,177,82,3,46,14,15,0,-5,1027,69,1,20141118170000
10,Fengtai garden,,39.86423,116.285037,288,219,2,63,33,16,0,-5,1027,69,1,20141118170000
11,Fengtai Yungang,,39.82535,116.152237,219,143,2,54,40,17,0,-5,1027,69,1,20141118170000
12,Shijingshan city,,39.915286,116.190144,181,117,4,44,14,24,0,-5,1027,69,1,20141118170000
13,"Fangshan, Liangxiang",,39.743357,116.14225,252,153,2,45,13,24,0,-5,1027,69,1,20141118170000
14,"Huangcunzhen, Daxing",,39.719389,116.410219,290,153,3,55,36,20,0,-5,1027,69,1,20141118170000
15,BDA,,39.796197,116.51197,296,153,5,58,35,25,0,-5,1027,69,1,20141118170000
16,Tongzhou New Town,,39.887113,116.6689,495,402,2,80,57,44,0,-5,1027,69,1,20141118170000
17,Shunyi New Town ,,40.128111,116.660908,247,175,7,50,14,22,0,-5,1027,69,1,20141118170000
18,Changping Town,,40.218245,116.236084,167,88,4,43,19,19,0,-5,1027,69,1,20141118170000
19,"Mentougou, Longquan Town",,39.938397,116.112323,159,68,2,35,17,21,0,-5,1027,69,1,20141118170000
20,Pinggu town,,40.144433,117.106563,165,66,6,23,8,14,0,-5,1027,69,1,20141118170000
21,Huairou town,,40.329104,116.63387,151,61,6,27,8,12,0,-5,1027,69,1,20141118170000
22,The town of Miyun,,40.371186,116.838053,179,85,4,30,7,14,0,-5,1027,69,1,20141118170000
23,Yanqing town,,40.454217,115.978106,191,103,2,32,15,23,0,-5,1027,69,1,20141118170000
24,Changping Dingling,,40.293269,116.226108,170,80,3,43,14,18,0,-5,1027,69,1,20141118170000
25,Badaling Northwest,,40.36623,115.994146,162,71,1,45,14,11,0,-5,1027,69,1,20141118170000
26,Miyun Reservoir,,40.500157,116.91701,118,51,17,11,5,5,0,-5,1027,69,1,20141118170000
27,"Donggaocun Zhen, Pinggu",,40.10142,117.126556,229,118,12,38,32,11,0,-5,1027,69,1,20141118170000
28,"Yongledianzhen, Tongzhou",,39.713192,116.78905,416,264,3,52,15,27,0,-5,1027,69,1,20141118170000
29,"Yufazhen, Daxing",,39.521203,116.306026,291,164,2,46,10,20,0,-5,1027,69,1,20141118170000
30,"Liulihezhen, Fangshan",,39.581169,116.006089,436,449,7,56,7,30,0,-5,1027,69,1,20141118170000
31,"Qianmen E St, Dongcheng",,39.900402,116.401242,-,-,-,-,-,-,-,-,0,-,-,20141118170000
32,Yongdingmen Inner St,,39.877401,116.400238,272,147,2,63,18,35,0,-5,1027,69,1,20141118170000
33,Xizhimen N St,,39.955352,116.355187,236,160,2,62,26,24,0,-5,1027,69,1,20141118170000
34,South Ring Road,,39.857377,116.37421,-,-,-,-,-,-,-,-,0,-,-,20141118170000
35,East Fourth Ring Road,,39.940273,116.489075,279,186,1,85,7,28,0,-5,1027,69,1,20141118170000
36,Beijing,,39.955906,116.474246,271,150,3,51,37,21,0,-5,1027,69,1,20141118170000
37,Putuo,,31.232979,121.415378,154,61,22,49,8,7,11,5,1029,67,2,20141118170000
38,Yangpu Sipiao,,31.263795,121.540311,139,51,36,30,10,8,11,5,1029,67,2,20141118170000
39,Shanghai Normal College Primary Division,,31.199031,121.487719,152,55,36,35,12,7,11,5,1029,67,2,20141118170000
40,Dianshan Lake,,31.091338,120.982293,172,74,35,42,10,10,11,5,1029,67,2,20141118170000
41,Hongkou Liangcheng,,31.298906,121.47155,124,45,39,38,9,7,9,5,1029,76,2,20141118170000
42,Jingan,,31.224251,121.429637,124,42,36,25,10,9,11,5,1029,67,2,20141118170000
43,Shanghai Normal University,,31.163531,121.416643,137,47,38,34,8,8,9,5,1029,76,2,20141118170000
44,Chuansha,,31.188626,121.707342,146,52,38,25,9,6,11,5,1029,67,2,20141118170000
45,Zhangjiang,,31.204896,121.581215,134,48,43,24,6,7,9,5,1029,76,2,20141118170000
46,Lingshan Road,,31.226286,121.537317,138,55,35,57,14,8,11,5,1029,67,2,20141118170000
1080,City average,,31.228451,121.478227,140,52,25,35,9,7,11,5,1029,67,2,20141118170000
47,Shanghai,,31.202842,121.453493,129,58,27,37,13,7,11,5,1029,67,2,20141118170000
48,Guangzhou,,23.138517,113.263701,153,63,48,21,9,10,18,9,1023,56,4,20141118170000
49,"Huadu town, Guangzhou",,23.389121,113.220062,-,-,-,-,-,-,-,-,0,-,-,20141118170000
50,"Luogang Zhenlong, Guangzhou",,23.308027,113.567032,152,61,48,16,27,8,18,10,1023,59,0,20141118170000
51,"LuHu, Guangzhou",,23.151743,113.281842,149,56,48,22,7,10,18,10,1023,59,0,20141118170000
52,"Tianhu, Guangzhou",,23.647433,113.629715,-,-,-,-,-,-,-,-,0,-,-,20141118170000
53,"Zhudong, Guangzhou",,23.418406,113.078552,147,50,50,10,10,6,18,10,1023,59,0,20141118170000
54,"Modiesha station, Guangzhou",,23.103814,113.338238,-,-,-,-,-,-,-,-,0,-,-,20141118170000
55,Zhuhai,,22.2677,113.581765,157,68,105,24,5,15,21,15,1022,68,6,20141118170000
1075,"Huicai technical school, Foshan",,23.039667,113.105492,151,65,67,22,10,7,18,10,1023,59,1,20141118170000
56,"Sanshuiyun donghai, Foshan",,23.185788,112.865368,155,64,45,22,32,8,18,10,1023,59,1,20141118170000
57,"Nanhai Bureau of Meteorology, Foshan",,23.046836,113.145764,144,59,62,20,8,7,18,10,1023,59,1,20141118170000
58,"Sanshui Monitoring Station, Foshan",,23.163551,112.890843,156,60,38,21,14,10,18,10,1023,59,1,20141118170000
1087,Foshan,,23.018995,113.126899,144,59,62,20,8,7,18,10,1023,59,1,20141118170000
59,"Ronggui street committee, Shunde",,22.762729,113.258356,167,81,73,21,8,9,18,10,1023,59,1,20141118170000
60,Shunde,,22.80246,113.298701,160,74,64,24,14,7,-,-,0,-,-,20141118170000
61,"Donghu, Jiangmen",,22.590411,113.087351,160,66,108,24,11,6,21,15,1021,68,6,20141118170000
62,"Taoyuan Atmosphere Premier Station, Jiangmen",,22.72489,112.93404,-,-,-,-,-,-,-,-,0,-,-,20141118170000
63,Jiangmen,,22.576047,113.087351,160,73,108,24,11,6,21,15,1021,68,6,20141118170000
64,"Kengkouzi station, Zhaoqing",,23.158865,112.570287,159,63,64,16,16,7,18,10,1023,59,1,20141118170000
65,"Mugangzi station, Zhaoqing",,23.067961,112.431934,153,55,45,13,5,6,18,10,1023,59,1,20141118170000
67,Zhaoqing,,23.044571,112.470346,144,51,45,6,6,6,18,10,1023,59,1,20141118170000
68,"Jinguo Bay, Huizhou",,22.937223,114.385567,-,-,-,-,-,-,-,-,0,-,-,20141118170000
1091,"Xiabu, Huizhou",,23.077493,114.410275,155,77,46,15,12,4,20,11,1022,56,5,20141118170000
69,"Xijiao, Huizhou",,23.338178,114.112867,-,-,-,-,-,-,-,-,0,-,-,20141118170000
70,"Jiangbei, Huizhou",,23.111706,114.415274,152,67,48,5,15,6,20,11,1022,56,5,20141118170000
71,"Huiyang chuanhu, Huizhou",,22.814485,114.329292,154,61,44,11,7,6,20,11,1022,56,5,20141118170000
72,"Daya bay management committee, Huizhou",,22.739283,114.53631,134,59,42,7,4,6,20,11,1022,56,5,20141118170000
73,Huizhou,,23.109349,114.421164,152,67,48,5,15,6,20,11,1022,56,5,20141118170000
74,"Guancheng No.2 water plant, Dongguan",,23.057294,113.753254,139,62,46,13,7,9,20,11,1022,56,5,20141118170000
75,"Dongcheng Shijing, Dongguan",,23.010039,113.799529,160,61,81,14,12,7,20,11,1022,56,5,20141118170000
76,"Nancheng Xiping, Dongguan",,22.963051,113.743494,155,62,47,19,10,9,20,11,1022,56,5,20141118170000
77,"Nancheng Yuanling, Dongguan",,23.025058,113.751308,147,63,62,16,12,8,20,11,1022,56,5,20141118170000
78,Dongguan,,23.017813,113.756958,147,63,62,16,12,8,20,11,1022,56,5,20141118170000
79,"Zimaling, Zhongshan",,22.505112,113.407183,158,77,38,20,14,8,21,15,1022,68,7,20141118170000
80,"Yangtze River tourist area, Zhongshan",,22.48589,113.439054,156,66,32,16,6,8,21,15,1022,68,7,20141118170000
81,"Huabai Park, Zhongshan",,22.51839,113.374362,163,77,33,21,14,11,21,15,1022,68,7,20141118170000
82,Zhongshan,,22.513997,113.398277,158,77,38,20,14,8,21,15,1022,68,7,20141118170000
83,"No.8 middle school, Shaoguan",,24.767777,113.583537,162,90,36,27,55,8,12,10,1026,87,2,20141118170000
83,"No.8 middle school, Shaoguan",,24.767777,113.583537,162,90,36,27,55,8,12,10,1026,87,2,20141118170000
84,"Forest area, Shaoguan",,24.796107,113.612131,162,95,40,26,54,8,12,10,1026,87,2,20141118170000
84,"Forest area, Shaoguan",,24.796106,113.612131,162,95,40,26,54,8,12,10,1026,87,2,20141118170000
86,"Shaoguan University, Shaoguan",,24.790864,113.646599,164,59,40,22,7,8,12,10,1026,87,2,20141118170000
86,"Shaoguan University, Shaoguan",,24.790864,113.646598,164,59,40,22,7,8,12,10,1026,87,2,20141118170000
88,"Qujiang Monitoring Station, Shaoguan",,24.683042,113.60157,172,82,43,25,19,8,12,10,1026,87,2,20141118170000
88,"Qujiang Monitoring Station, Shaoguan",,24.683042,113.60157,172,82,43,25,19,8,12,10,1026,87,2,20141118170000
89,Shaoguan,,24.807342,113.602712,162,95,40,26,54,8,12,10,1026,87,2,20141118170000
90,"Chaonanzi Station, Shantou",,23.251213,116.406762,122,68,81,10,4,8,19,10,1023,56,3,20141118170000
90,"Chaonanzi Station, Shantou",,23.251174,116.406606,122,68,81,10,4,8,19,10,1023,56,3,20141118170000
91,Shantou,,23.350642,116.686306,102,60,136,11,5,10,19,10,1023,56,3,20141118170000
92,"City Environmental Monitoring Station, Zhanjiang",,21.220431,110.397317,154,76,49,10,9,8,20,13,1022,51,4,20141118170000
93,"EPB Dormitory, Zhanjiang",,21.197376,110.406487,158,77,48,12,11,6,20,13,1022,51,4,20141118170000
94,"Xiashan Swimming Park, Zhanjiang",,21.200431,110.415655,159,83,51,11,15,11,20,13,1022,51,4,20141118170000
95,"Zhanjiang Theatre, Zhanjiang",,21.268177,110.366445,170,81,42,8,9,5,20,13,1022,51,4,20141118170000
96,"Mazhang EPA, Zhanjiang",,21.265486,110.335993,160,68,25,11,11,14,20,13,1022,51,4,20141118170000
97,"Potou District EPB, Zhanjiang",,21.247604,110.454508,157,84,53,9,6,15,20,13,1022,51,4,20141118170000
98,Zhanjiang,,21.26832,110.363883,170,81,42,8,9,5,20,13,1022,51,4,20141118170000
99,"Maogang sub-office EPB, Maoming",,21.466435,111.033462,158,78,49,4,6,5,19,14,0,69,4,20141118170000
100,"Petrochemical No. 7 elementaty school, Maoming",,21.648905,110.937861,156,61,104,6,5,9,19,14,0,69,4,20141118170000
101,"Jiankang road, Maoming",,21.662211,110.909482,155,66,49,7,5,10,19,14,0,69,4,20141118170000
102,"Gaoling, Maoming",,21.690558,110.871146,159,69,44,12,13,8,19,14,0,69,4,20141118170000
1094,Maoming,,21.660223,110.929968,155,66,49,7,5,10,19,14,0,69,4,20141118170000
103,"Jiaying University, Meizhou",,24.325415,116.12816,155,58,32,8,6,11,19,10,1023,56,3,20141118170000
104,"Mexian new town, Meizhou",,24.269283,116.084546,162,70,34,13,7,10,19,10,1023,56,3,20141118170000
105,"Environmental Monitoring Center, Meizhou",,24.262778,116.129621,157,74,34,14,4,11,19,10,1023,56,3,20141118170000
1095,Meizhou,,24.285988,116.127065,157,74,34,14,4,11,19,10,1023,56,3,20141118170000
106,"City EPA, Shanwei",,22.772349,115.370227,161,63,100,8,7,13,20,12,1023,54,1,20141118170000
107,"City government, Shanwei",,22.787161,115.375536,158,69,68,8,9,11,20,12,1023,54,1,20141118170000
108,"Xincheng Middle School, Shanwei",,22.789851,115.367124,158,69,37,8,5,13,20,12,1023,54,1,20141118170000
1099,Shanwei,,22.783576,115.38022,158,69,37,8,5,13,20,12,1023,54,1,20141118170000
109,"No.3 elementary school, Heyuan",,23.755946,114.699091,152,80,42,11,12,9,16,7,1024,43,2,20141118170000
109,"No.3 elementary school, Heyuan",,23.75435,114.703514,152,80,42,11,12,9,16,7,1024,43,2,20141118170000
111,"City water company, Heyuan",,23.754246,114.682459,161,78,43,41,9,9,16,7,1024,43,2,20141118170000
111,"City water company, Heyuan",,23.688709,114.954652,161,78,43,41,9,9,16,7,1024,43,2,20141118170000
113,"Heyuan high school, Heyuan",,23.720037,114.699563,163,89,42,13,12,9,16,7,1024,43,2,20141118170000
113,"Heyuan high school, Heyuan",,23.720666,114.693879,163,89,42,13,12,9,16,7,1024,43,2,20141118170000
115,Heyuan,,23.740888,114.705147,163,89,42,13,12,9,16,7,1024,43,2,20141118170000
116,"Yuanyang Lake, Yangjiang",,21.855869,111.983676,149,70,56,19,11,9,19,13,1022,59,5,20141118170000
1100,Yangjiang,,21.855227,111.987308,164,70,56,19,11,9,19,13,1022,59,5,20141118170000
118,"Town governement, Qingyuan",,23.708005,113.026215,59,41,31,10,12,11,18,10,1023,59,1,20141118170000
119,"Fupin district, Qingyuan",,23.624781,113.067713,68,47,33,14,14,16,18,10,1023,59,1,20141118170000
121,"Environment protection office, Qingyuan",,23.685931,113.053239,76,24,43,9,18,8,18,10,1023,59,1,20141118170000
121,"Environment protection office, Qingyuan",,23.691109,113.047948,76,24,43,9,18,8,18,10,1023,59,1,20141118170000
123,"Fengcheng Subdistrict, Qingyuan",,23.695447,113.068189,59,41,31,10,12,11,18,10,1023,59,1,20141118170000
124,Qingyuan,,23.679304,113.061513,76,24,43,9,18,8,18,10,1023,59,1,20141118170000
125,"Xiyuan Road, Chaozhou",,23.668654,116.638272,151,70,131,4,8,10,19,10,1023,56,3,20141118170000
126,"Archives Bureau, Chaozhou",,23.667881,116.649104,134,63,152,7,9,5,19,10,1023,56,3,20141118170000
127,"Municipal Corporation, Chaozhou",,23.65035,116.621859,132,71,126,11,7,11,19,10,1023,56,3,20141118170000
1101,Chaozhou,,23.654204,116.626969,132,71,126,11,7,11,19,10,1023,56,3,20141118170000
128,"Donghu Park, Jieyang",,23.532877,116.374427,93,40,72,8,6,10,19,10,1023,56,3,20141118170000
129,"Yuhu Middle School, Jieyang",,23.52682,116.414123,142,61,36,8,7,7,19,10,1023,56,3,20141118170000
130,"Experimental Primary School, Jieyang",,23.571473,116.364137,139,56,46,10,8,10,19,10,1023,56,3,20141118170000
1102,Jieyang,,23.547596,116.37754,93,74,72,8,6,10,19,10,1023,56,3,20141118170000
131,"City Environmental Monitoring Station, Yunfu",,22.936779,112.042248,61,50,40,13,9,11,18,10,1023,59,1,20141118170000
132,"The new city government headquarters, Yunfu",,22.914275,112.044475,160,55,39,18,8,22,18,10,1023,59,1,20141118170000
133,"Muyang police sub-station, Yunfu",,22.951267,112.05923,99,42,41,26,12,15,18,10,1023,59,1,20141118170000
1103,Yunfu,,22.912436,112.049811,160,50,39,18,8,22,18,10,1023,59,1,20141118170000
134,Yantian,,22.587949,114.266899,152,57,44,8,6,10,20,11,1022,56,5,20141118170000
135,Kwai Chung,,22.572837,113.867166,158,72,34,18,5,12,20,11,1022,56,5,20141118170000
135,Kwai Chung,,22.354168,114.134558,158,72,34,18,5,12,20,11,1022,56,5,20141118170000
137,Nanyou,,22.513802,113.928051,155,65,39,21,6,13,20,11,1022,56,5,20141118170000
138,Meisha,,22.59611,114.318345,154,58,43,6,6,9,20,11,1022,56,5,20141118170000
139,Xi xiang,,22.717524,114.252304,172,65,39,15,7,12,20,11,1022,56,5,20141118170000
140,Liyuan,,22.54732,114.101205,155,64,32,19,4,10,20,11,1022,56,5,20141118170000
1072,Kwai Chung,,22.627947,114.428875,155,62,40,9,2,4,20,11,1022,56,5,20141118170000
1072,Kwai Chung,,22.354168,114.134558,155,62,40,9,2,4,20,11,1022,56,5,20141118170000
141,OCT,,22.539549,113.992458,155,61,36,12,10,12,20,11,1022,56,5,20141118170000
142,Honghu,,22.559647,114.121976,161,32,42,24,4,8,20,11,1022,56,5,20141118170000
143,Mission Hills,,22.694131,114.050496,152,69,78,21,5,7,20,11,1022,56,5,20141118170000
144,Shenzhen,,22.540382,114.062982,172,73,78,24,10,13,-,-,0,-,-,20141118170000
145,Chengdu,,30.622581,104.069564,155,59,23,23,7,6,11,8,1027,82,1,20141118170000
146,"Jinquan lianghe, Chengdu",,30.710359,103.974209,114,57,9,13,3,6,11,7,1028,76,2,20141118170000
147,"Shilidian, Chengdu",,30.684718,104.17845,107,51,8,17,3,6,11,7,1028,76,2,20141118170000
148,"Sanwayao, Chengdu",,30.568159,104.081524,124,50,,,,8,11,7,1028,76,2,20141118170000
149,"Shahepu, Chengdu",,30.633685,104.120536,91,44,6,20,3,7,11,7,1028,76,2,20141118170000
150,"Liang Lane, Chengdu",,30.682601,104.076522,139,59,18,23,7,6,11,7,1028,76,2,20141118170000
151,"Caotang Temple, Chengdu",,30.651891,104.0284,-,-,-,-,-,-,-,-,0,-,-,20141118170000
152,"Lingyansi, Chengdu",,31.025729,103.615022,46,36,15,7,1,2,11,7,1028,76,2,20141118170000
153,"Fuleshan, Mianyang",,31.472493,104.7806,68,27,21,4,4,6,10,8,1028,85,3,20141118170000
154,"High-tech Zone Water Company, Mianyang",,31.463309,104.674293,74,30,19,12,6,6,10,8,1028,85,3,20141118170000
155,"No.3 water company, Mianyang",,31.505002,104.731054,72,28,20,5,4,3,10,8,1028,85,3,20141118170000
156,Mianyang,,31.465174,104.681731,80,44,21,15,7,6,10,8,1028,85,3,20141118170000
157,"Dongshan Park, Deyang",,31.118648,104.424587,46,35,31,6,5,5,11,7,1028,76,2,20141118170000
158,"Xixiaoqu, Deyang",,31.131159,104.390972,95,25,47,10,1,9,11,7,1028,76,2,20141118170000
159,"City Procuratorate, Deyang",,31.114554,104.407986,61,31,5,9,2,10,11,7,1028,76,2,20141118170000
160,"Refractory Factory, Deyang",,31.108606,104.356506,87,32,17,11,2,6,11,7,1028,76,2,20141118170000
161,Deyang,,31.124715,104.400703,95,35,47,11,5,10,11,7,1028,76,2,20141118170000
162,"Nongnongping, Panzhihua",,26.566698,101.695438,139,71,22,28,2,8,14,8,0,61,1,20141118170000
163,"Hemenkou, Panzhihua",,26.589072,101.578312,159,75,26,17,14,14,14,8,0,61,1,20141118170000
164,"Bingcaogang, Panzhihua",,26.58143,101.718473,151,74,24,33,10,20,14,8,0,61,1,20141118170000
165,"Renhe, Panzhihua",,26.498166,101.746887,50,20,29,18,3,13,14,8,0,61,1,20141118170000
166,"Jinjina, Panzhihua",,26.553226,101.84862,89,54,34,12,20,17,14,8,0,61,1,20141118170000
167,Panzhihua,,26.578779,101.720211,159,75,34,33,20,20,14,8,0,61,1,20141118170000
168,"Shima Middle School, Yibin",,28.815979,104.599199,91,41,10,5,4,9,12,10,1028,90,1,20141118170000
169,"Municipal party committee, Yibin",,28.762654,104.624834,99,30,6,14,9,10,12,10,1028,90,1,20141118170000
170,"No. 4 middle school, Yibin",,28.783257,104.608407,107,47,8,13,4,7,12,10,1028,90,1,20141118170000
171,"City government, Yibin",,28.760477,104.644079,139,56,9,13,7,9,12,10,1028,90,1,20141118170000
172,"Huangjinzui, Yibin",,28.712319,104.578389,127,44,9,14,6,12,12,10,1028,90,1,20141118170000
173,"Shaping Middle School, Yibin",,28.795569,104.681393,99,50,15,15,9,7,12,10,1028,90,1,20141118170000
174,Yibin,,28.748384,104.645766,139,56,15,15,9,12,12,10,1028,90,1,20141118170000
175,"Datang Hill, Zigong",,29.359969,104.757388,82,22,17,12,4,7,13,8,0,74,1,20141118170000
176,"Yanma Road, Zigong",,29.355752,104.724036,151,47,33,11,7,6,13,8,0,74,1,20141118170000
177,"Tanmulin Street, Zigong",,29.353555,104.777397,102,53,26,9,10,6,13,8,0,74,1,20141118170000
178,"Chunhua Road, Zigong",,29.33825,104.771895,97,40,12,11,17,8,13,8,0,74,1,20141118170000
179,Zigong,,29.33617,104.781138,151,53,33,12,17,8,13,8,0,74,1,20141118170000
180,"Jiushi Hill, Luzhou",,28.955347,105.434207,97,52,24,6,2,2,12,8,0,74,1,20141118170000
181,"Xiaoshishang Port, Luzhou",,28.899583,105.447192,117,53,17,16,12,7,12,8,0,74,1,20141118170000
182,"Lantianxian Bridge, Luzhou",,28.852766,105.4358,78,53,214,22,7,3,12,8,0,74,1,20141118170000
183,"City Environment Monitoring Station, Luzhou",,28.895898,105.435802,124,43,226,24,12,4,12,8,0,74,1,20141118170000
184,Luzhou,,28.868782,105.445938,124,53,226,24,12,7,12,8,0,74,1,20141118170000
185,"City Committee, Nanchong",,30.799993,106.082906,158,70,18,8,3,4,12,11,1028,96,1,20141118170000
186,"Refinery Factory, Nanchong",,30.819412,106.10712,157,71,9,22,9,2,12,11,1028,96,1,20141118170000
187,"Gaoping District Monitoring Station, Nanchong",,30.783291,106.110417,153,61,8,16,10,10,12,11,1028,96,1,20141118170000
188,"Jialing District EPB, Nanchong",,30.761255,106.06818,157,66,7,23,3,7,12,11,1028,96,1,20141118170000
189,"City Environmental Monitoring Station, Nanchong",,30.836519,106.11272,156,60,6,4,7,7,12,11,1028,96,1,20141118170000
190,Nanchong,,30.835511,106.114717,158,71,18,23,10,10,12,11,1028,96,1,20141118170000
1249,"City Monitoring Station, Neijiang",,29.592673,105.036234,76,28,7,8,4,7,13,8,0,74,1,20141118170000
1250,"Dongxing District Government , Neijiang",,29.592148,105.074966,68,30,4,8,3,6,13,8,0,74,1,20141118170000
1251,"No 2 middle school, Neijiang",,29.579135,105.068548,78,39,3,9,2,6,13,8,0,74,1,20141118170000
1252,Neijiang,,29.577653,105.06166,78,39,6,9,6,7,13,8,0,74,1,20141118170000
1253,"City Monitoring Station, Suining",,30.610641,105.683583,107,59,9,9,11,15,11,8,0,79,1,20141118170000
1254,"Administrative center , Suining",,30.63206,105.819747,112,55,11,6,6,7,11,8,0,79,1,20141118170000
1255,Suining,,30.530053,105.596307,122,59,12,9,11,7,11,8,0,79,1,20141118170000
1256,"City Monitoring Station, Leshan",,29.560651,103.759211,161,74,10,19,6,7,11,8,0,80,2,20141118170000
1257,"Leshan Giant Buddha Scenic Area , Leshan",,29.543938,103.772706,109,48,10,10,3,6,11,8,0,80,2,20141118170000
1258,Leshan,,29.54935,103.767777,161,74,10,28,14,8,11,8,0,80,2,20141118170000
1259,"Heilongtan , Meishan",,30.047726,103.900649,82,50,16,5,1,3,11,7,1028,76,2,20141118170000
1260,"Bureau of Meteorology, Meishan",,30.084591,103.843715,147,56,6,26,4,7,11,7,1028,76,2,20141118170000
1261,"Xuguang Community , Meishan",,30.066277,103.8516,129,50,7,16,2,5,11,7,1028,76,2,20141118170000
1262,"City Monitoring Station, Meishan",,30.059205,103.836229,119,45,4,14,3,6,11,7,1028,76,2,20141118170000
1263,Meishan,,30.072618,103.85064,147,56,16,16,4,7,11,7,1028,76,2,20141118170000
1264,"Ziyang middle school, Ziyang",,30.147763,104.638024,53,38,13,5,9,7,13,8,0,74,1,20141118170000
1265,Ziyang,,30.126054,104.63004,65,38,13,7,24,7,13,8,0,74,1,20141118170000
191,Shenyang US Consulate,,41.785668,123.432865,211,180,,43,79,,-1,-4,1027,80,3,20141118170000
192,"Huishan, Shenyang",,41.835421,123.647773,184,96,12,35,19,12,-2,-4,1028,86,2,20141118170000
193,"Hunnan, Shenyang",,41.758263,123.540809,197,116,29,31,28,20,-1,-4,1027,80,3,20141118170000
194,"Zhangshi, Shenyang",,41.771679,123.289859,193,139,4,43,69,24,-2,-4,1028,86,2,20141118170000
195,"Artillery College, Shenyang",,41.835749,123.547799,167,161,40,39,56,17,-1,-4,1027,80,3,20141118170000
196,"Beiling, Shenyang",,41.849633,123.434146,247,169,3,45,63,25,-1,-4,1027,80,3,20141118170000
197,"Wenyi Road, Shenyang",,41.767444,123.416144,287,180,28,43,79,21,-1,-4,1027,80,3,20141118170000
198,"Xiaoheyan, Shenyang",,41.779828,123.484015,224,141,4,38,35,23,-2,-4,1028,86,2,20141118170000
199,"Taiyuan Street, Shenyang",,41.799646,123.406146,243,161,3,44,103,21,-1,-4,1027,80,3,20141118170000
200,"Ermao, Shenyang",,41.783011,123.366679,247,174,35,54,84,22,-1,-4,1027,80,3,20141118170000
201,"Liaoning University, Shenyang",,41.830704,123.361071,230,133,36,38,57,20,-1,-4,1027,80,3,20141118170000
202,Shenyang,,41.808126,123.437611,243,161,3,44,103,21,-1,-4,1027,80,3,20141118170000
1104,"wenhua street, Shenyang , Shenyang",,41.774139,123.441839,287,180,9,43,67,20,-2,-4,1028,86,2,20141118170000
1105,"Tanglin Road , Shenyang , Shenyang",,41.823665,123.562317,167,161,4,39,56,21,-2,-4,1028,86,2,20141118170000
203,"Ganjingzi, Dalian",,38.9747,121.616893,158,72,10,28,20,14,3,0,1028,81,0,20141118170000
204,"Zhoushuizi, Dalian",,38.951928,121.569981,160,81,1,33,35,52,3,0,1028,81,0,20141118170000
205,"Xinghai No 3 station, Dalian",,38.885779,121.568864,164,78,5,19,12,16,3,0,1028,81,0,20141118170000
206,"Qingniwa Bridge, Dalian",,38.91274,121.638018,162,80,4,48,25,17,3,0,1028,81,0,20141118170000
207,"Fujiazhuang, Dalian",,38.864647,121.629947,151,72,6,29,52,9,3,0,1028,81,1,20141118170000
208,"Qixianling, Dalian",,38.856978,121.523169,154,76,10,22,31,14,3,0,1028,81,1,20141118170000
209,"Lushun, Dalian",,38.808946,121.264063,162,78,6,36,25,12,3,0,1028,81,1,20141118170000
210,"Jinzhou, Dalian",,39.132192,121.753259,153,74,6,8,7,12,3,0,1028,81,0,20141118170000
211,"BDA, Dalian",,39.05213,121.782022,180,115,2,43,21,28,3,0,1028,81,0,20141118170000
212,"D&D Port, Dalian",,39.064087,121.981874,152,64,4,17,6,16,3,0,1028,81,0,20141118170000
213,Dalian,,38.91478,121.619625,162,80,4,48,25,17,-,-,0,-,-,20141118170000
214,"Bearing Factory, Dandong",,40.068929,124.345703,142,64,29,12,19,16,-1,-5,1030,64,1,20141118170000
215,"Financial school, Dandong",,40.158723,124.432593,163,77,32,22,20,15,-1,-5,1030,64,1,20141118170000
216,"Yuanbaoshan water, Dandong",,40.149431,124.391698,168,83,32,28,34,15,-1,-5,1030,64,1,20141118170000
217,"Experimental Primary School, Dandong",,39.887343,124.158056,184,115,28,36,30,19,-1,-5,1030,64,1,20141118170000
218,Dandong,,40.002046,124.360479,184,115,4,36,30,28,-1,-5,1030,64,1,20141118170000
1106,"minzhu bridge, Dandong , Dandong",,40.112974,124.373604,184,115,4,36,30,28,-1,-5,1030,64,1,20141118170000
1107,"yuanbaoshan, Dandong , Dandong",,40.146298,124.399081,168,83,11,28,34,20,-1,-5,1030,64,1,20141118170000
1108,"linjiang houjie, Dandong , Dandong",,40.152757,124.431745,163,77,8,22,20,20,-1,-5,1030,64,1,20141118170000
219,"BDA, Panjin",,41.157144,122.06645,165,65,8,34,21,26,0,-7,0,54,2,20141118170000
220,"Xinglongtai, Panjin",,41.140948,122.111343,187,96,8,34,13,19,0,-7,0,54,2,20141118170000
221,"Dingxiang, Panjin",,41.16139,121.928781,152,43,38,14,4,6,0,-7,0,54,2,20141118170000
222,Panjin,,41.122089,122.076206,187,96,8,34,13,19,0,-7,0,54,2,20141118170000
223,"No.3 water company, Yingkou",,40.682052,122.385352,147,67,40,28,10,9,0,-2,1028,77,2,20141118170000
224,"Yingkou University, Yingkou",,40.683689,122.388285,127,67,40,29,12,9,0,-2,1028,77,2,20141118170000
225,"Botanical garden, Yingkou",,40.711674,122.281568,159,69,42,34,23,15,0,-2,1028,77,2,20141118170000
226,Yingkou,,40.668578,122.24059,159,82,26,37,23,24,0,-2,1028,77,2,20141118170000
1109,"jinghu west street, Yingkou , Yingkou",,40.653831,122.221943,147,67,10,28,10,14,0,-2,1028,77,2,20141118170000
1110,"Daqing Road , Yingkou , Yingkou",,40.709181,122.28243,159,69,7,34,23,24,0,-2,1028,77,2,20141118170000
227,"Xishanpo, Huludao",,40.724078,120.921974,169,104,29,36,34,29,,,0,,,20141118170000
228,"Huagong hospital, Huludao",,40.755662,120.848435,174,121,24,21,31,36,,,0,,,20141118170000
229,"New district park, Huludao",,40.723415,120.853801,163,81,27,28,18,21,,,0,,,20141118170000
230,"Lianshan district governement, Huludao",,40.775488,120.872292,114,73,20,23,15,22,,,0,,,20141118170000
231,Huludao,,40.712501,120.842107,174,121,12,28,31,43,,,0,,,20141118170000
1111,"Dongcheng District , Huludao , Huludao",,40.775362,120.871706,114,73,3,23,15,29,,,0,,,20141118170000
1112,"huagong street, Huludao , Huludao",,40.758901,120.842935,174,121,12,21,31,43,,,0,,,20141118170000
232,Anshan,,41.110466,123.000147,195,137,12,35,39,30,-1,-4,1028,80,2,20141118170000
233,"Qianshan Park, Anshan",,41.033486,123.143897,124,55,33,8,7,6,-1,-4,1028,80,2,20141118170000
234,"Tiexi, Anshan",,41.121636,122.97506,195,137,23,31,23,24,-1,-4,1028,80,2,20141118170000
235,"Taiping Station, Anshan",,41.153322,123.052433,164,89,17,16,17,22,-1,-4,1028,80,2,20141118170000
236,"Central Station, Anshan",,41.106731,123.002736,162,82,28,25,39,22,-1,-4,1028,80,2,20141118170000
237,"Shengou Temple, Anshan",,41.137157,123.031901,163,77,9,15,13,19,-1,-4,1028,80,2,20141118170000
1113,"Qianshan , Anshan , Anshan",,41.014521,123.122538,124,55,10,8,7,9,-1,-4,1028,80,2,20141118170000
1114,"Tiexi Sandao jie, Anshan",,41.103264,122.978613,195,137,3,31,23,33,-1,-4,1027,80,3,20141118170000
1115,"Taiyang, Anshan",,41.094946,123.019037,162,82,6,25,39,26,-1,-4,1028,80,2,20141118170000
238,Fushun,,41.883028,123.962984,194,105,16,37,52,33,-1,-4,1028,80,2,20141118170000
239,"Shenfu new town, Fushun",,41.804638,123.631684,179,82,6,35,46,22,-1,-4,1028,80,2,20141118170000
240,"Reservoir, Fushun",,41.8464,123.802857,154,74,34,27,52,20,-1,-4,1028,80,2,20141118170000
241,"Train Station, Fushun",,41.89726,124.017604,167,95,29,31,21,11,-1,-4,1028,80,2,20141118170000
242,"Dongzhou, Fushun",,41.855578,124.044738,158,75,30,25,9,10,-1,-4,1028,80,2,20141118170000
243,"Xinhua, Fushun",,41.888598,123.932932,175,105,28,37,23,19,-1,-4,1028,80,2,20141118170000
244,"Wanghua, Fushun",,41.888825,123.093723,194,100,29,33,27,18,-1,-4,1028,80,2,20141118170000
1367,"Dongzhou district, Fushun , Fushun",,41.864885,124.044353,158,75,5,25,9,15,-1,-4,1028,80,2,20141118170000
1368,"Wanghua district, Fushun , Fushun",,41.849112,123.815882,174,118,5,36,35,22,-1,-4,1028,80,3,20141118170000
245,Benxi,,41.296267,123.772371,200,124,43,35,60,48,-1,-4,1028,80,2,20141118170000
246,"Weining, Benxi",,41.349663,123.826071,188,97,43,55,3,37,-1,-4,1028,80,2,20141118170000
247,"Occupational disease hospital, Benxi",,41.305432,123.74645,151,57,32,10,8,22,-1,-4,1028,80,2,20141118170000
248,"Dongming, Benxi",,41.292369,123.765058,177,54,5,25,60,47,-1,-4,1028,80,2,20141118170000
249,"Caitun, Benxi",,41.301591,123.746039,178,124,6,35,13,48,-1,-4,1028,80,2,20141118170000
250,"Xihu, Benxi",,41.331332,123.773537,200,178,8,16,30,29,-1,-4,1028,80,2,20141118170000
251,"Dayu, Benxi",,41.308091,123.818442,164,65,6,17,32,23,-1,-4,1028,80,2,20141118170000
1116,"Xinlitun , Benxi , Benxi",,41.264104,123.811523,151,57,1,10,8,17,-1,-4,1028,80,2,20141118170000
252,Jinzhou,,41.097169,121.132647,204,127,16,43,68,41,3,-3,1028,52,6,20141118170000
253,"Beihu Park, Jinzhou",,41.141447,121.137339,204,75,9,42,68,21,3,-3,1028,52,6,20141118170000
254,"Monitoring station, Jinzhou",,41.113441,121.140911,166,98,24,40,55,15,3,-3,1028,52,6,20141118170000
1369,"Baigu Water Plant, Jinzhou",,41.123847,121.206296,189,106,35,19,14,37,3,-3,1028,52,6,20141118170000
255,"Nanshan, Jinzhou",,41.570689,122.046753,194,127,16,32,40,41,3,-3,1028,52,6,20141118170000
1118,"BDA, Jinzhou",,40.853915,121.061756,180,115,12,43,39,38,3,-3,1028,52,6,20141118170000
1119,"tianan street, Jinzhou , Jinzhou",,41.124468,121.126119,166,98,5,40,55,17,3,-3,1028,52,6,20141118170000
1120,"baigu street, Jinzhou, Jinzhou",,41.12214,121.21027,189,106,4,19,14,47,3,-3,1028,52,6,20141118170000
1121,Chaoyang,,41.576022,120.456053,180,121,8,20,50,29,-,-,0,-,-,20141118170000
1122,"Agricultural Area, Chaoyang",,43.93968,125.247371,153,68,6,11,6,24,0,-10,1029,33,0,20141118170000
1123,Tieling,,42.225197,123.732174,184,92,6,32,32,17,-,-,0,-,-,20141118170000
260,"Waterpark, Tieling",,42.297031,123.880748,180,104,5,22,21,14,-1,-4,1028,80,2,20141118170000
1124,"Huigong Street West , Tieling , Tieling",,42.311115,123.845614,183,97,6,32,37,26,-1,-4,1028,80,2,20141118170000
1125,Liaoyang,,41.269312,123.24268,267,119,7,31,25,35,-,-,0,-,-,20141118170000
1126,"Riverside Road , Liaoyang , Liaoyang",,41.176884,123.419859,149,75,3,21,16,22,-1,-4,1028,80,2,20141118170000
1127,Fuxin,,42.02373,121.675733,198,270,10,30,53,31,-,-,0,-,-,20141118170000
266,"Agricultural Area, Fuxin",,42.071291,121.696445,164,94,5,20,44,18,0,-11,0,45,2,20141118170000
267,"Industrial Area, Fuxin",,42.041052,121.715554,198,270,5,30,27,31,0,-11,0,45,2,20141118170000
1128,"Yulong Metro , Fuxin , Fuxin",,42.035091,121.666531,157,133,4,25,47,24,0,-11,0,45,2,20141118170000
1129,"Dongyuan , Fuxin , Fuxin",,42.029119,121.681553,142,84,10,30,53,24,0,-11,0,45,2,20141118170000
268,"City Monitoring Station, Jinan",,36.662614,117.054645,184,112,12,52,43,15,8,-5,1029,27,3,20141118170000
269,"Shandong Institute of Economics, Jinan",,36.63819,117.074975,171,103,21,29,36,9,8,-5,1029,27,3,20141118170000
270,"Quancheng Plaza, Jinan",,36.661711,117.027043,178,103,5,35,37,12,8,-5,1029,27,3,20141118170000
271,"Kegansuo, Jinan",,36.611582,116.99384,164,107,24,22,38,19,8,-5,1029,27,3,20141118170000
272,"Agriculture Science Institute, Jinan",,36.663115,116.95063,195,181,10,44,39,14,8,-5,1029,27,3,20141118170000
273,"Lanxiang technical school, Jinan",,36.700421,116.95342,186,142,11,45,42,11,8,-5,1029,27,3,20141118170000
274,"Chemical factory, Jinan",,36.687463,116.994406,202,160,2,53,42,19,8,-5,1029,27,3,20141118170000
275,"Provincial Seed Warehouse, Jinan",,36.685706,117.066348,184,131,11,40,35,14,8,-5,1029,27,3,20141118170000
276,"Shandong Architecture University, Jinan",,36.681732,117.191868,164,89,11,22,30,12,8,-5,1029,27,3,20141118170000
277,"Baosheng cable company, Jinan",,36.724638,117.130855,267,446,3,49,26,15,8,-5,1029,27,3,20141118170000
278,"Paomaling, Jinan",,36.47869,117.219027,137,59,33,9,44,7,8,-5,1029,27,3,20141118170000
279,"Changqing District Communist Party School, Jinan",,36.548797,116.770859,179,111,15,48,50,10,8,-5,1029,27,3,20141118170000
280,"BDA, Jinan",,36.685835,117.130851,170,87,20,32,25,9,8,-5,1029,27,3,20141118170000
281,Jinan,,36.651426,117.126625,184,112,12,52,43,15,8,-5,1029,27,3,20141118170000
282,"Shinan district No. 1, Qingdao",,36.065534,120.40839,158,75,5,2,28,11,3,-6,1029,52,2,20141118170000
283,"Shibei district No. 1, Qingdao",,36.069919,120.341264,153,85,11,21,10,11,3,-6,1029,52,2,20141118170000
284,"Shibei district No. 2, Qingdao",,36.104146,120.36637,165,105,8,71,23,21,3,-6,1029,52,2,20141118170000
285,"Huangdao District No. 1, Qingdao",,35.958935,120.191041,175,98,14,54,22,11,3,-6,1029,52,2,20141118170000
286,"Huangdao District No. 2, Qingdao",,35.970487,120.160339,153,75,11,34,9,11,3,-6,1029,52,2,20141118170000
287,"Laoshan District No. 1, Qingdao",,36.085881,120.451839,166,71,7,53,28,14,3,-6,1029,52,2,20141118170000
288,"Laoshan District No. 2, Qingdao",,36.091075,120.490388,160,77,21,14,31,8,3,-6,1029,52,2,20141118170000
289,"Licang District No. 1, Qingdao",,36.184872,120.38533,162,89,6,48,31,12,3,-6,1029,52,2,20141118170000
290,"Licang District No. 2, Qingdao",,36.154369,120.432287,165,63,6,28,14,7,3,-6,1029,52,2,20141118170000
291,"Chengyang District No. 1, Qingdao",,36.308502,120.40008,169,83,6,44,21,6,3,-6,1029,52,2,20141118170000
292,"Chengyang District No. 2, Qingdao",,36.308429,120.465806,155,56,22,15,14,10,3,-6,1029,52,2,20141118170000
293,Qingdao,,36.067358,120.387773,158,75,5,23,28,11,3,-6,1029,52,2,20141118170000
294,"Zichuan Meteo. Stations, Zibo",,36.637916,117.960222,-,-,-,-,-,-,-,-,0,-,-,20141118170000
295,"Dongfeng Chemical factory, Zibo",,36.838576,118.050785,211,322,3,82,131,30,4,-9,0,34,2,20141118170000
296,"Boshan shuangshan, Zibo",,36.497278,117.853581,191,118,2,39,57,27,4,-9,0,34,2,20141118170000
297,"Linzi Putian Park, Zibo",,36.820171,118.315022,185,153,4,32,65,32,4,-9,0,34,2,20141118170000
298,"Qilu Petrochemical, Zibo",,36.765907,118.254967,176,131,1,39,52,28,4,-9,0,34,2,20141118170000
299,"Zhoucun sanjin Group, Zibo",,36.8044,117.85694,275,200,9,41,69,34,4,-9,0,34,2,20141118170000
300,"Vocational College, Zibo",,36.825208,117.926305,231,187,1,48,70,32,4,-9,0,34,2,20141118170000
301,"BDA, Zibo",,36.905214,118.021824,262,266,1,49,124,28,4,-9,0,34,2,20141118170000
302,Zibo,,36.813618,118.060948,262,322,9,82,131,44,4,-9,0,34,2,20141118170000
303,"Shizhong District Government, Zaozhuang",,34.850397,117.569545,203,165,23,33,119,15,3,0,1030,72,0,20141118170000
304,"Sewage treatment plant, Zaozhuang",,34.818951,117.595345,321,266,11,38,128,22,3,0,1030,72,0,20141118170000
305,"Xuecheng EPA, Zaozhuang",,34.790214,117.272455,159,108,20,32,50,14,3,0,1030,72,0,20141118170000
306,"Yicheng District government, Zaozhuang",,34.772806,117.57647,231,203,27,29,38,12,3,0,1030,72,0,20141118170000
307,"Taierzhuang EPA, Zaozhuang",,34.579462,117.741067,226,122,20,41,20,21,3,0,1030,72,0,20141118170000
308,"Shanting EPA, Zaozhuang",,35.070373,117.457691,177,109,20,27,18,14,3,0,1030,72,0,20141118170000
309,"City EPA, Zaozhuang",,34.809466,117.320608,255,168,18,36,145,9,3,0,1030,72,0,20141118170000
310,"High-tech zone, Zaozhuang",,34.821779,117.363495,218,110,12,24,51,15,3,0,1030,72,0,20141118170000
311,Zaozhuang,,34.809693,117.329634,203,165,23,33,119,15,3,0,1030,72,0,20141118170000
312,"City EPA, Dongying",,37.432052,118.672871,202,120,16,42,60,20,7,-6,0,36,3,20141118170000
313,"Vocational College, Dongying",,37.438653,118.630567,192,120,3,44,59,16,7,-6,0,36,3,20141118170000
314,"Xianhe Oil Production Plant, Dongying",,37.442419,118.510222,197,135,6,45,55,19,7,-6,0,36,3,20141118170000
315,"Gengjin village, Dongying",,37.445072,118.55839,194,122,22,38,41,14,7,-6,0,36,3,20141118170000
316,"City environmental company, Dongying",,37.466599,118.508012,190,113,21,54,58,15,7,-6,0,36,3,20141118170000
317,"Hekou  district, Dongying",,37.883786,118.522171,186,114,9,49,72,13,7,-6,0,36,3,20141118170000
318,"BDA, Dongying",,37.435162,118.701827,207,117,12,45,59,18,7,-6,0,36,3,20141118170000
319,Dongying,,37.435429,118.680434,202,120,16,42,60,20,7,-6,0,36,3,20141118170000
320,"Bearing Factory, Yantai",,37.544126,121.376956,177,80,17,41,26,16,,,0,,,20141118170000
321,"Xijiao Chemical Station, Yantai",,37.547148,121.323695,203,104,19,40,19,18,,,0,,,20141118170000
322,"Fushan Monitoring Stations, Yantai",,37.472245,121.260116,170,71,8,37,6,21,,,0,,,20141118170000
323,"Mouping EPA, Yantai",,37.376681,121.586509,160,74,7,21,6,24,,,0,,,20141118170000
324,"Laishan EPA, Yantai",,37.478422,121.44829,156,66,15,25,24,8,,,0,,,20141118170000
325,"Laishan Shengquan Industrial Park, Yantai",,37.4271,121.408386,165,83,5,31,14,14,,,0,,,20141118170000
326,"China Agricultural University, Yantai",,37.423568,121.511838,161,87,13,13,21,9,,,0,,,20141118170000
327,"BDA EPA, Yantai",,37.560827,121.257954,176,130,4,68,22,16,,,0,,,20141118170000
329,"Dajijia, Yantai",,37.673849,121.071465,155,56,27,13,12,10,,,0,,,20141118170000
330,Yantai,,37.464793,121.453142,177,80,23,41,26,17,,,0,,,20141118170000
331,"BDA, Weifang",,36.720022,119.054064,185,127,8,43,50,17,,,0,,,20141118170000
332,"Business School, Weifang",,36.682442,119.105909,186,114,8,38,39,12,,,0,,,20141118170000
333,"Hanting District, Weifang",,36.773484,119.199705,174,103,7,33,43,16,,,0,,,20141118170000
334,"Gongda Company, Weifang",,36.657635,119.167266,190,129,16,39,50,10,,,0,,,20141118170000
335,"City EPA, Weifang",,36.701272,119.16838,187,126,7,39,48,16,,,0,,,20141118170000
336,"City Arbitration Committee, Weifang",,36.702422,119.145927,199,122,14,38,51,20,,,0,,,20141118170000
337,"Xinhui Group, Weifang",,36.641581,119.11679,192,126,6,55,35,20,,,0,,,20141118170000
338,"Jincheng Middle School, Weifang",,36.773611,119.115539,177,109,18,39,51,10,,,0,,,20141118170000
339,Weifang,,36.707217,119.167638,178,120,11,26,17,14,,,0,,,20141118170000
340,"City Monitoring Station, Jining",,35.408443,116.623917,196,176,9,48,63,22,2,0,1031,77,0,20141118170000
1090,"Shengdi Hollidays Resort, Jining",,35.424746,116.699093,179,108,7,68,51,14,2,0,1031,77,0,20141118170000
341,"Sewage treatment plant, Jining",,35.364286,116.609177,200,135,7,38,41,15,2,0,1031,77,0,20141118170000
342,"Electrochemical Factory, Jining",,35.390473,116.552956,157,131,37,40,53,17,2,0,1031,77,0,20141118170000
343,"Rencheng BDA, Jining",,35.390484,116.662995,257,142,15,41,45,21,2,0,1031,77,0,20141118170000
344,"Agricultural School, Jining",,35.44235,116.601682,251,368,9,54,53,17,2,0,1031,77,0,20141118170000
345,"BDA Huojucheng, Jining",,35.436377,116.642953,181,135,17,42,55,13,2,0,1031,77,0,20141118170000
346,Jining,,35.414473,116.59239,196,176,10,68,63,22,2,0,1031,77,0,20141118170000
347,"Taishan monitoring station, Taian",,36.194362,117.159648,222,161,23,28,25,23,0,-15,0,18,3,20141118170000
348,"Shandong Electric Power School, Taian",,36.176071,117.12413,350,296,30,46,38,39,0,-15,0,18,3,20141118170000
349,"Population Education school, Taian",,36.194417,117.104131,213,178,25,40,26,27,0,-15,0,18,3,20141118170000
350,"Houfeng company, Taian",,36.204863,117.19015,190,319,3,30,15,23,0,-15,0,18,3,20141118170000
351,"Nongda new campus, Taian",,36.170179,117.165191,282,335,3,39,41,33,0,-15,0,18,3,20141118170000
352,"Transportation technical school, Taian",,36.202126,117.047068,191,100,4,42,19,14,0,-15,0,18,3,20141118170000
353,"ICT Technology, Taian",,36.116621,117.107458,265,157,13,40,46,20,0,-15,0,18,3,20141118170000
354,Taian,,36.200502,117.093682,222,161,23,28,25,23,0,-15,0,18,3,20141118170000
355,"City Environmental Monitoring Station, Weihai",,37.513939,122.067058,122,62,17,31,17,7,10,1,0,53,4,20141118170000
356,"Woodworking Factory, Weihai",,37.325455,122.160777,132,63,29,15,22,4,10,1,0,53,4,20141118170000
357,"Lantian Hotel, Weihai",,37.514641,122.146276,122,59,26,18,13,5,10,1,0,53,4,20141118170000
358,"Zhang village government, Weihai",,37.485561,122.049436,127,60,23,9,11,7,10,1,0,53,4,20141118170000
359,"Gao District Bank, Weihai",,37.534919,122.056294,149,67,31,13,11,4,10,1,0,53,4,20141118170000
360,"Huxia technical school, Weihai",,37.427951,122.130811,129,62,40,11,13,7,10,1,0,53,4,20141118170000
361,Weihai,,37.5141,122.125477,122,62,24,31,17,7,10,1,0,53,4,20141118170000
362,"City governement square, Rizhao",,35.4075,119.526008,179,118,13,32,35,14,7,1,1030,53,2,20141118170000
364,"City Monitoring Station, Rizhao",,35.388683,119.496405,192,138,5,28,20,19,7,1,1030,53,2,20141118170000
365,"Professor Garden, Rizhao",,35.462161,119.574193,158,94,18,31,38,34,7,1,1030,53,2,20141118170000
366,"Vocational and Technical College, Rizhao",,35.441939,119.538187,163,90,12,30,30,12,7,1,1030,53,2,20141118170000
367,"Lanshan EPA branch, Rizhao",,35.293405,119.345716,175,99,20,38,28,11,7,1,1030,53,2,20141118170000
368,"Jinma Industrial Park, Rizhao",,35.373339,119.514108,147,80,10,44,19,10,7,1,1030,53,2,20141118170000
369,Rizhao,,35.416089,119.532316,179,118,13,32,35,14,7,1,1030,53,2,20141118170000
370,"Vegetable oil factory, Laiwu",,36.205028,117.700917,195,126,11,39,52,46,2,-4,1031,52,0,20141118170000
371,"Nursing home, Laiwu",,36.266067,117.652769,199,133,18,35,39,19,2,-4,1031,52,0,20141118170000
372,"Xinyi middle school, Laiwu",,36.245086,117.739025,170,99,7,27,56,18,2,-4,1031,52,0,20141118170000
373,"Risheng International School, Laiwu",,36.208125,117.730959,192,111,1,34,33,24,2,-4,1031,52,0,20141118170000
374,"Gangcheng EPA, Laiwu",,36.066836,117.871823,185,157,6,39,60,30,2,-4,1031,52,0,20141118170000
375,"City EPA, Laiwu",,36.228913,117.694797,193,119,3,57,41,33,2,-4,1031,52,0,20141118170000
376,Laiwu,,36.213688,117.682612,195,126,11,39,52,46,-,-,0,-,-,20141118170000
377,"Lunan Pharmaceutical Factory, Linyi",,35.061671,118.299527,194,129,31,47,50,31,5,-5,0,45,2,20141118170000
378,"Yihe compound, Linyi",,35.056752,118.34739,180,117,17,37,22,22,5,-5,0,45,2,20141118170000
379,"Linyi University, Linyi",,35.114777,118.293414,223,260,4,59,33,45,5,-5,0,45,2,20141118170000
380,City EPA,Nanfang,35.104871,118.353518,187,145,4,85,50,21,5,-5,0,45,2,20141118170000
381,"Xinguang woolen factory, Linyi",,34.981004,118.282,195,150,14,43,52,27,5,-5,0,45,2,20141118170000
382,"Hongfu Baijiu Factory, Linyi",,34.998788,118.257275,256,235,5,44,26,33,5,-5,0,45,2,20141118170000
384,"Hedong insurance company, Linyi",,35.089354,118.40812,231,167,7,45,46,22,5,-5,0,45,2,20141118170000
385,"Jianghua vehicule center, Linyi",,35.010082,118.435749,193,124,3,49,24,18,5,-5,0,45,2,20141118170000
386,Linyi,,35.10428,118.362202,194,129,14,47,50,31,5,-5,0,45,2,20141118170000
387,"Heima group, Dezhou",,37.466063,116.314134,229,158,17,40,48,19,7,-2,1029,42,1,20141118170000
388,"Monitoring station, Dezhou",,37.433107,116.377312,225,124,6,43,36,15,7,-2,1029,42,1,20141118170000
389,"Supervision Station, Dezhou",,37.449689,116.324709,251,146,17,37,47,18,7,-2,1029,42,1,20141118170000
390,"Huayu technical school, Dezhou",,37.462809,116.357559,206,132,17,27,47,12,7,-2,1029,42,1,20141118170000
391,"Shuangyi group, Dezhou",,37.478848,116.316362,243,143,7,35,32,17,7,-2,1029,42,1,20141118170000
392,Dezhou,,37.434959,116.363366,229,158,17,40,50,19,7,-2,1029,42,1,20141118170000
393,"Dongchang District Government, Liaocheng",,36.444473,115.971733,191,109,31,28,33,19,8,-2,1029,37,2,20141118170000
394,"Light Machinery Factory No. 2, Liaocheng",,36.456788,116.002383,205,157,25,28,44,18,8,-2,1029,37,2,20141118170000
395,"City committee communist party school, Liaocheng",,36.479537,115.989288,183,117,32,23,38,16,8,-2,1029,37,2,20141118170000
396,"Customs, Liaocheng",,36.431933,115.956974,195,133,22,23,31,16,8,-2,1029,37,2,20141118170000
397,"Hongshun Garden, Liaocheng",,36.471124,115.960319,191,137,17,28,32,16,8,-2,1029,37,2,20141118170000
398,"BDA, Liaocheng",,36.459407,116.043621,202,149,12,33,46,29,8,-2,1029,37,2,20141118170000
399,Liaocheng,,36.456792,115.991051,191,109,31,28,33,19,8,-2,1029,37,2,20141118170000
400,"City EPA, Binzhou",,37.38024,118.026895,180,113,4,34,42,16,5,-1,1030,53,1,20141118170000
401,"Beizhong new school, Binzhou",,37.38374,117.988996,172,103,5,48,50,14,5,-1,1030,53,1,20141118170000
402,"No.2 water factory, Binzhou",,37.36155,118.002648,189,146,7,48,52,20,5,-1,1030,53,1,20141118180000
403,"Keling Chemical factory, Binzhou",,37.396138,117.943609,167,82,6,28,18,20,5,-1,1030,53,1,20141118180000
404,"Yinhe logistics company, Binzhou",,37.356122,117.943326,187,114,5,68,27,17,5,-1,1030,53,1,20141118180000
405,"Bilin compond, Binzhou",,37.36815,117.978964,183,130,10,31,12,17,5,-1,1030,53,1,20141118180000
406,Binzhou,,37.382639,117.976606,180,113,4,34,42,16,5,-1,1030,53,1,20141118180000
407,"Bureau of Meteorology, Heze",,35.248625,115.428775,179,105,31,18,27,10,8,-7,0,32,3,20141118180000
408,"Sewage treatment plant, Heze",,35.222517,115.531511,180,119,12,40,32,15,8,-7,0,32,3,20141118180000
409,"Municipal CPPCC, Heze",,35.237125,115.480591,172,90,28,18,32,10,8,-7,0,32,3,20141118180000
410,"Huarun Pharmaceutical Company, Heze",,35.261463,115.524873,172,106,16,19,55,12,8,-7,0,32,3,20141118180000
411,"Heze University, Heze",,35.269706,115.460934,176,104,33,23,28,12,8,-7,0,32,3,20141118180000
412,Heze,,35.233354,115.486503,179,105,31,18,27,10,8,-7,0,32,3,20141118180000
413,"Shiji Park, Shijiazhuang",,38.03155,114.547873,283,210,8,64,49,30,2,0,1026,87,1,20141118180000
414,"Xinan College, Shijiazhuang",,38.012764,114.473163,255,178,24,32,51,36,2,0,1026,87,1,20141118180000
415,"Chemical College, Shijiazhuang",,38.055503,114.569816,258,159,6,18,7,28,2,0,1026,87,1,20141118180000
416,"Worker hospital, Shijiazhuang",,38.051784,114.461209,212,320,6,36,46,36,2,0,1026,87,1,20141118180000
417,"Northwest Water Company, Shijiazhuang",,38.140638,114.508038,290,249,26,62,61,44,2,0,1026,87,1,20141118180000
418,"High-tech zone, Shijiazhuang",,38.040482,114.610775,310,375,50,36,44,32,2,0,1026,87,1,20141118180000
419,"Fenglong Montain, Shijiazhuang",,37.910829,114.360264,206,152,18,63,62,24,2,0,1026,87,1,20141118180000
1130,"Zhengding Unicom, Shijiazhuang",,38.159458,114.59879,432,562,3,58,52,56,2,0,1026,87,1,20141118180000
1131,"Luancheng Communications, Shijiazhuang",,37.906534,114.638785,249,184,3,38,57,32,2,0,1026,87,1,20141118180000
1132,"Gaocheng Experimental School, Shijiazhuang",,38.039518,114.867812,220,153,2,32,29,27,2,0,1026,87,1,20141118180000
1133,"Wuji EPA, Shijiazhuang",,38.17862,114.997012,283,168,2,45,35,41,2,0,1026,87,1,20141118180000
1134,"Shenze Power Supply Bureau, Shijiazhuang",,38.197674,115.219126,193,140,1,33,26,25,2,0,1026,87,1,20141118180000
1135,"Zhaoxian EPA, Shijiazhuang",,37.77171,114.775957,243,162,5,33,51,17,2,0,1026,87,1,20141118180000
1136,"Gaoyi County City Hall, Shijiazhuang",,37.623535,114.612729,292,236,3,38,42,21,2,0,1026,87,1,20141118180000
1137,"Zanhuang County City Hall, Shijiazhuang",,37.672898,114.398269,200,147,6,43,30,30,2,0,1026,87,1,20141118180000
1138,"Jingxing Bureau of Meteorology, Shijiazhuang",,38.038788,114.158406,232,151,2,47,65,30,2,0,1026,87,1,20141118180000
1139,"Pingshan Ye River, Shijiazhuang",,38.266657,114.210275,219,173,1,38,37,23,2,0,1026,87,1,20141118180000
474,"Qinjian street, Tianjin",,39.166588,117.15104,246,131,26,45,51,19,4,-1,1027,70,2,20141118180000
420,Shijiazhuang,,38.042926,114.520834,297,208,28,56,62,28,2,0,1026,87,1,20141118180000
421,"No. 12 middle school, Tangshan",,39.659306,118.190271,,,,,,,-,-,0,-,-,20141118180000
422,"Ceramics Company, Tangshan",,39.669255,118.225185,242,123,6,54,41,21,4,-1,1027,70,2,20141118180000
423,"Commodities Bureau, Tangshan",,39.642301,118.191265,204,145,7,101,40,19,4,-1,1027,70,2,20141118180000
424,"Leidazhanzi Station, Tangshan",,39.644375,118.150383,199,142,7,62,39,34,4,-1,1027,70,2,20141118180000
425,"Supply and marketing cooperatives, Tangshan",,39.632334,118.17232,207,85,7,55,35,21,4,-1,1027,70,2,20141118180000
1140,"Guye District City Hall, Tangshan",,39.741379,118.460246,265,196,2,49,42,32,4,-1,1027,70,2,20141118180000
1141,"Kaiping Stations, Tangshan",,39.675246,118.275149,327,365,2,58,56,27,4,-1,1027,70,2,20141118180000
1142,"Fengnan District City Hall, Tangshan",,39.5834,118.097454,195,138,2,56,43,58,4,-1,1027,70,2,20141118180000
1143,"Fengrun City Hall, Tangshan",,39.840355,118.175338,330,384,4,37,58,34,4,-1,1027,70,2,20141118180000
1144,"Qianxi EPA, Tangshan",,40.153339,118.317265,190,130,5,38,25,35,4,-1,1027,70,2,20141118180000
1145,"Caofeidian Xinli  Primary School, Tangshan",,39.291232,118.462182,190,113,8,29,39,12,4,-1,1027,70,2,20141118180000
1146,"Zunhua EPA, Tangshan",,40.206249,117.997315,190,139,4,38,44,18,4,-1,1027,70,2,20141118180000
1147,"Qianan No.1 middle school, Tangshan",,40.004248,118.717055,225,178,3,41,52,32,4,-1,1027,70,2,20141118180000
1266,"Luannan County , Tangshan",,39.511132,118.686928,186,98,4,44,30,15,4,-1,1027,70,2,20141118180000
1267,"Yutian County , Tangshan",,39.908249,117.751417,272,197,3,63,55,21,4,-1,1027,70,2,20141118180000
426,Tangshan,,39.632175,118.186472,204,145,7,101,40,19,-,-,0,-,-,20141118180000
427,"City Monitoring Station, Qinhuangdao",,39.958109,119.607773,180,174,8,48,64,37,,,0,,,20141118180000
428,"Beidaihe, Qinhuangdao",,39.829209,119.53194,208,154,6,69,59,52,,,0,,,20141118180000
429,"Shanhai Pass, Qinhuangdao",,40.019298,119.767898,166,105,15,40,31,25,,,0,,,20141118180000
430,"Contruction Plazz, Qinhuangdao",,39.943187,119.542912,172,187,2,32,25,28,,,0,,,20141118180000
431,"City government, Qinhuangdao",,39.93711,119.612769,189,163,8,28,50,31,,,0,,,20141118180000
1148,"Qinglong EPA, Qinhuangdao",,40.419223,118.958002,119,62,4,13,84,12,,,0,,,20141118180000
1149,"Changli EPA, Qinhuangdao",,39.714369,119.173237,259,183,7,87,62,39,,,0,,,20141118180000
1268,"Lulong County Bureau of Meteorology , Qinhuangdao",,39.901091,118.904857,305,191,5,39,36,31,,,0,,,20141118180000
432,Qinhuangdao,,39.936485,119.606263,189,163,8,28,50,31,,,0,,,20141118180000
433,"CongTai Park, Handan",,36.620197,114.501891,193,144,14,22,21,15,,,0,,,20141118180000
434,"City EPA, Handan",,36.618145,114.518822,200,131,31,24,14,14,,,0,,,20141118180000
435,"East Sewage Factory, Handan",,36.616064,114.548714,220,161,13,31,13,12,,,0,,,20141118180000
436,"Mine Hospital, Handan",,36.578149,114.509854,238,148,18,29,15,12,,,0,,,20141118180000
1150,"Fengfeng mine Inland Revenue Department, Handan",,36.423085,114.245994,334,286,5,35,55,26,,,0,,,20141118180000
1151,"Shexian EPA, Handan",,36.589084,113.692341,218,154,5,39,49,33,,,0,,,20141118180000
1152,"Ci County Vocational Education Center, Handan",,36.380247,114.390119,251,160,10,48,27,18,,,0,,,20141118180000
1153,"Yongnian government guesthouse, Handan",,36.783297,114.502905,228,162,4,48,51,0,,,0,,,20141118180000
1154,"Wuan BDA, Handan",,36.686223,114.269009,266,216,2,38,54,22,,,0,,,20141118180000
1085,Handan,,36.625683,114.544812,220,161,13,31,13,12,,,0,,,20141118180000
437,"Road and Bridge Corporation, Xingtai",,37.096415,114.538799,256,210,9,47,37,11,8,2,1028,56,2,20141118180000
438,"Dahuo fontain, Xingtai",,37.097563,114.488001,346,268,6,44,21,19,8,2,1028,56,2,20141118180000
439,"Xingtai Normal College, Xingtai",,37.053404,114.531819,263,193,6,44,48,17,8,2,1028,56,2,20141118180000
440,"Environment protection office, Xingtai",,37.06253,114.490985,292,302,9,41,58,16,8,2,1028,56,2,20141118180000
1155,"Cultural centers within the mound, Xingtai",,37.293569,114.524873,244,193,2,41,23,37,8,2,1028,56,2,20141118180000
383,Xingtai,,37.071066,114.510749,292,302,9,41,58,16,8,2,1028,56,2,20141118180000
441,"City Monitoring Station, Baoding",,38.871737,115.527103,526,509,33,65,62,87,4,-3,1029,53,0,20141118180000
442,"Surface water Company, Baoding",,38.842891,115.467326,488,763,10,68,54,51,4,-3,1029,53,0,20141118180000
443,"Huadian II, Baoding",,38.896748,115.528102,476,568,2,79,61,56,4,-3,1029,53,0,20141118180000
444,"Reception Center, Baoding",,38.911905,115.477301,375,288,8,69,37,40,4,-3,1029,53,0,20141118180000
445,"Film Factory, Baoding",,38.876949,115.448383,450,615,13,68,26,45,4,-3,1029,53,0,20141118180000
446,"Natatorium, Baoding",,38.863815,115.499212,572,771,11,78,91,69,4,-3,1029,53,0,20141118180000
1156,"Qingyuan City Hall, Baoding",,38.771758,115.502189,368,337,4,44,51,54,4,-3,1029,53,0,20141118180000
1157,"Xushui EPA, Baoding",,39.025781,115.668023,330,340,5,49,27,46,4,-3,1029,53,0,20141118180000
1158,"Zhouzhou Monitoring Stations, Baoding",,39.493241,116.040187,376,312,3,47,64,48,4,-3,1029,53,0,20141118180000
1159,"Gaobeidian EPA, Baoding",,39.3329,115.885891,348,273,2,56,57,57,4,-3,1029,53,0,20141118180000
447,Baoding,,38.874791,115.471124,450,615,13,68,26,45,4,-3,1029,53,0,20141118180000
448,"Century Compound, Zhangjiakou",,40.770279,114.909106,139,62,24,12,15,15,-1,-10,1029,39,1,20141118180000
449,"North Pumping Station, Zhangjiakou",,40.874362,114.910119,129,57,21,8,10,13,-1,-10,1029,39,1,20141118180000
450,"Hardware Warehouse, Zhangjiakou",,40.81232,114.887119,139,74,42,13,25,27,-1,-10,1029,39,1,20141118180000
451,"Tanji Chang, Zhangjiakou",,40.796301,114.89811,109,66,23,11,19,10,-1,-10,1029,39,1,20141118180000
1160,"Xiahuayuan EPA, Zhangjiakou",,40.509345,115.302442,151,85,6,25,48,6,-1,-10,1029,39,1,20141118180000
1161,"Huaian EPA, Zhangjiakou",,40.68157,114.398646,153,11,4,47,9,14,-1,-10,1029,39,1,20141118180000
1162,"Huailai Fuqian Primary School, Zhangjiakou",,40.422204,115.530285,161,81,1,39,25,17,-1,-10,1029,39,1,20141118180000
1269,"Zhangbei EPA , Zhangjiakou",,41.166775,114.732369,161,74,13,22,58,8,-1,-10,1029,39,1,20141118180000
1270,"Kangbao County Environmental Protection Agency , Zhangjiakou",,41.837866,114.591246,117,57,21,7,9,6,-1,-10,1029,39,1,20141118180000
1271,"Guyuan County welfare , Zhangjiakou",,41.669984,115.687401,114,46,18,9,7,7,-1,-10,1029,39,1,20141118180000
1272,"Shangyi County Environmental Protection Bureau , Zhangjiakou",,41.086638,113.984688,162,94,4,24,19,21,-1,-10,1029,39,1,20141118180000
1273,"Yuxian Secondary School , Zhangjiakou",,39.84699,114.601986,234,161,5,30,69,48,-1,-10,1029,39,1,20141118180000
1274,"Yang County Vocational Education Center , Zhangjiakou",,40.106343,114.134732,173,105,12,27,30,18,-1,-10,1029,39,1,20141118180000
1275,"Wan county Environmental Protection Agency , Zhangjiakou",,40.770459,114.75033,151,66,10,22,17,9,-1,-10,1029,39,1,20141118180000
1276,"Zhuolu County Environmental Protection Agency , Zhangjiakou",,40.374273,115.221393,163,74,4,1,17,27,-1,-10,1029,39,1,20141118180000
475,"Nanjing Road, Tianjin",,39.120958,117.195112,236,118,18,50,52,19,4,-1,1027,70,2,20141118180000
452,Zhangjiakou,,40.825744,114.893659,144,61,23,5,17,10,-1,-10,1029,39,1,20141118180000
453,"Railway, Chengde",,40.917557,117.972331,129,82,14,26,22,16,-2,-8,1030,52,1,20141118180000
454,"Cultural Center, Chengde",,40.974625,117.824437,117,79,12,25,16,19,-2,-8,1030,52,1,20141118180000
455,"Bank of China, Chengde",,40.985582,117.958304,154,92,11,27,27,21,-2,-8,1030,52,1,20141118180000
456,"BDA, Chengde",,40.937567,117.969325,157,114,8,29,23,13,-2,-8,1030,52,1,20141118180000
457,"Ligong, Chengde",,41.012579,117.94428,158,72,7,24,15,11,-2,-8,1030,52,1,20141118180000
1163,"Chengde County EPA, Chengde",,40.776643,118.17646,153,85,1,28,50,27,-2,-8,1030,52,1,20141118180000
1164,"Xinglong County City Hall, Chengde",,40.424301,117.513488,153,60,3,27,10,20,-2,-8,1030,52,1,20141118180000
1165,"Luanping EPA, Chengde",,40.950792,117.350715,159,70,4,29,14,19,-2,-8,1030,52,1,20141118180000
1166,"Fengning County City Hall, Chengde",,41.216739,116.658037,142,63,6,12,24,34,-2,-8,1030,52,1,20141118180000
1277,"Longhua EPA , Chengde",,41.311956,117.739605,158,78,6,29,19,12,-2,-8,1030,52,1,20141118180000
458,Chengde,,40.955652,117.968737,157,114,8,29,23,13,-2,-8,1030,52,1,20141118180000
459,"Municipal EPB, Cangzhou",,38.323507,116.876746,200,141,19,35,17,13,4,-1,1027,70,2,20141118180000
460,"Cangxian Urban Construction Bureau, Cangzhou",,38.299495,116.890734,235,123,22,26,38,12,4,-1,1027,70,2,20141118180000
461,"TV Broadcast Station, Cangzhou",,38.325525,116.863761,199,120,26,10,46,13,4,-1,1027,70,2,20141118180000
1167,"Qing County City Hall, Cangzhou",,38.589643,116.815876,212,136,4,42,65,16,4,-1,1027,70,2,20141118180000
1168,"Poyoushi City Hall, Cangzhou",,38.089516,116.590575,201,140,7,38,38,18,4,-1,1027,70,2,20141118180000
1169,"Huanghua Finance Bureau Training Center, Cangzhou",,38.377793,117.343356,229,147,4,32,46,10,4,-1,1027,70,2,20141118180000
462,Cangzhou,,38.305035,116.844625,199,120,26,10,46,13,4,-1,1027,70,2,20141118180000
463,"Environmental Monitoring Supervision Center, Langfang",,39.558157,116.720995,392,292,9,71,54,38,4,-1,1027,70,2,20141118180000
464,"TCM Medical Material Company, Langfang",,39.519096,116.689914,356,360,9,81,59,34,4,-1,1027,70,2,20141118180000
465,"BDA, Langfang",,39.576175,116.779041,378,305,10,75,57,43,4,-1,1027,70,2,20141118180000
466,"North China Institute of Aerospace, Langfang",,39.53517,116.743027,416,328,3,55,40,49,4,-1,1027,70,2,20141118180000
1170,"Guan Party School, Langfang",,39.446185,116.311026,276,190,2,65,49,27,4,-1,1027,70,2,20141118180000
1171,"Xianghe EPA, Langfang",,39.76725,117.015252,419,355,3,69,52,48,4,-1,1027,70,2,20141118180000
1172,"Wenan County EPA, Langfang",,38.880927,116.47001,244,171,13,30,34,16,4,-1,1027,70,2,20141118180000
1173,"Three Rivers Department of Transportation, Langfang",,39.989419,117.091528,309,504,7,44,26,36,4,-1,1027,70,2,20141118180000
1278,"Yongqing EPA , Langfang",,39.329071,116.510917,346,323,4,64,54,40,4,-1,1027,70,2,20141118180000
1279,"Dacheng EPA, Langfang",,38.712628,116.665751,277,167,8,65,53,27,4,-1,1027,70,2,20141118180000
467,Langfang,,39.539148,116.689668,356,360,9,81,59,34,4,-1,1027,70,2,20141118180000
468,"Hengshui City EPB, Hengshui",,37.739679,115.695929,220,151,25,38,24,12,6,-7,0,34,4,20141118180000
469,"Environmental Monitoring Station, Hengshui",,37.738593,115.648837,198,394,19,71,54,11,6,-7,0,34,4,20141118180000
470,"Electrical Machine North Factory, Hengshui",,37.758686,115.70094,207,154,27,23,27,10,6,-7,0,34,4,20141118180000
1174,"Anping EPA, Hengshui",,38.238559,115.537988,212,134,8,48,38,14,6,-7,0,34,4,20141118180000
1175,"Jizhou EPA, Hengshui",,37.548552,115.58679,192,130,21,26,22,10,6,-7,0,34,4,20141118180000
1280,"Zaoqiang EPA, Hengshui",,37.520698,115.714936,226,145,39,24,27,12,6,-7,0,34,4,20141118180000
1281,"Wuyi EPA, Hengshui",,37.801554,115.898697,210,22,19,18,32,11,6,-7,0,34,4,20141118180000
1282,"Wuqiang EPA , Hengshui",,38.03557,115.959767,224,144,6,1,24,20,6,-7,0,34,4,20141118180000
1283,"Raoyang EPA , Hengshui",,38.230652,115.741041,227,161,8,35,30,13,6,-7,0,34,4,20141118180000
1284,"Gucheng County , Hengshui",,37.347569,115.966707,217,127,23,33,34,14,6,-7,0,34,4,20141118180000
471,Hengshui,,37.739562,115.676066,207,154,27,23,27,10,6,-7,0,34,4,20141118180000
1176,"Xinji City Hall, Xinji",,37.949711,115.230084,218,136,3,29,37,18,6,-7,0,34,4,20141118180000
472,"Fukang road, Tianjin",,39.098136,117.157621,222,114,11,46,47,22,4,-1,1027,70,2,20141118180000
473,"Nankou road, Tianjin",,39.174022,117.199688,229,113,15,50,57,24,4,-1,1027,70,2,20141118180000
476,"Dazhigu No.8 road, Tianjin",,39.111811,117.25147,198,129,12,43,58,18,4,-1,1027,70,2,20141118180000
477,"Qianjin street, Tianjin",,39.09371,117.207981,227,122,13,50,51,16,4,-1,1027,70,2,20141118180000
478,"Huaihe street, Tianjin",,39.227167,117.191293,247,129,13,45,45,16,4,-1,1027,70,2,20141118180000
479,"Xiangshan street, Tianjin",,39.134752,117.275125,206,110,7,47,54,32,4,-1,1027,70,2,20141118180000
480,"Yuejin Road, Tianjin",,39.088177,117.320884,216,110,10,30,25,25,4,-1,1027,70,2,20141118180000
481,"Zhujiang street, Tianjin",,39.064463,117.231268,-,-,-,-,-,-,-,-,0,-,-,20141118180000
482,"No.4 street, Tianjin",,39.035228,117.713424,184,89,10,34,51,16,4,-1,1027,70,2,20141118180000
483,"Yongming road, Tianjin",,38.840392,117.463805,193,112,14,47,40,14,4,-1,1027,70,2,20141118180000
484,"Xinhua street, Tianjin",,39.138671,117.010083,218,115,18,44,42,20,4,-1,1027,70,2,20141118180000
485,"Jingu Road, Tianjin",,38.985659,117.381254,210,118,9,49,35,20,4,-1,1027,70,2,20141118180000
486,"Tanggu Yingkou street, Tianjin",,39.021768,117.656454,182,89,4,46,38,16,4,-1,1027,70,2,20141118180000
487,"Hexi Yijing road, Tianjin",,39.248392,117.798043,198,116,10,38,50,29,4,-1,1027,70,2,20141118180000
488,"Jianshe Road, Tianjin",,39.720075,117.310588,328,309,3,76,28,52,4,-1,1027,70,2,20141118180000
489,"Quanzhou South road, Tianjin",,39.373857,117.050329,305,150,5,50,46,23,4,-1,1027,70,2,20141118180000
490,"Donghuan road, Tianjin",,40.043144,117.451062,184,109,5,35,10,27,4,-1,1027,70,2,20141118180000
491,"Tuanpowa, Tianjin",,38.920418,117.16299,289,140,23,36,54,31,4,-1,1027,70,2,20141118180000
493,"Beiwei No.2 road, Tianjin",,38.943857,116.920624,178,101,10,54,43,22,4,-1,1027,70,2,20141118180000
494,"Haitai fazhan No.2 road, Tianjin",,39.079608,117.096583,263,138,4,59,57,23,4,-1,1027,70,2,20141118180000
495,"Hangtian road, Tianjin",,39.152244,117.381309,229,137,8,49,42,24,4,-1,1027,70,2,20141118180000
496,"Hanbei road, Tianjin",,39.159768,117.770477,189,93,30,47,56,16,4,-1,1027,70,2,20141118180000
497,"Baobai highway, Tianjin",,39.51757,117.349635,232,167,13,42,11,27,4,-1,1027,70,2,20141118180000
498,Tianjin,,39.085164,117.207281,227,122,13,50,51,16,4,-1,1027,70,2,20141118180000
499,"Wolong bridge, Hangzhou",,30.24371,120.132762,170,85,14,39,11,14,8,3,1029,71,0,20141118180000
500,"Hemu primary school, Hangzhou",,30.309669,120.124507,170,97,24,38,6,13,8,3,1029,71,0,20141118180000
501,"Zhejiang Agricultural University, Hangzhou",,30.265601,120.197583,180,120,18,49,9,12,8,3,1029,71,0,20141118180000
502,"Xiasha, Hangzhou",,30.303516,120.352618,195,104,12,21,32,11,8,3,1029,71,0,20141118180000
503,"Yunqi, Hangzhou",,30.178555,120.093142,158,61,19,30,6,9,8,3,1029,71,0,20141118180000
504,"Xixi, Hangzhou",,30.272425,120.068144,159,69,14,40,8,12,8,3,1029,71,0,20141118180000
505,"Chengxiang town, Hangzhou",,30.179493,120.274184,177,89,12,43,8,11,8,3,1029,71,0,20141118180000
506,"Qiandao lake, Hangzhou",,29.638139,119.031092,144,62,50,12,10,6,8,3,1029,71,0,20141118180000
507,"Linping town, Hangzhou",,30.415948,120.305059,178,111,26,49,38,11,8,3,1029,71,0,20141118180000
508,"Fuyang monitoring station, Hangzhou",,30.048419,119.963469,63,99,49,29,5,11,8,4,1029,76,0,20141118180000
509,"No.2 Middle School, Hangzhou",,30.044303,119.956356,50,96,15,21,11,14,8,4,1029,76,0,20141118180000
510,"City Hall, Hangzhou",,30.234185,119.723503,159,77,50,20,16,12,8,3,1029,71,0,20141118180000
511,"No. 4 middle school, Hangzhou",,30.229428,119.699591,155,78,12,21,9,9,8,4,1029,76,0,20141118180000
512,Hangzhou,,30.271756,120.159765,176,121,16,50,5,16,8,3,1029,71,0,20141118180000
513,"City Station, Wenzhou",,28.009715,120.679129,99,50,39,11,5,10,9,7,0,85,2,20141118180000
514,"Ouhai, Wenzhou",,28.001846,120.641982,155,64,48,22,14,12,9,7,0,85,2,20141118180000
515,"Longwan, Wenzhou",,27.968122,120.768393,112,61,34,43,7,14,9,7,0,85,2,20141118180000
516,"Nanpu, Wenzhou",,27.981763,120.683685,104,52,36,15,6,17,9,7,0,85,2,20141118180000
517,Wenzhou,,27.990985,120.703425,104,52,36,15,6,17,9,7,0,85,2,20141118180000
518,"Monitoring station, Jiaxing",,30.75437,120.767373,169,87,30,50,13,12,9,5,1029,76,2,20141118180000
519,"Jiaxing University, Jiaxing",,30.745099,120.735004,176,89,22,47,10,11,9,5,1029,76,2,20141118180000
520,"Qinghe Primary School, Jiaxing",,30.775685,120.747969,177,105,23,49,13,10,9,5,1029,76,2,20141118180000
521,Jiaxing,,30.751627,120.762862,169,87,30,50,13,12,9,5,1029,76,2,20141118180000
522,"Chengbei water plant, Huzhou",,30.891155,120.096593,157,69,18,38,9,11,10,5,1029,71,1,20141118180000
523,"Jishan new village, Huzhou",,30.859939,120.120168,181,84,76,41,13,15,10,5,1029,71,1,20141118180000
524,"Town west water plant, Huzhou",,30.862371,120.084577,157,71,38,43,4,12,9,5,1029,76,2,20141118180000
525,Huzhou,,30.892304,120.091694,157,69,18,38,9,11,10,5,1029,71,1,20141118180000
526,"Donghu middle school, Shaoxing",,29.990447,120.647547,165,71,15,18,14,6,8,4,1029,76,0,20141118180000
527,"City EPA station, Shaoxing",,30.001695,120.584318,168,91,19,31,10,8,8,3,1029,71,0,20141118180000
528,"Chengdong BDA committee, Shaoxing",,29.986643,120.613578,162,72,7,24,17,8,8,4,1029,76,0,20141118180000
529,"Paojiang station, Shaoxing",,30.07574,120.62154,184,118,26,42,28,9,8,3,1029,71,0,20141118180000
530,"Shaoxing technical school, Shaoxing",,29.930983,120.577131,152,63,24,12,11,6,8,4,1029,76,0,20141118180000
531,"Library, Shaoxing",,29.706266,120.253183,161,90,29,34,8,12,8,3,1029,71,0,20141118180000
532,"Transporation management station, Shaoxing",,29.726405,120.221602,165,89,33,29,7,21,8,3,1029,71,0,20141118180000
533,"Dongpu Town Governement, Shaoxing",,30.049601,120.539893,217,142,9,28,24,9,8,4,1029,76,0,20141118180000
534,Shaoxing,,29.993122,120.590182,168,91,19,31,10,8,-,-,0,-,-,20141118180000
535,"City Monitoring Station, Jinhua",,29.100031,119.690373,161,80,46,41,24,14,6,5,0,90,1,20141118180000
536,"No.15 middle school, Jinhua",,29.074022,119.652121,160,88,42,42,16,11,6,5,0,91,1,20141118180000
537,"No.4 middle school, Jinhua",,29.110109,119.653654,159,83,44,40,27,14,6,5,0,90,1,20141118180000
538,"Beiyuan, Jinhua",,29.332898,120.083351,168,91,25,33,19,12,6,5,0,90,1,20141118180000
539,"Jiangdong, Jinhua",,29.302486,120.095291,179,103,38,35,25,15,6,5,0,90,1,20141118180000
540,Jinhua,,29.076083,119.65215,160,88,42,42,16,11,6,5,0,91,1,20141118180000
541,"EPA building, Quzhou",,28.937291,118.876081,156,72,43,67,19,12,11,4,1028,51,4,20141118180000
542,"Experimental school, Quzhou",,28.961502,118.880916,147,66,54,15,14,10,10,5,1028,61,3,20141118180000
543,"Quzhou University, Quzhou",,28.971452,118.860052,157,72,96,18,10,9,10,5,1028,61,3,20141118180000
544,Quzhou,,28.966994,118.864252,157,72,96,20,10,9,11,4,1028,51,4,20141118180000
545,"Putuo east port, Zhoushan",,29.951412,122.317679,95,38,46,3,4,7,7,6,1029,93,1,20141118180000
546,"Dinghai tanfeng, Zhoushan",,30.018014,122.126566,80,41,50,5,5,7,7,6,1029,93,1,20141118180000
547,Zhoushan,,29.983049,122.210763,114,55,41,6,4,6,7,6,1029,93,0,20141118180000
548,"Taizhou EPA building, Taizhou",,28.651216,121.42331,151,64,38,11,5,5,9,7,0,84,2,20141118180000
549,"Luqiao Tian Yang Wang, Taizhou",,28.574364,121.381194,122,59,33,15,6,11,9,7,0,84,2,20141118180000
550,"Huangyan EPA building, Taizhou",,28.656151,121.285064,119,58,27,17,5,7,9,7,0,85,2,20141118180000
551,"Yu Zhuang Qian, Lishui",,28.419638,119.883884,151,62,33,24,3,6,10,6,1029,71,1,20141118180000
552,"Monitoring station building, Lishui",,28.444379,119.923103,153,63,33,14,4,9,10,6,1029,71,1,20141118180000
553,"Liandu primary school, Lishui",,28.450912,119.939332,157,71,42,14,3,7,10,6,1029,71,1,20141118180000
554,Lishui,,28.464224,119.927201,153,63,33,14,4,9,10,6,1029,71,1,20141118180000
1248,Jingningxian,,27.977454,119.634837,161,62,4,19,2,11,,,,,,20141118180000
555,Taigu Primary School,,29.864178,121.60022,159,89,5,19,9,13,7,6,1029,93,1,20141118180000
556,Qianhu shuihan,,29.862459,121.5328,160,88,4,20,9,13,7,6,1029,93,1,20141118180000
557,Sanjiang secondary schools,,29.891563,121.568427,162,76,11,28,8,10,7,6,1029,93,1,20141118180000
558,Longsai Hospital,,29.957301,121.726734,172,93,24,37,15,9,7,6,1029,93,1,20141118180000
559,Beilun District EPB,,29.911633,121.850773,158,79,16,46,7,9,7,6,1029,93,1,20141118180000
560,Wanli University,,29.821314,121.574364,159,79,6,9,9,9,7,6,1029,93,1,20141118180000
561,Qianhu water plant,,29.774416,121.648136,183,86,22,27,10,10,7,6,1029,93,1,20141118180000
562,Municipal management station,,29.899182,121.626691,170,89,9,18,7,11,7,6,1029,93,1,20141118180000
1177,Daxie Literary Museum,,29.9027,121.986447,107,50,39,62,7,9,7,6,1029,93,1,20141118180000
1178,Cixi EPB,,30.165807,121.248991,167,93,6,27,6,12,7,6,1029,93,1,20141118180000
1179,Cixi Experimently Primary School,,30.179808,121.268672,186,120,6,33,12,18,7,6,1029,93,1,20141118180000
1180,"Yongsan Park, Yuyao",,30.050842,121.162477,157,70,9,25,7,11,7,6,1029,93,1,20141118180000
1181,"Qilupu Water Company, Yuyao",,30.039112,121.133416,157,102,6,33,9,11,7,6,1029,93,1,20141118180000
1182,Fenghua EPB,,29.666557,121.42069,127,50,27,29,4,10,7,6,1029,93,1,20141118180000
1183,"Yuelong station, Ninghai",,29.296505,121.445872,142,61,10,19,10,9,7,6,1029,93,1,20141118180000
1184,"Wenfeng Primary School, Xiangshan",,29.470908,121.889544,152,61,32,9,7,7,7,6,1029,93,1,20141118180000
1185,"Chengnan Primary School, Ninghai",,29.293812,121.43666,127,59,14,14,7,7,7,6,1029,93,1,20141118180000
1186,"Xingang Primary School, Xiangshan",,29.203878,121.952514,127,53,42,8,6,6,7,6,1029,93,1,20141118180000
1356,Haishu City Monitoring Center,,29.86835,121.539341,160,89,4,36,10,13,7,6,1029,93,1,20141118180000
1357,Fenghua Xikou government,,29.693164,121.29331,109,45,6,19,3,8,7,6,1029,93,1,20141118180000
1294,Ningbo,,29.865766,121.548164,170,89,28,18,7,11,7,6,1029,93,1,20141118180000
1187,Fuyang,,30.046157,119.96468,63,99,15,29,5,14,-,-,0,-,-,20141118180000
1188,Yiwu,,29.304353,120.079794,173,92,38,31,28,15,-,-,0,-,-,20141118180000
1189,Zhuji,,29.711185,120.240748,165,88,33,31,6,21,8,4,1029,76,0,20141118180000
563,"Shanxi Road , Nanjing",,32.06795,118.779216,162,92,40,27,20,0,4,3,1029,93,1,20141118180000
564,"Ruijin Road , Nanjing",,32.029321,118.80817,164,90,20,37,22,0,4,3,1029,93,1,20141118180000
565,"Xuanwu Lake, Nanjing",,32.075423,118.800188,160,74,37,26,8,0,4,3,1029,93,1,20141118180000
566,"Olympic Center, Nanjing",,32.007171,118.742217,169,110,43,25,8,0,4,3,1029,93,1,20141118180000
567,"Xianlin University Town , Nanjing",,32.106958,118.919882,164,138,43,44,17,0,4,3,1029,93,1,20141118180000
568,Nanjing,,32.058179,118.802061,163,114,43,43,19,0,4,3,1029,93,1,20141118180000
569,"Shangfang hill , Suzhou",,31.24502,120.565211,137,48,40,24,7,0,9,5,1029,76,2,20141118180000
570,"Wuzhong District , Suzhou",,31.268105,120.61717,156,-,50,36,9,0,9,5,1029,76,2,20141118180000
571,"Suzhou New District , Suzhou",,31.297277,120.547262,156,48,39,38,22,0,9,5,1029,76,2,20141118180000
572,"Suzhou Industrial Area, Suzhou",,31.307603,120.673257,152,54,40,26,18,0,9,5,1029,76,2,20141118180000
573,"Xiangcheng district, Suzhou",,31.368674,120.645209,156,67,43,49,14,0,9,5,1029,76,2,20141118180000
574,Suzhou,,31.296701,120.589493,156,55,50,49,22,0,9,5,1029,76,2,20141118180000
575,"South suburb , Nantong",,31.957836,120.917218,139,57,50,33,18,0,9,5,0,77,2,20141118180000
576,"Xinghu park, Nantong",,31.927873,120.944254,80,50,48,23,26,0,9,5,1003,76,2,20141118180000
577,"Zilang school, Nantong",,32.039638,120.814358,160,73,46,24,15,0,9,5,1003,76,2,20141118180000
578,Nantong,,31.978005,120.898555,139,71,50,33,18,0,9,5,0,77,2,20141118180000
579,Lianyungang,,34.595509,119.226814,152,84,21,27,10,7,8,8,1016,96,0,20141118180000
580,"Hongmen police substation, Lianyungang",,34.588692,119.146693,155,66,33,17,26,0,6,1,1030,62,1,20141118180000
581,"Xugou Nuclear Expert Village , Lianyungang",,34.749957,119.373707,149,77,36,25,24,0,6,1,1030,62,1,20141118180000
582,"Hengrui pharmaceutical company, BDA, Lianyungang",,34.697574,119.353668,160,125,31,32,25,0,6,1,1030,62,1,20141118180000
583,"City Monitoring Station, Lianyungang",,34.586791,119.186929,157,75,26,10,25,0,6,1,1030,62,1,20141118180000
584,"Yellow river new village , Xuzhou",,34.271542,117.177241,169,71,29,48,41,0,3,0,1030,74,0,20141118180000
585,"Tongshan Veterinary Hospital , Xuzhou",,34.307086,117.197766,190,176,26,38,26,0,3,0,1030,74,0,20141118180000
586,"New Town , Xuzhou",,34.213992,117.261718,164,90,32,34,7,0,3,0,1030,74,0,20141118180000
587,"Taoyuan road, Xuzhou",,34.289822,117.249721,175,108,25,46,27,0,3,0,1030,74,0,20141118180000
588,"Agricultural Science Academy , Xuzhou",,34.27655,117.299079,164,97,23,38,24,0,3,0,1030,74,0,20141118180000
589,"Tongshan EPA, Xuzhou",,34.179384,117.171798,168,128,32,14,13,0,3,0,1030,74,0,20141118180000
590,Xuzhou,,34.20346,117.289825,190,176,32,48,41,0,3,0,1030,74,0,20141118180000
591,Yangzhou,,32.39233,119.418446,159,69,10,19,10,5,11,9,0,90,6,20141118180000
592,"Hanjiang Monitoring Station, Yangzhou",,32.374218,119.394484,144,75,42,16,25,0,7,2,0,69,3,20141118180000
593,"No. 4 Hospital, Yangzhou",,32.401394,119.44444,151,71,5,8,23,0,7,2,0,69,3,20141118180000
594,"City Monitoring Station, Yangzhou",,32.406588,119.41591,166,75,44,18,21,0,7,2,0,69,3,20141118180000
595,"University Town , Wuxi",,31.484752,120.273571,158,80,37,22,23,0,10,6,1029,76,2,20141118180000
596,"Shibei High School , Wuxi",,31.619969,120.279584,167,89,47,41,36,0,10,6,1029,76,2,20141118180000
597,"Yuhong Elementary School , Wuxi",,31.561155,120.249588,152,69,44,26,21,0,10,6,1029,76,2,20141118180000
598,Wuxi,,31.488746,120.31575,167,89,48,41,36,0,-,-,0,-,-,20141118180000
599,Changzhou,,31.808037,119.979205,172,86,6,22,36,13,11,9,0,88,5,20141118180000
600,"Chengjian School, Changzhou",,31.776476,119.937681,156,66,44,44,15,0,9,5,0,76,3,20141118180000
601,"Changzhou Engineering Institute , Changzhou",,31.806828,119.966724,164,72,47,29,42,0,9,5,0,76,3,20141118180000
602,"Wujin Monitoring Station, Changzhou",,31.701788,119.939676,170,83,46,28,33,0,9,5,0,75,3,20141118180000
603,"City Monitoring Station, Changzhou",,31.777201,119.979426,160,72,43,38,28,0,9,5,0,76,3,20141118180000
604,Zhenjiang,,32.18597,119.431281,170,79,4,39,15,13,9,8,0,93,5,20141118180000
605,"New District Administrative office , Zhenjiang",,32.186174,119.685021,158,67,45,20,8,0,4,3,1029,93,1,20141118180000
606,"Vocational Education Center , Zhenjiang",,32.212973,119.496253,151,67,43,21,22,0,4,3,1029,93,1,20141118180000
607,"Dantu Monitoring Station , Zhenjiang",,32.130026,119.435432,167,66,32,16,19,0,4,3,1029,93,1,20141118180000
608,"City Monitoring Station, Zhenjiang",,32.202178,119.439766,157,66,61,22,19,0,4,3,1029,93,1,20141118180000
609,"Gaogang Adminstrative office , Taizhoushi",,32.300768,119.886757,175,97,48,12,14,0,7,2,0,68,3,20141118180000
610,"Students Innovation Park , Taizhoushi",,32.461672,119.892761,179,82,39,11,29,0,7,2,0,68,3,20141118180000
611,Taizhoushi,,32.453555,119.927852,183,97,48,22,35,0,7,2,0,68,3,20141118180000
612,"Yancheng power station , Yancheng",,33.400859,120.123067,151,68,49,28,9,0,,,0,,,20141118180000
613,Yancheng,,33.345939,120.168504,144,52,30,5,3,7,11,10,1016,95,4,20141118180000
614,"Wenfeng Middle School , Yancheng",,33.370531,120.134041,109,54,48,22,30,0,,,0,,,20141118180000
615,"BDA Management Committe, Yancheng",,33.393191,120.22978,82,40,44,23,6,0,,,0,,,20141118180000
616,"City Monitoring Station, Yancheng",,33.390623,120.164423,144,63,44,19,9,0,,,0,,,20141118180000
617,Suqian,,33.960666,118.281004,160,87,24,7,5,7,11,10,0,91,6,20141118180000
618,"Suqian College , Suqian",,33.951472,118.298523,159,91,40,42,23,0,6,-2,0,52,3,20141118180000
619,"Suqian Middle School , Suqian",,33.95784,118.249505,164,114,30,43,11,0,6,-2,0,52,3,20141118180000
620,"Suyu District Environmental Protection Agency , Suqian",,33.94932,118.326569,175,90,44,33,14,0,6,-1,0,55,3,20141118180000
621,"City Monitoring Station, Suqian",,33.956982,118.277022,182,105,21,38,33,0,6,-2,0,52,3,20141118180000
622,Taizhou,,28.653436,121.425185,151,64,38,11,5,5,9,7,0,84,2,20141118180000
623,Donghu Liyuan,,30.572324,114.377844,171,82,7,53,6,10,10,4,1028,66,1,20141118180000
624,Yuehu Lake,,30.554662,114.256937,177,124,3,64,8,13,10,4,1028,66,1,20141118180000
625,Hankou Huaqiao ,,30.61724,114.287652,180,124,8,67,15,17,10,4,1028,66,1,20141118180000
626,Wuchang Ziyang ,,30.530801,114.309438,168,89,13,53,13,11,10,4,1028,66,1,20141118180000
627,Qingshan Ganghua,,30.622435,114.375599,198,109,11,65,21,21,12,3,1028,54,2,20141118180000
628,Dunkou Xinou,,30.480091,114.162176,170,86,5,46,18,11,10,4,1028,66,1,20141118180000
629,Donghu Gaoxin,,30.48095,114.40724,174,142,7,61,7,15,10,4,1028,66,1,20141118180000
630,Wujianshan,,30.63114,114.135907,207,192,4,49,13,21,10,4,1028,66,1,20141118180000
631,Yuanshun Road,,30.297142,113.858587,153,60,27,12,10,6,10,4,1028,66,1,20141118180000
632,Wuhan,,30.590689,114.310838,162,91,10,37,10,12,10,4,1028,66,1,20141118180000
1190,"Silingsan Factory, Yichang",,30.713288,111.306585,173,78,18,33,9,8,10,5,1027,60,2,20141118180000
633,Yichang,,30.689528,111.292131,187,112,29,33,13,13,10,5,1027,60,2,20141118180000
633,Yichang,,30.689528,111.292131,187,112,29,33,13,13,10,5,1027,60,2,20141118180000
1191,"City Library , Jingzhou",,30.31494,112.260844,169,106,43,46,25,15,9,-1,1028,46,1,20141118180000
1192,"City committee communist party school, Jingzhou",,30.35054,112.20743,170,116,38,46,16,10,9,-1,1028,46,1,20141118180000
1193,"kerong EPA, Jingzhou",,30.302965,112.29443,197,126,42,45,10,11,9,-1,1028,46,1,20141118180000
634,Jingzhou,,30.332608,112.245451,197,126,43,46,25,15,9,-1,1028,46,1,20141118180000
634,Jingzhou,,30.332608,112.245451,197,126,43,46,25,15,9,-1,1028,46,1,20141118180000
635,Huangshi,,30.19723,115.043908,161,86,17,21,17,22,7,,1031,100,2,20141118180000
635,Huangshi,,30.19723,115.043908,161,86,17,21,17,22,7,,1031,100,2,20141118180000
1194,"Chenjiaying, Huangshi",,30.232823,115.067923,154,81,12,17,1,11,7,,1031,100,2,20141118180000
1195,"Chenjiawan , Huangshi",,30.200422,115.082138,153,71,27,15,14,21,7,,1031,100,2,20141118180000
1196,"Xinxialu, Huangshi",,30.17332,114.954357,168,103,14,20,17,25,7,,1031,100,2,20141118180000
1197,"Tie montian, Huangshi",,30.203885,114.906439,172,95,8,27,39,-,7,,1031,100,2,20141118180000
1198,"BDA, Huangshi",,30.207491,115.031739,157,78,25,23,13,30,7,,1031,100,2,20141118180000
636,Shiyan,,32.627208,110.803311,176,92,24,20,13,9,2,,960,95,1,20141118180000
636,Shiyan,,32.627208,110.803311,176,92,24,20,13,9,2,,960,95,1,20141118180000
1199,"Wudang Mountain , Shiyan",,32.392921,111.047655,-,-,-,-,-,-,-,,0,-,-,20141118180000
1200,"Riverside Village , Shiyan",,32.647286,110.785335,178,90,25,41,12,5,2,,960,95,1,20141118180000
1201,"Liujiagou , Shiyan",,32.636732,110.731129,178,101,19,12,21,8,2,,960,95,1,20141118180000
637,Xiangyang,,32.007029,112.128496,180,98,13,18,12,11,4,,1029,84,1,20141118180000
638,Ezhou,,30.389244,114.899884,172,99,10,30,17,12,8,,1039,100,1,20141118190000
638,Ezhou,,30.389244,114.899884,172,99,10,30,17,12,8,,1039,100,1,20141118190000
1203,"City government, Ezhou",,30.391836,114.892822,167,84,11,31,18,14,8,,1039,100,1,20141118190000
1204,"Zhaojiaba, Ezhou",,30.368966,114.90365,177,98,10,22,10,11,8,,1039,100,1,20141118190000
1205,"Fankou BDA, Ezhou",,30.410759,114.818225,173,114,10,38,23,11,8,,1038,100,2,20141118190000
639,Jingmen,,31.033208,112.205093,162,91,15,23,10,11,3,,1021,84,1,20141118190000
639,Jingmen,,31.033208,112.205093,162,91,15,23,10,11,3,,1021,84,1,20141118190000
640,Xiaogan,,30.922089,113.922387,167,105,7,24,8,20,12,,1028,54,2,20141118190000
640,Xiaogan,,30.922089,113.922387,167,105,7,24,8,20,12,,1028,54,2,20141118190000
1206,"wenhua street, Shenyang , Xiaogan",,30.925856,113.92104,162,95,10,24,8,27,12,,1028,54,2,20141118190000
1207,"Dongcheng District , Huludao , Xiaogan",,30.917963,113.943904,172,114,5,24,8,14,12,,1028,54,2,20141118190000
641,Huanggang,,30.45124,114.877378,172,108,13,27,12,13,8,,1039,100,2,20141118190000
641,Huanggang,,30.45124,114.877378,172,108,13,27,12,13,8,,1039,100,2,20141118190000
1208,"Dazhou Island, Huanggang",,30.446205,114.900323,178,127,8,34,7,15,8,,1039,100,1,20141118190000
1209,"Workers Center , Huanggang",,30.469244,114.912504,165,90,18,19,17,11,8,,1039,100,1,20141118190000
642,Xianning,,29.838978,114.327898,152,72,16,16,9,20,1,,1001,90,1,20141118190000
642,Xianning,,29.838978,114.327898,152,72,16,16,9,20,1,,1001,90,1,20141118190000
1210,"Municipal Development and Reform Commission , Xianning",,29.818645,114.328461,-,-,-,-,-,-,-,,0,-,-,20141118190000
1211,"Xianan District Governement, Xianning",,29.51107,114.181864,153,75,6,14,5,25,4,,1009,85,1,20141118190000
1212,"Yangtze River Industrial Park , Xianning",,29.883098,114.32909,155,78,24,25,13,24,1,,1001,90,1,20141118190000
1213,"Qianshan Park, Xianning",,29.815351,114.328689,137,64,18,9,10,13,1,,1001,90,1,20141118190000
643,Suizhou,,31.688342,113.388675,172,93,16,19,4,24,2,,1023,84,1,20141118190000
643,Suizhou,,31.688342,113.388675,172,93,16,19,4,24,2,,1023,84,1,20141118190000
1338,"City committee communist party school, Suizhou",,31.725316,113.3648,169,104,12,26,2,17,2,,1023,84,1,20141118190000
1339,"Forestry Bureau, Suizhou",,31.690065,113.383157,-,79,23,2,10,22,2,,1023,84,1,20141118190000
645,Xiantao,,30.360228,113.460616,167,109,7,29,17,15,5,,1038,86,1,20141118190000
645,Xiantao,,30.360228,113.460616,167,109,7,29,17,15,5,,1038,86,1,20141118190000
1088,Shennongjia,,31.741307,110.685554,134,55,28,6,2,6,-0,,,88,1,20141118190000
1088,Shennongjia,,31.741307,110.685554,134,55,28,6,2,6,-0,,,88,1,20141118190000
1214,"Xiangcheng Yundong Street, Xiangfan",,32.017716,112.16102,183,100,9,15,10,12,4,,1029,84,1,20141118190000
1359,"Fancheng Xinhua Road , Xiangfan",,32.0544,112.145224,178,97,17,21,14,10,4,,1029,84,1,20141118190000
655,"City Environmental Monitoring Station, Baotou",,40.657201,109.886738,273,197,26,40,54,25,,,0,,,20141118190000
656,"Donghe EPB, Baotou",,40.586213,110.002224,175,276,27,37,48,25,,,0,,,20141118190000
657,"Baotou shopping mall, Baotou",,40.508334,109.819085,204,125,18,41,52,31,,,0,,,20141118190000
658,"Huilong logistics, Baotou",,40.633436,109.879821,209,167,31,48,50,28,,,0,,,20141118190000
659,Baotou,,40.658597,109.846051,273,276,33,48,54,31,,,0,,,20141118190000
660,"Huatai Automobile Mall, Eerduosi",,39.837048,109.972209,117,63,40,28,6,7,1,-8,1026,35,2,20141118190000
661,"Olympus Garden, Eerduosi",,39.789171,109.987742,149,91,31,22,16,12,1,-8,1026,35,2,20141118190000
662,Eerduosi,,39.609284,109.78704,149,91,40,28,16,12,1,-8,1026,35,2,20141118190000
663,"Tianyi Road, Chifeng",,42.275552,118.88507,93,52,23,18,61,7,-1,-11,1026,34,1,20141118190000
664,"Songshan No.1 Middle School, Chifeng",,42.329307,118.793045,191,159,17,16,43,21,-1,-11,1026,34,1,20141118190000
665,"Hada Street, Chifeng",,42.280714,118.988235,157,82,10,16,57,16,-1,-11,1026,34,1,20141118190000
666,"Songshan Road, Chifeng",,42.171487,118.89501,183,124,36,13,30,13,-1,-11,1026,34,1,20141118190000
667,Chifeng,,42.259752,118.893027,191,159,36,18,61,21,-1,-11,1026,34,1,20141118190000
674,Fuzhou,,26.071406,119.301294,102,52,40,10,3,6,16,10,1024,68,7,20141118190000
675,"Xidong, Xiamen",,24.815345,118.161848,68,28,34,1,2,5,18,9,1023,56,6,20141118190000
676,"Hongwen, Xiamen",,24.473969,118.156281,91,32,37,6,1,6,18,9,1023,56,6,20141118190000
677,"Gulangyu, Xiamen",,24.443168,118.068571,87,35,41,2,2,4,18,9,1023,56,6,20141118190000
678,"Huli, Xiamen",,24.51235,118.099146,82,36,47,3,2,4,18,9,1023,56,6,20141118190000
679,Xiamen,,24.477187,118.094402,82,36,47,3,2,4,-,-,0,-,-,20141118190000
680,"Qingyuan Montain, Quanzhou",,24.939503,118.598337,70,24,30,1,2,5,18,9,1023,56,6,20141118190000
681,"Tushan Street, Quanzhou",,24.90867,118.586397,74,30,45,5,1,3,18,9,1023,56,6,20141118190000
682,"Wanan, Quanzhou",,24.304154,118.070903,68,30,31,7,3,4,18,9,1023,56,6,20141118190000
683,Quanzhou,,24.87179,118.68001,74,31,45,7,4,6,18,9,1023,56,6,20141118190000
687,"Jiancaoping, Taiyuan",,37.887889,112.528383,189,138,6,27,59,30,0,-8,1024,55,0,20141118190000
688,"Jianhe, Taiyuan",,37.910779,112.579258,234,591,7,5,61,28,0,-8,1024,55,0,20141118190000
689,"Shanglan, Taiyuan",,38.011589,112.440679,188,113,8,44,61,19,0,-8,1024,55,0,20141118190000
690,"Jinyuan, Taiyuan",,37.713164,112.475552,217,145,26,23,68,18,0,-8,1024,55,0,20141118190000
691,"Xiaodian, Taiyuan",,37.782137,112.483533,209,153,15,24,90,31,0,-8,1024,55,0,20141118190000
692,"Taoyuan, Taiyuan",,37.869752,112.543332,188,131,5,42,62,36,0,-8,1024,55,0,20141118190000
693,"Wucheng, Taiyuan",,37.819998,112.576252,264,292,8,20,130,26,0,-8,1024,55,0,20141118190000
694,"Nanzhai, Taiyuan",,37.985902,112.555312,183,116,7,20,53,11,0,-8,1024,55,0,20141118190000
695,"Jinsheng, Taiyuan",,37.781205,112.494494,176,105,12,19,73,22,0,-8,1024,55,0,20141118190000
696,Taiyuan,,37.871115,112.555178,188,131,5,42,62,36,-,-,0,-,-,20141118190000
697,"Monitoring station, Changzhi",,36.194062,113.10389,179,107,28,16,37,23,,,0,,,20141118190000
698,"Auditing bureau, Changzhi",,36.212787,113.095221,187,104,38,36,9,24,,,0,,,20141118190000
699,"Qinghua station, Changzhi",,36.154328,113.116385,181,104,22,12,20,30,,,0,,,20141118190000
700,"No.8 middle school, Changzhi",,36.185451,113.099481,185,113,28,20,41,23,,,0,,,20141118190000
701,Changzhi,,36.195553,113.12292,187,114,38,36,42,24,,,0,,,20141118190000
702,"Yungang Hotel, Datong",,40.076997,113.278079,151,82,27,20,72,21,-1,-13,1033,37,3,20141118190000
703,"college of education, Datong",,40.085608,113.27808,188,60,28,12,64,24,-1,-13,1033,37,3,20141118190000
704,Datong,,40.078016,113.307143,188,108,5,22,72,21,-1,-13,1033,37,3,20141118190000
705,"Technical Schools, Linfen",,36.07131,111.509046,414,455,17,57,152,24,3,-8,0,43,2,20141118190000
706,"Municipal party committee, Linfen",,36.087425,111.508771,398,429,19,85,95,27,3,-8,0,43,2,20141118190000
1073,"City Monitoring Station, Linfen",,36.097676,111.518739,383,222,17,49,135,37,3,-8,0,43,2,20141118190000
707,"South Airport, Linfen",,36.041614,111.497968,208,95,39,76,90,31,3,-8,0,43,2,20141118190000
708,Linfen,,36.087944,111.525098,414,455,41,89,169,41,3,-8,0,43,2,20141118190000
709,"City center, Yangquan",,37.848012,113.578636,129,94,25,24,59,21,0,-8,1024,55,0,20141118190000
710,Yangquan,,37.857475,113.586921,243,576,19,116,123,19,1,-8,1025,52,1,20141118190000
711,"Water Company, Jincheng",,35.504787,112.857245,175,87,8,43,54,16,8,-1,1030,40,1,20141118190000
712,"Baiyun shopping mall, Jincheng",,35.492858,112.841566,172,99,7,40,47,16,8,-1,1030,40,1,20141118190000
713,"City EPA, Jincheng",,35.488422,112.858528,167,113,10,50,62,20,8,-1,1030,40,1,20141118190000
714,"Institute of Technology, Jincheng",,35.484844,112.878073,171,132,11,25,27,14,8,-1,1030,40,1,20141118190000
715,"No.1 middle school, Jincheng",,35.478725,112.838636,163,90,4,22,35,15,8,-1,1030,40,1,20141118190000
716,Jincheng,,35.490287,112.85794,175,132,11,50,62,20,8,-1,1030,40,1,20141118190000
718,"District Government, Shuozhou",,39.320857,112.430641,160,122,9,30,69,15,0,-10,1027,34,0,20141118190000
719,"City EPA, Shuozhou",,39.331495,112.407997,,101,,26,58,,1,-11,1032,26,1,20141118190000
720,"No.2 middle school, Shuozhou",,39.377963,112.432877,183,120,11,89,78,27,1,-11,1032,26,1,20141118190000
721,Shuozhou,,39.332756,112.439672,183,120,11,89,78,27,1,-11,1032,26,1,20141118190000
722,"Jinlun compound, Jinzhong",,37.697891,112.771017,139,66,6,18,57,16,0,-6,1024,64,1,20141118190000
723,"Hydraulic Component Factory, Jinzhong",,37.688355,112.725844,154,74,2,33,64,22,0,-6,1024,64,1,20141118190000
724,"Nandu compound, Jinzhong",,37.713148,112.732036,149,85,3,9,8,21,0,-6,1024,64,1,20141118190000
725,"Yuci district government, Jinzhong",,37.698228,112.714167,158,73,3,12,57,63,0,-6,1024,64,1,20141118190000
726,Jinzhong,,37.687705,112.759187,158,85,6,33,64,63,0,-6,1024,64,1,20141118190000
727,"Yuncheng Middle School, Yuncheng",,35.012345,111.003215,199,164,16,39,67,22,10,1,1028,40,3,20141118190000
728,"Yudou BDA, Yuncheng",,35.05065,111.029571,220,148,25,30,51,27,10,1,1028,40,3,20141118190000
730,"Regional Technical School, Yuncheng",,35.028727,110.974076,271,157,10,22,58,18,10,1,1028,40,3,20141118190000
731,"Airport new district, Yuncheng",,35.084515,111.05339,197,147,40,25,53,23,10,1,1028,40,3,20141118190000
732,Yuncheng,,35.025675,111.013344,271,164,40,39,67,27,-,-,0,-,-,20141118190000
733,"Jiyin, Xinzhou",,38.413292,112.742432,183,279,10,33,53,25,0,-8,1024,55,0,20141118190000
734,"BDA, Xinzhou",,38.450069,112.736723,195,96,2,11,51,26,0,-8,1024,55,0,20141118190000
735,"Convention Center, Xinzhou",,38.492043,112.709772,230,128,8,24,48,31,0,-8,1024,55,0,20141118190000
736,Xinzhou,,38.417244,112.740742,230,279,8,33,53,31,1,-8,1025,52,1,20141118190000
737,"City EPA, Luliang",,37.522189,111.144365,181,104,7,1,56,22,11,9,0,81,3,20141118190000
738,"Soybean factory, Luliang",,37.51689,111.135101,219,103,1,25,71,31,11,9,0,81,3,20141118190000
739,"Water Company, Luliang",,37.53394,111.138834,218,230,10,16,58,38,11,9,0,81,3,20141118190000
740,Luliang,,25.027007,103.668566,219,230,1,25,71,38,11,9,0,81,3,20141118190000
741,"City government, Sanmenxia",,34.776251,111.198781,166,127,12,22,19,14,7,1,1027,56,1,20141118190000
743,"BDA, Sanmenxia",,34.800434,111.204332,232,133,34,35,56,13,7,1,1027,56,1,20141118190000
744,Sanmenxia,,34.771506,111.206129,236,151,35,35,57,29,7,1,1027,56,1,20141118190000
745,"Food Factory, Changchun",,43.919094,125.329521,301,189,41,42,57,7,-7,-12,1027,68,3,20141118190000
746,"Bus Factory, Changchun",,43.912337,125.293431,266,160,29,55,46,14,-7,-12,1027,68,3,20141118190000
747,"Institute of Posts and Telecommunications, Changchun",,43.842368,125.285005,262,193,50,46,45,9,-7,-12,1027,68,3,20141118190000
748,"Laodong Park, Changchun",,43.877293,125.371519,240,161,21,35,25,11,-7,-12,1027,68,3,20141118190000
749,"Forest area, Changchun",,43.871825,125.331519,292,183,25,39,43,10,-7,-12,1027,68,3,20141118190000
750,"Jinyuetan, Changchun",,43.79031,125.460561,202,123,99,20,10,5,-7,-12,1027,68,3,20141118190000
751,"Shuaiwanzi, Changchun",,43.552321,125.639086,175,92,32,14,4,7,-7,-12,1027,68,3,20141118190000
752,"Economic Development Zone Sanitation Department, Changchun",,43.869221,125.42365,258,190,30,33,29,8,-7,-12,1027,68,3,20141118190000
753,"High-tech Zone Administrative Committee, Changchun",,43.819064,125.256375,258,200,47,26,8,8,-7,-12,1027,68,3,20141118190000
754,"Daishan Park, Changchun",,43.852365,125.223399,227,193,32,38,34,8,-7,-12,1027,68,3,20141118190000
755,Changchun,,43.819415,125.329977,262,193,50,46,45,9,-,-,0,-,-,20141118190000
756,"Hadawan, Jilin",,43.888081,126.545727,224,151,24,29,22,13,-5,-13,0,56,3,20141118190000
757,"Fengman, Jilin",,43.768169,126.678802,180,96,40,11,7,4,-5,-13,0,56,3,20141118190000
758,"Electric Power College, Jilin",,43.827403,126.502281,188,106,39,23,14,7,-5,-13,0,56,3,20141118190000
759,"Jiangnan Park, Jilin",,43.83531,126.556519,197,127,18,29,22,9,-5,-13,0,56,3,20141118190000
760,"Dongjuzi, Jilin",,43.838597,126.590068,183,104,33,19,11,8,-5,-13,0,56,3,20141118190000
763,Jilin,,43.840137,126.555262,239,168,40,32,22,13,-5,-13,0,56,3,20141118190000
764,"Lingbei, Haerbin",,45.756979,126.548008,185,105,29,36,29,15,-6,-12,1025,63,4,20141118190000
765,"Songbei Commercial University, Haerbin",,45.818624,126.566963,184,102,30,22,27,14,-6,-12,1025,63,4,20141118190000
766,"Acheng huining, Haerbin",,45.544286,126.985183,174,89,23,8,,11,-6,-12,1025,63,4,20141118190000
767,"Nangang College Street, Haerbin",,45.724121,126.604906,238,175,32,28,22,20,-6,-12,1025,63,4,20141118190000
768,"Taiping Hongwei Park, Haerbin",,45.775332,126.695101,352,175,26,36,42,15,-6,-12,1025,63,4,20141118190000
769,"Daowai Chengde Square, Haerbin",,45.768637,126.640955,190,130,28,37,57,12,-6,-12,1025,63,4,20141118190000
770,"Xiangfang Hongqi Street, Haerbin",,45.733936,126.691083,210,125,28,29,51,14,-6,-12,1025,63,4,20141118190000
771,"Dongli Heping Road, Haerbin",,45.727765,126.651974,193,126,24,38,34,8,-6,-12,1025,63,4,20141118190000
772,"Daoli Jianguo Road, Haerbin",,45.749715,126.59891,188,115,28,50,59,16,-6,-12,1025,63,4,20141118190000
773,"Pingfang Light Factory, Haerbin",,45.611951,126.620898,215,132,26,24,18,5,-6,-12,1025,63,4,20141118190000
774,"Hulan Normal College, Haerbin",,45.983745,126.616553,177,103,20,31,17,11,-6,-12,1025,63,4,20141118190000
775,"Provincial Academy of Agricultural Sciences, Haerbin",,45.686141,126.626517,-,-,-,-,-,-,-,-,0,-,-,20141118190000
776,Haerbin,,45.805757,126.541007,184,102,30,22,27,14,-,-,0,-,-,20141118190000
777,"Anju Compound, Qiqihaer",,47.365672,123.937016,167,91,30,21,38,21,-7,-11,1023,59,2,20141118190000
778,"Farming Vehicule Factory, Qiqihaer",,47.326793,123.961427,155,73,21,25,7,26,-7,-11,1023,59,2,20141118190000
779,"Fuqu EPA, Qiqihaer",,47.1853,123.62322,193,115,29,,32,27,-7,-11,1023,59,2,20141118190000
780,"City Center Square, Qiqihaer",,47.343096,123.96192,172,76,17,12,29,20,-7,-11,1023,59,2,20141118190000
1217,"City Environmental Monitoring Station, Qiqihaer",,47.303639,123.957551,201,105,20,13,37,26,-7,-11,1023,59,2,20141118190000
781,Qiqihaer,,47.356387,123.924736,201,115,30,25,38,27,-7,-11,1023,59,2,20141118190000
782,"Saertu District, Daqing",,46.582368,125.152904,107,50,25,5,12,7,-5,-12,1026,42,1,20141118190000
783,"Datong District, Daqing",,46.036786,124.842115,57,30,30,5,19,9,-5,-12,1026,42,1,20141118190000
784,"Honggang District, Daqing",,46.418381,124.88973,76,36,25,16,7,6,-5,-12,1026,42,1,20141118190000
785,"Longfeng District, Daqing",,46.535426,125.107043,95,37,25,17,11,10,-5,-12,1026,42,1,20141118190000
786,"Ranghulu District, Daqing",,46.635123,124.85648,70,32,25,16,9,5,-5,-12,1026,42,1,20141118190000
787,Daqing,,46.591414,125.110838,107,50,30,17,19,10,-5,-12,1026,42,1,20141118190000
788,"Locomotive Factory, Mudanjiang",,44.610589,129.652672,162,80,30,13,6,20,-6,-12,1028,53,2,20141118190000
789,"No. 1 hospital, Mudanjiang",,44.567775,129.617043,162,64,29,18,8,18,-6,-12,1028,53,2,20141118190000
1220,"EPA building, Mudanjiang",,44.567777,129.620658,177,112,10,9,9,10,-6,-12,1028,53,2,20141118190000
1221,"Cultural Square, Mudanjiang",,44.586388,129.623164,162,78,4,22,16,11,-6,-12,1028,53,2,20141118190000
790,Mudanjiang,,44.553619,129.640246,177,80,37,22,16,20,-6,-12,1028,53,2,20141118190000
791,"Mingzhu Plaza, Hefei",,31.782847,117.201512,165,111,33,45,19,17,6,1,1028,70,2,20141118190000
792,"Sanli Street, Hefei",,31.874637,117.312573,168,69,37,35,11,14,6,1,1028,70,2,20141118190000
793,"Hupo Compound, Hefei",,31.868583,117.264491,169,113,31,15,13,17,6,1,1028,70,2,20141118190000
794,"Dongpu Reservoir, Hefei",,31.90319,117.165584,165,84,37,15,10,5,6,1,1028,70,2,20141118190000
795,"Changjiang middle road, Hefei",,31.855185,117.255484,164,99,13,21,11,14,6,1,1028,70,2,20141118190000
796,"Luyang District, Hefei",,31.941771,117.271504,164,86,7,1,15,8,6,1,1028,70,2,20141118190000
797,"Yaohai District, Hefei",,31.856595,117.341644,173,112,35,28,14,15,6,1,1028,70,2,20141118190000
798,"Baohe District, Hefei",,31.793644,117.307554,163,95,4,21,13,9,6,1,1028,70,2,20141118190000
799,"Lake district, Hefei",,31.736619,117.283501,163,99,18,24,6,10,6,1,1028,70,2,20141118190000
800,"High-tech zone, Hefei",,31.849755,117.129624,167,106,12,20,9,11,6,1,1028,70,2,20141118190000
801,Hefei,,31.819449,117.232753,164,99,13,21,11,14,-,-,0,-,-,20141118190000
802,"Hudong Road No.4 Elementary School, Maanshan",,31.684121,118.511017,149,60,23,42,13,9,4,3,1029,93,1,20141118190000
803,"Tianping Garment Factory, Maanshan",,31.64197,118.488043,93,71,36,34,14,16,4,3,1029,93,1,20141118190000
804,"City education base, Maanshan",,31.711216,118.648913,134,50,6,6,13,5,4,3,1029,93,1,20141118190000
805,"Cihu No.2 elementary school, Maanshan",,31.748546,118.515729,157,73,22,30,23,19,4,3,1029,93,1,20141118190000
806,"Maanshan steel factory power plant, Maanshan",,31.690864,118.48528,127,67,20,9,2,9,4,3,1029,93,1,20141118190000
807,Maanshan,,31.668461,118.511939,157,73,36,42,23,19,4,3,1029,93,1,20141118190000
808,"Science Innovation Center, Wuhu",,31.417056,118.375406,166,61,14,17,5,16,4,3,1029,93,1,20141118190000
809,"No.4 Water Plant, Wuhu",,31.315914,118.376231,157,63,28,25,9,16,4,3,1029,93,1,20141118190000
810,"Monitoring station, Wuhu",,31.348955,118.358154,154,56,24,21,3,17,4,3,1029,93,1,20141118190000
811,"Wuqierling Factory, Wuhu",,31.382068,118.407639,162,65,27,13,7,11,4,3,1029,93,1,20141118190000
812,Wuhu,,31.351007,118.438322,166,65,28,25,9,17,4,3,1029,93,1,20141118190000
1331,Chuzhou,,32.299549,118.322508,157,69,30,28,19,10,3,,1015,93,1,20141118190000
813,"Jiangxi Foreign Affairs Office, Nanchang",,28.678027,115.903436,127,63,19,24,14,12,12,2,1027,38,1,20141118190000
814,"Provincial forestry company, Nanchang",,28.69065,115.898546,152,69,18,3,10,8,13,3,1027,38,1,20141118190000
815,"Institute of Forestry, Nanchang",,28.731518,115.82478,129,59,29,7,1,7,13,3,1027,38,1,20141118190000
816,"Jingdong town government, Nanchang",,28.680659,115.972736,144,55,26,1,1,6,13,3,1027,38,1,20141118190000
817,"Contruction Industry College, Nanchang",,28.684018,115.865891,154,69,23,19,20,9,13,3,1027,38,1,20141118190000
818,"Xianghu, Nanchang",,28.637831,115.9033,153,71,34,21,13,11,12,2,1027,38,1,20141118190000
819,"Martial Arts School, Nanchang",,28.794538,115.752876,102,51,24,17,8,5,12,2,1027,38,1,20141118190000
820,"Petrifaction Company, Nanchang",,28.608634,115.912999,158,67,25,19,17,8,12,2,1027,38,1,20141118190000
821,"Provincial Station, Nanchang",,28.677155,115.941896,147,72,25,9,2,7,13,3,1027,38,1,20141118190000
822,Nanchang,,28.679883,115.863022,158,70,31,24,20,12,12,2,1027,38,1,20141118190000
876,"Wujialing, Changsha",,28.256286,112.98457,171,72,30,33,9,15,10,6,1026,76,3,20141118190000
823,"Lushan Mountain Observatory, Jiujiang",,29.5751,115.998926,70,46,45,12,6,6,6,-2,1028,47,0,20141118190000
824,"Shili, Jiujiang",,29.668119,115.992381,132,54,33,21,17,12,6,-2,1028,47,0,20141118190000
825,"Maoshantou, Jiujiang",,29.700819,115.967192,102,54,19,24,17,7,6,-2,1028,47,0,20141118190000
826,"Xiyuan, Jiujiang",,29.723929,115.998206,99,46,26,19,11,8,6,-2,1028,47,0,20141118190000
827,"Wuqierling Factory, Jiujiang",,29.640802,116.022713,117,58,40,19,36,5,6,-2,1028,47,0,20141118190000
828,"Water Scientific Research Institute, Jiujiang",,29.679179,116.068081,102,54,28,14,13,5,6,-2,1028,47,0,20141118190000
829,"Zonghe Industrial Park, Jiujiang",,29.592047,115.916335,109,57,35,34,21,6,6,-2,1028,47,0,20141118190000
830,"Petrochemical General Plant, Jiujiang",,29.738832,116.09463,107,48,28,17,12,11,6,-2,1028,47,0,20141118190000
831,Jiujiang,,29.70254,116.007025,132,58,45,34,36,12,6,-2,1028,47,0,20141118190000
1332,"Feiyu, Xinyu",,27.844697,115.000136,151,75,17,19,17,,9,,1026,72,3,20141118190000
1333,"Beigang, Xinyu",,27.932491,115.103767,147,81,20,11,14,,9,,1026,72,3,20141118190000
1334,"No.2 water factory, Xinyu",,27.839577,114.933915,157,88,7,27,21,,9,,1026,72,3,20141118190000
1335,"Bureau of Meteorology, Xinyu",,27.81048,114.936507,155,99,9,23,26,,9,,1026,72,3,20141118190000
1336,Xinyu,,27.814351,114.922194,157,88,20,27,21,,9,,1026,72,3,20141118190000
832,"Tobacco Factory, Zhengzhou",,34.753419,113.687131,183,130,29,46,30,20,8,-2,1027,50,1,20141118190000
833,"Textile Machinery Factory, Zhengzhou",,34.773366,113.647067,169,109,12,31,30,26,8,-2,1027,50,1,20141118190000
834,"Banking College, Zhengzhou",,34.800856,113.681126,166,111,22,31,9,20,8,-2,1027,50,1,20141118190000
835,"Water Supply Company, Zhengzhou",,34.807188,113.571089,189,115,28,42,48,23,8,-2,1027,50,1,20141118190000
836,"Economic Development Zone Management Committee, Zhengzhou",,34.717652,113.733182,222,160,32,30,19,18,8,-2,1027,50,1,20141118190000
837,"No. 47 middle school, Zhengzhou",,34.772211,113.74009,193,123,31,47,30,21,8,-2,1027,50,1,20141118190000
838,"City Monitoring Station, Zhengzhou",,34.748404,113.60514,179,110,21,40,23,22,8,-2,1027,50,1,20141118190000
839,"Henan Medical University, Zhengzhou",,34.752637,113.641658,174,114,19,34,13,18,8,-2,1027,50,1,20141118190000
840,"Gangli Reservoir, Zhengzhou",,34.952652,113.64248,180,99,9,24,15,23,8,-2,1027,50,1,20141118190000
841,Zhengzhou,,34.745417,113.631415,174,114,19,34,13,18,-,-,0,-,-,20141118190000
842,"Henan University No.1 Hospital, Kaifeng",,34.799302,114.352706,175,96,17,15,12,11,8,-2,1027,50,1,20141118190000
843,"Maternity And Child Hospital, Kaifeng",,34.795803,114.386103,180,118,28,38,85,16,8,-2,1027,50,1,20141118190000
844,"Cancer Hospital, Kaifeng",,34.775428,114.350292,191,97,18,30,18,14,8,-2,1027,50,1,20141118190000
845,"Yellow River Conservancy Institute, Kaifeng",,34.826066,114.324772,163,83,24,25,19,5,8,-2,1027,50,1,20141118190000
846,"Shijixing Kindergarden, Kaifeng",,34.793606,114.302744,159,81,18,21,20,4,8,-2,1027,50,1,20141118190000
847,Kaifeng,,34.796346,114.313426,175,96,17,15,12,11,8,-2,1027,50,1,20141118190000
852,Jiaozuo,,35.215381,113.248188,257,185,95,69,57,22,8,-2,1027,50,1,20141118190000
853,"Cotton Research Institute, Anyang",,36.081435,114.486451,171,84,15,1,19,11,9,-2,1028,33,1,20141118190000
854,"Hongmiao Street, Anyang",,36.086733,114.326,13,6,,,,,7,1,1026,58,1,20141118190000
855,"Yinxing Compound, Anyang",,36.056519,114.36495,169,97,7,23,14,14,9,-2,1028,33,1,20141118190000
856,"Tiefo Temple, Anyang",,36.110041,114.309309,199,117,6,24,25,14,9,-2,1028,33,1,20141118190000
1360,"Environment protection office, Anyang",,36.088472,114.399189,199,101,15,28,21,14,7,1,1026,58,1,20141118190000
857,Anyang,,36.097767,114.398846,199,117,15,28,25,14,9,-2,1028,33,1,20141118190000
858,"City Monitoring Station, Luoyang",,34.669055,112.439633,193,117,6,20,33,17,10,,1032,56,1,20141118190000
