locationid,stationname,chinesename,latitude,longitude,pm25,pm10,o3,no2,so2,co,temperature,dewpoint,pressure,humidity,wind,est_time
1,Dongcheng Dongsi,,39.9304,116.423239,187,129,67,25,4,14,23,19,1009,78,4,20140907170000
2,"Temple of Heaven, Dongcheng",,39.887403,116.41324,181,103,47,26,4,12,23,19,1009,78,4,20140907170000
3,West Park officials,,39.930333,116.345162,159,101,54,23,3,13,23,19,1009,78,4,20140907170000
4,West Wanshou Nishinomiya,,39.879354,116.358183,175,109,49,22,3,15,23,19,1009,78,4,20140907170000
5,Chaoyang Olympic Sports Center,,39.983406,116.403253,173,128,46,19,2,11,23,19,1009,78,4,20140907170000
6,Chaoyang Agricultural Exhibition Hall,,39.938331,116.46715,190,116,66,40,4,14,23,19,1009,78,4,20140907170000
7,Haidian Wanliu,,39.988245,116.293062,151,110,41,18,5,11,23,19,1009,78,4,20140907170000
8,The Haidian northern New Area,,40.091313,116.180194,178,-,30,33,3,10,23,19,1009,78,4,20140907170000
9,Haidian Beijing Botanical Garden,,40.003252,116.213097,166,-,108,6,5,10,23,19,1009,78,4,20140907170000
10,Fengtai garden,,39.86423,116.285037,143,109,49,19,3,13,23,19,1009,78,4,20140907170000
11,Fengtai Yungang,,39.82535,116.152237,192,107,50,21,2,14,23,19,1009,78,4,20140907170000
12,Shijingshan city,,39.915286,116.190144,162,132,58,13,4,13,23,19,1009,78,4,20140907170000
13,"Fangshan, Liangxiang",,39.743357,116.14225,203,118,42,33,2,15,23,19,1009,78,4,20140907170000
14,"Huangcunzhen, Daxing",,39.719389,116.410219,184,104,49,41,6,12,23,19,1009,78,4,20140907170000
15,BDA,,39.796197,116.51197,210,-,45,59,3,13,23,19,1009,78,4,20140907170000
16,Tongzhou New Town,,39.887113,116.6689,206,136,35,37,3,1,23,19,1009,78,4,20140907170000
17,Shunyi New Town ,,40.128111,116.660908,182,107,57,11,2,10,23,19,1009,78,4,20140907170000
18,Changping Town,,40.218245,116.236084,28,78,72,3,2,8,23,19,1009,78,4,20140907170000
19,"Mentougou, Longquan Town",,39.938397,116.112323,175,89,54,11,2,13,23,19,1009,78,4,20140907170000
20,Pinggu town,,40.144433,117.106563,189,-,58,12,2,10,23,19,1009,78,4,20140907170000
21,Huairou town,,40.329104,116.63387,152,127,63,4,2,9,23,19,1009,78,4,20140907170000
22,The town of Miyun,,40.371186,116.838053,181,111,41,23,2,9,23,19,1009,78,4,20140907170000
23,Yanqing town,,40.454217,115.978106,14,-,42,3,2,6,23,19,1009,78,4,20140907170000
24,Changping Dingling,,40.293269,116.226108,21,63,74,3,2,6,23,19,1009,78,4,20140907170000
25,Badaling Northwest,,40.36623,115.994146,45,-,59,30,3,8,23,19,1009,78,4,20140907170000
26,Miyun Reservoir,,40.500157,116.91701,200,-,103,1,2,10,23,19,1009,78,4,20140907170000
27,"Donggaocun Zhen, Pinggu",,40.10142,117.126556,175,102,102,10,2,6,23,19,1009,78,4,20140907170000
28,"Yongledianzhen, Tongzhou",,39.713192,116.78905,178,-,21,26,5,8,23,19,1009,78,4,20140907170000
29,"Yufazhen, Daxing",,39.521203,116.306026,188,-,23,15,2,11,23,19,1009,78,4,20140907170000
30,"Liulihezhen, Fangshan",,39.581169,116.006089,194,127,35,32,2,11,23,19,1009,78,4,20140907170000
31,"Qianmen E St, Dongcheng",,39.900402,116.401242,192,-,38,22,4,14,23,19,1009,78,4,20140907170000
32,Yongdingmen Inner St,,39.877401,116.400238,188,-,40,41,7,14,23,19,1009,78,4,20140907170000
33,Xizhimen N St,,39.955352,116.355187,162,128,35,28,8,16,23,19,1009,78,4,20140907170000
34,South Ring Road,,39.857377,116.37421,181,-,25,45,6,13,23,19,1009,78,4,20140907170000
35,East Fourth Ring Road,,39.940273,116.489075,200,131,34,60,3,13,23,19,1009,78,4,20140907170000
36,Beijing,,39.955906,116.474246,190,129,67,40,4,14,23,19,1009,78,4,20140907170000
37,Putuo,,31.232979,121.415378,83,43,36,12,5,4,25,21,1009,78,3,20140907170000
38,Yangpu Sipiao,,31.263795,121.540311,89,33,44,13,7,5,25,21,1009,78,3,20140907170000
39,Shanghai Normal College Primary Division,,31.199031,121.487719,113,47,37,18,6,8,25,21,1009,78,3,20140907170000
40,Dianshan Lake,,31.091338,120.982293,122,43,45,9,4,7,25,21,1009,78,3,20140907170000
41,Hongkou Liangcheng,,31.298906,121.47155,70,29,39,10,7,5,25,21,1009,78,3,20140907170000
42,Jingan,,31.224251,121.429637,85,37,36,11,6,8,25,21,1009,78,3,20140907170000
43,Shanghai Normal University,,31.163531,121.416643,98,38,39,22,9,7,25,21,1009,78,3,20140907170000
44,Chuansha,,31.188626,121.707342,87,55,36,15,6,5,25,21,1009,78,3,20140907170000
45,Zhangjiang,,31.204896,121.581215,72,46,44,15,5,5,25,21,1009,78,3,20140907170000
46,Lingshan Road,,31.226286,121.537317,89,38,44,13,4,5,25,21,1009,78,3,20140907170000
1080,City average,,31.228451,121.478227,87,41,39,14,6,5,25,21,1009,78,3,20140907170000
47,Shanghai,,31.202842,121.453493,74,39,42,16,5,8,25,21,1009,78,3,20140907170000
48,Guangzhou,,23.138517,113.263701,70,25,16,17,10,10,29,25,1008,79,2,20140907170000
49,"Huadu town, Guangzhou",,23.389121,113.220062,70,39,20,10,7,6,29,25,1008,79,2,20140907170000
50,"Luogang Zhenlong, Guangzhou",,23.308027,113.567032,99,52,16,17,5,7,29,25,1008,79,2,20140907170000
51,"LuHu, Guangzhou",,23.151743,113.281842,70,25,15,17,5,4,29,25,1008,79,2,20140907170000
52,"Tianhu, Guangzhou",,23.647433,113.629715,46,16,36,2,5,5,29,25,1008,79,2,20140907170000
53,"Zhudong, Guangzhou",,23.418406,113.078552,61,25,31,9,4,6,29,25,1008,79,2,20140907170000
54,"Modiesha station, Guangzhou",,23.103814,113.338238,61,52,12,18,11,6,29,25,1008,79,2,20140907170000
55,Zhuhai,,22.2677,113.581765,50,24,19,13,4,7,29,26,1007,84,7,20140907170000
1075,"Huicai technical school, Foshan",,23.039667,113.105492,59,29,16,14,12,5,29,25,1008,79,2,20140907170000
56,"Sanshuiyun donghai, Foshan",,23.185788,112.865368,76,29,20,14,10,8,29,25,1008,79,2,20140907170000
57,"Nanhai Bureau of Meteorology, Foshan",,23.046836,113.145764,63,30,18,13,10,9,29,25,1008,79,2,20140907170000
58,"Sanshui Monitoring Station, Foshan",,23.163551,112.890843,72,20,37,15,11,9,29,25,1008,79,2,20140907170000
1087,Foshan,,23.018995,113.126899,63,30,18,14,12,9,29,25,1008,79,2,20140907170000
59,"Ronggui street committee, Shunde",,22.762729,113.258356,46,15,15,22,8,8,29,25,1008,79,2,20140907170000
60,Shunde,,22.80246,113.298701,46,15,15,22,10,8,-,-,0,-,-,20140907170000
61,"Donghu, Jiangmen",,22.590411,113.087351,38,14,4,14,8,4,29,26,1007,84,7,20140907170000
62,"Taoyuan Atmosphere Premier Station, Jiangmen",,22.72489,112.93404,46,49,16,12,7,5,29,26,1007,84,7,20140907170000
63,Jiangmen,,22.576047,113.087351,68,20,12,14,32,11,29,26,1007,84,7,20140907170000
64,"Kengkouzi station, Zhaoqing",,23.158865,112.570287,89,48,37,18,7,7,29,25,1008,79,2,20140907170000
65,"Mugangzi station, Zhaoqing",,23.067961,112.431934,122,54,43,26,6,10,29,25,1008,79,3,20140907170000
66,"Qixingyanzi station, Zhaoqing",,23.075974,112.477437,-,-,-,-,-,-,-,-,0,-,-,20140907170000
67,Zhaoqing,,23.044571,112.470346,117,54,37,26,11,10,-,-,0,-,-,20140907170000
68,"Jinguo Bay, Huizhou",,22.937223,114.385567,53,16,16,4,3,9,29,25,1008,79,4,20140907170000
1091,"Xiabu, Huizhou",,23.077493,114.410275,65,32,6,12,4,6,29,25,1008,79,4,20140907170000
69,"Xijiao, Huizhou",,23.338178,114.112867,-,-,-,-,-,-,-,-,0,-,-,20140907170000
70,"Jiangbei, Huizhou",,23.111706,114.415274,53,25,11,12,5,3,29,25,1008,79,4,20140907170000
71,"Huiyang chuanhu, Huizhou",,22.814485,114.329292,34,16,8,3,4,5,29,25,1008,79,4,20140907170000
72,"Daya bay management committee, Huizhou",,22.739283,114.53631,30,8,8,4,6,1,29,25,1008,79,4,20140907170000
73,Huizhou,,23.109349,114.421164,70,51,11,12,5,7,29,25,1008,79,4,20140907170000
74,"Guancheng No.2 water plant, Dongguan",,23.057294,113.753254,70,35,12,11,9,9,29,25,1008,79,4,20140907170000
75,"Dongcheng Shijing, Dongguan",,23.010039,113.799529,61,22,10,11,6,8,29,25,1008,79,4,20140907170000
76,"Nancheng Xiping, Dongguan",,22.963051,113.743494,72,30,12,17,7,8,29,25,1008,79,4,20140907170000
77,"Nancheng Yuanling, Dongguan",,23.025058,113.751308,70,26,13,9,8,8,29,25,1008,79,4,20140907170000
78,Dongguan,,23.017813,113.756958,76,30,11,10,8,7,29,25,1008,79,4,20140907170000
79,"Zimaling, Zhongshan",,22.505112,113.407183,25,11,12,12,13,6,29,26,1007,84,7,20140907170000
80,"Yangtze River tourist area, Zhongshan",,22.48589,113.439054,25,9,12,6,4,6,29,26,1007,84,7,20140907170000
81,"Huabai Park, Zhongshan",,22.51839,113.374362,17,11,8,12,6,9,29,26,1007,84,7,20140907170000
82,Zhongshan,,22.513997,113.398277,38,13,12,13,14,9,29,26,1007,84,7,20140907170000
83,"No.8 middle school, Shaoguan",,24.767777,113.583537,102,43,21,15,9,11,26,23,1008,81,2,20140907170000
83,"No.8 middle school, Shaoguan",,24.767777,113.583537,102,43,21,15,9,11,26,23,1008,81,2,20140907170000
84,"Forest area, Shaoguan",,24.796107,113.612131,95,40,26,12,12,11,26,23,1008,81,2,20140907170000
84,"Forest area, Shaoguan",,24.796106,113.612131,95,40,26,12,12,11,26,23,1008,81,2,20140907170000
86,"Shaoguan University, Shaoguan",,24.790864,113.646598,-,-,-,-,-,-,-,-,0,-,-,20140907170000
86,"Shaoguan University, Shaoguan",,24.790864,113.646599,-,-,-,-,-,-,-,-,0,-,-,20140907170000
88,"Qujiang Monitoring Station, Shaoguan",,24.683042,113.60157,89,40,23,18,5,9,26,23,1008,81,2,20140907170000
88,"Qujiang Monitoring Station, Shaoguan",,24.683042,113.60157,89,40,23,18,5,9,26,23,1008,81,2,20140907170000
89,Shaoguan,,24.807342,113.602712,134,50,29,17,16,11,26,23,1008,81,2,20140907170000
90,"Chaonanzi Station, Shantou",,23.251213,116.406762,65,26,24,6,4,10,28,27,1009,94,1,20140907170000
91,Shantou,,23.350642,116.686306,63,28,24,8,5,10,28,27,1009,94,1,20140907170000
92,"City Environmental Monitoring Station, Zhanjiang",,21.220431,110.397317,68,24,19,-,3,5,25,24,1007,94,3,20140907170000
93,"EPB Dormitory, Zhanjiang",,21.197376,110.406487,74,32,17,7,3,8,25,24,1007,94,3,20140907170000
94,"Xiashan Swimming Park, Zhanjiang",,21.200431,110.415655,59,30,24,7,7,9,25,24,1007,94,3,20140907170000
95,"Zhanjiang Theatre, Zhanjiang",,21.268177,110.366445,76,37,26,6,4,8,25,24,1007,94,3,20140907170000
96,"Mazhang EPA, Zhanjiang",,21.265486,110.335993,87,44,20,7,4,5,25,24,1007,94,3,20140907170000
97,"Potou District EPB, Zhanjiang",,21.247604,110.454508,57,25,28,6,3,8,25,24,1006,90,5,20140907170000
98,Zhanjiang,,21.26832,110.363883,87,44,28,7,7,9,25,24,1007,94,3,20140907170000
99,"Maogang sub-office EPB, Maoming",,21.466435,111.033462,87,35,36,3,4,4,27,25,0,90,5,20140907170000
100,"Petrochemical No. 7 elementaty school, Maoming",,21.648905,110.937861,109,46,34,7,7,12,27,25,0,90,5,20140907170000
101,"Jiankang road, Maoming",,21.662211,110.909482,102,52,23,9,17,11,27,25,0,90,5,20140907170000
102,"Gaoling, Maoming",,21.690558,110.871146,80,32,23,5,3,10,27,25,0,90,5,20140907170000
1094,Maoming,,21.660223,110.929968,109,46,34,7,7,12,27,25,0,90,5,20140907170000
103,"Jiaying University, Meizhou",,24.325415,116.12816,70,32,26,3,4,8,28,27,1009,94,1,20140907170000
104,"Mexian new town, Meizhou",,24.269283,116.084546,72,42,25,8,7,6,28,27,1009,94,1,20140907170000
105,"Environmental Monitoring Center, Meizhou",,24.262778,116.129621,72,39,23,9,5,7,28,27,1009,94,1,20140907170000
1095,Meizhou,,24.285988,116.127065,72,42,26,9,7,8,28,27,1009,94,1,20140907170000
106,"City EPA, Shanwei",,22.772349,115.370227,34,12,19,1,4,9,29,26,1009,81,2,20140907170000
107,"City government, Shanwei",,22.787161,115.375536,38,16,20,2,5,8,29,26,1009,81,2,20140907170000
108,"Xincheng Middle School, Shanwei",,22.789851,115.367124,34,12,18,3,3,6,29,26,1009,81,2,20140907170000
1099,Shanwei,,22.783576,115.38022,38,16,20,3,4,9,29,26,1009,81,2,20140907170000
109,"No.3 elementary school, Heyuan",,23.75435,114.703514,38,15,14,10,9,10,27,24,1009,82,2,20140907170000
109,"No.3 elementary school, Heyuan",,23.755946,114.699091,38,15,14,10,9,10,27,24,1009,82,2,20140907170000
111,"City water company, Heyuan",,23.754246,114.682459,89,49,11,15,16,10,27,24,1009,82,2,20140907170000
111,"City water company, Heyuan",,23.688709,114.954652,89,49,11,15,16,10,27,24,1009,82,2,20140907170000
113,"Heyuan high school, Heyuan",,23.720037,114.699563,85,33,12,11,7,9,27,24,1009,82,2,20140907170000
113,"Heyuan high school, Heyuan",,23.720666,114.693879,85,33,12,11,7,9,27,24,1009,82,2,20140907170000
115,Heyuan,,23.740888,114.705147,89,49,14,15,16,10,27,24,1009,82,2,20140907170000
116,"Yuanyang Lake, Yangjiang",,21.855869,111.983676,50,19,22,9,5,10,27,24,1006,84,7,20140907170000
1100,Yangjiang,,21.855227,111.987308,53,19,22,9,5,10,27,24,1006,84,7,20140907170000
118,"Town governement, Qingyuan",,23.708005,113.026215,72,35,21,15,9,11,29,25,1008,79,2,20140907170000
119,"Fupin district, Qingyuan",,23.624781,113.067713,76,26,18,13,10,8,29,25,1008,79,2,20140907170000
119,"Fupin district, Qingyuan",,24.185415,113.419369,76,26,18,13,10,8,29,25,1008,79,2,20140907170000
121,"Environment protection office, Qingyuan",,23.685931,113.053239,57,29,20,6,9,9,29,25,1008,79,2,20140907170000
121,"Environment protection office, Qingyuan",,23.691109,113.047948,57,29,20,6,9,9,29,25,1008,79,2,20140907170000
123,"Fengcheng Subdistrict, Qingyuan",,23.695447,113.068189,72,35,21,15,9,11,29,25,1008,79,2,20140907170000
124,Qingyuan,,23.679304,113.061513,76,29,20,13,10,9,29,25,1008,79,2,20140907170000
125,"Xiyuan Road, Chaozhou",,23.668654,116.638272,97,31,21,6,5,11,28,27,1009,94,1,20140907170000
126,"Archives Bureau, Chaozhou",,23.667881,116.649104,122,41,21,6,5,10,28,27,1009,94,1,20140907170000
127,"Municipal Corporation, Chaozhou",,23.65035,116.621859,153,73,27,7,11,11,29,26,1010,84,1,20140907170000
1101,Chaozhou,,23.654204,116.626969,122,42,25,6,8,12,28,27,1009,94,1,20140907170000
128,"Donghu Park, Jieyang",,23.532877,116.374427,80,32,19,7,10,9,28,27,1009,94,1,20140907170000
129,"Yuhu Middle School, Jieyang",,23.52682,116.414123,82,54,19,10,17,9,28,27,1009,94,1,20140907170000
130,"Experimental Primary School, Jieyang",,23.571473,116.364137,117,58,21,22,18,9,28,27,1009,94,1,20140907170000
1102,Jieyang,,23.547596,116.37754,117,58,22,22,18,10,28,27,1009,94,1,20140907170000
131,"City Environmental Monitoring Station, Yunfu",,22.936779,112.042248,102,62,38,17,4,13,29,25,1008,79,2,20140907170000
132,"The new city government headquarters, Yunfu",,22.914275,112.044475,91,38,45,7,4,14,29,25,1008,79,2,20140907170000
133,"Muyang police sub-station, Yunfu",,22.951267,112.05923,154,74,37,7,10,12,29,25,1008,79,2,20140907170000
1103,Yunfu,,22.912436,112.049811,154,74,45,17,10,14,29,25,1008,79,2,20140907170000
134,Yantian,,22.587949,114.266899,30,21,23,9,6,7,29,25,1007,79,5,20140907170000
135,Kwai Chung,,22.627947,114.428875,38,10,15,6,1,14,29,25,1007,79,5,20140907170000
135,Kwai Chung,,22.572837,113.867166,38,10,15,6,1,14,29,25,1007,79,5,20140907170000
135,Kwai Chung,,22.354168,114.134558,38,10,15,6,1,14,29,25,1007,79,5,20140907170000
137,Nanyou,,22.513802,113.928051,50,15,27,5,4,9,29,25,1007,79,5,20140907170000
138,Meisha,,22.59611,114.318345,53,39,12,3,1,9,29,25,1007,79,5,20140907170000
139,Xi xiang,,22.717524,114.252304,50,20,13,8,2,12,29,25,1007,79,5,20140907170000
140,Liyuan,,22.54732,114.101205,21,11,11,7,1,10,29,25,1008,79,4,20140907170000
1072,Kwai Chung,,22.627947,114.428875,38,18,15,4,2,7,29,25,1007,79,5,20140907170000
1072,Kwai Chung,,22.572837,113.867166,38,18,15,4,2,7,29,25,1007,79,5,20140907170000
1072,Kwai Chung,,22.354168,114.134558,38,18,15,4,2,7,29,25,1007,79,5,20140907170000
141,OCT,,22.539549,113.992458,38,12,10,6,1,10,29,25,1007,79,5,20140907170000
142,Honghu,,22.559647,114.121976,38,24,13,10,2,9,29,25,1007,79,5,20140907170000
143,Mission Hills,,22.694131,114.050496,25,14,16,5,2,5,29,25,1007,79,5,20140907170000
144,Shenzhen,,22.540382,114.062982,53,51,27,10,6,14,-,-,0,-,-,20140907170000
145,Chengdu,,30.622581,104.069564,91,44,22,30,8,7,24,20,1011,78,0,20140907170000
146,"Jinquan lianghe, Chengdu",,30.710359,103.974209,74,39,14,27,4,11,24,20,1011,78,0,20140907170000
147,"Shilidian, Chengdu",,30.684718,104.17845,72,32,13,30,4,7,24,20,1011,78,0,20140907170000
148,"Sanwayao, Chengdu",,30.568159,104.081524,55,28,10,28,7,7,24,20,1011,78,0,20140907170000
149,"Shahepu, Chengdu",,30.633685,104.120536,63,23,10,28,7,9,24,20,1011,78,0,20140907170000
150,"Liang Lane, Chengdu",,30.682601,104.076522,70,44,22,30,6,6,24,20,1011,78,0,20140907170000
151,"Caotang Temple, Chengdu",,30.651891,104.0284,65,32,15,23,8,7,24,20,1011,78,0,20140907170000
152,"Lingyansi, Chengdu",,31.025729,103.615022,63,20,28,6,4,2,24,20,1011,78,0,20140907170000
153,"Fuleshan, Mianyang",,31.472493,104.7806,46,16,15,9,5,8,24,21,1007,78,2,20140907170000
154,"High-tech Zone Water Company, Mianyang",,31.463309,104.674293,78,33,16,13,4,6,24,21,1007,78,2,20140907170000
155,"No.3 water company, Mianyang",,31.505002,104.731054,80,35,15,7,7,4,24,21,1007,78,2,20140907170000
156,Mianyang,,31.465174,104.681731,80,35,16,22,7,8,24,21,1007,78,2,20140907170000
157,"Dongshan Park, Deyang",,31.118648,104.424587,42,23,23,3,2,6,24,20,1011,78,0,20140907170000
158,"Xixiaoqu, Deyang",,31.131159,104.390972,70,7,18,12,9,10,24,20,1011,78,0,20140907170000
159,"City Procuratorate, Deyang",,31.114554,104.407986,59,15,22,9,12,12,24,20,1011,78,0,20140907170000
160,"Refractory Factory, Deyang",,31.108606,104.356506,85,44,13,17,13,5,24,20,1011,78,0,20140907170000
161,Deyang,,31.124715,104.400703,85,44,22,17,13,12,24,20,1011,78,0,20140907170000
162,"Nongnongping, Panzhihua",,26.566698,101.695438,82,41,24,18,6,12,22,16,0,60,2,20140907170000
163,"Hemenkou, Panzhihua",,26.589072,101.578312,89,41,19,12,8,17,22,16,0,60,2,20140907170000
164,"Bingcaogang, Panzhihua",,26.58143,101.718473,65,53,20,31,19,9,22,16,0,60,2,20140907170000
165,"Renhe, Panzhihua",,26.498166,101.746887,57,41,15,12,6,10,22,16,0,60,2,20140907170000
166,"Jinjina, Panzhihua",,26.553226,101.84862,127,75,30,14,27,8,22,16,0,60,2,20140907170000
167,Panzhihua,,26.578779,101.720211,127,75,30,31,27,17,22,16,0,60,2,20140907170000
168,"Shima Middle School, Yibin",,28.815979,104.599199,117,58,36,3,4,8,24,22,1009,82,1,20140907170000
169,"Municipal party committee, Yibin",,28.762654,104.624834,134,48,29,6,4,9,24,22,1009,82,1,20140907170000
170,"No. 4 middle school, Yibin",,28.783257,104.608407,153,65,27,6,4,6,24,22,1009,82,1,20140907170000
171,"City government, Yibin",,28.760477,104.644079,149,100,32,8,5,8,24,22,1009,82,1,20140907170000
172,"Huangjinzui, Yibin",,28.712319,104.578389,180,60,32,12,9,9,24,22,1009,82,1,20140907170000
173,"Shaping Middle School, Yibin",,28.795569,104.681393,134,52,32,19,9,8,24,22,1009,82,1,20140907170000
174,Yibin,,28.748384,104.645766,180,100,36,19,9,9,24,22,1009,82,1,20140907170000
175,"Datang Hill, Zigong",,29.359969,104.757388,161,118,33,12,8,7,25,22,1001,82,2,20140907170000
176,"Yanma Road, Zigong",,29.355752,104.724036,162,103,21,4,6,9,25,22,1001,82,2,20140907170000
177,"Tanmulin Street, Zigong",,29.353555,104.777397,155,65,24,9,11,4,25,22,1001,82,2,20140907170000
178,"Chunhua Road, Zigong",,29.33825,104.771895,159,67,17,14,8,9,25,22,1001,82,2,20140907170000
179,Zigong,,29.33617,104.781138,162,118,33,14,11,9,25,22,1001,82,2,20140907170000
180,"Jiushi Hill, Luzhou",,28.955347,105.434207,154,64,56,6,1,5,25,23,1001,83,1,20140907170000
181,"Xiaoshishang Port, Luzhou",,28.899583,105.447192,153,71,33,14,9,9,25,23,1001,83,1,20140907170000
182,"Lantianxian Bridge, Luzhou",,28.852766,105.4358,156,64,42,9,3,5,25,23,1001,83,1,20140907170000
183,"City Environment Monitoring Station, Luzhou",,28.895898,105.435802,158,57,27,27,9,8,25,23,1001,83,1,20140907170000
184,Luzhou,,28.868782,105.445938,158,71,56,27,9,9,25,23,1001,83,1,20140907170000
185,"City Committee, Nanchong",,30.799993,106.082906,122,53,31,12,13,6,24,24,1008,96,1,20140907170000
186,"Refinery Factory, Nanchong",,30.819412,106.10712,124,52,24,14,12,4,24,24,1008,96,1,20140907170000
187,"Gaoping District Monitoring Station, Nanchong",,30.783291,106.110417,127,51,4,11,11,7,24,24,1008,96,1,20140907170000
188,"Jialing District EPB, Nanchong",,30.761255,106.06818,132,61,10,18,9,6,24,24,1008,96,1,20140907170000
189,"City Environmental Monitoring Station, Nanchong",,30.836519,106.11272,-,78,48,6,7,3,26,24,1006,85,1,20140907170000
190,Nanchong,,30.835511,106.114717,132,61,31,18,13,7,24,24,1008,96,1,20140907170000
1249,"City Monitoring Station, Neijiang",,29.592673,105.036234,155,58,26,3,4,6,25,22,1001,82,2,20140907170000
1250,"Dongxing District Government , Neijiang",,29.592148,105.074966,155,58,26,6,3,3,25,22,1001,82,2,20140907170000
1251,"No 2 middle school, Neijiang",,29.579135,105.068548,161,76,34,10,2,8,25,22,1001,82,2,20140907170000
1252,Neijiang,,29.577653,105.06166,161,76,34,11,7,8,25,22,1001,82,2,20140907170000
1253,"City Monitoring Station, Suining",,30.610641,105.683583,104,59,24,7,3,1,25,22,0,83,2,20140907170000
1254,"Administrative center , Suining",,30.63206,105.819747,72,55,30,4,2,1,25,22,0,83,2,20140907170000
1255,Suining,,30.530053,105.596307,104,59,30,12,3,9,25,22,0,83,2,20140907170000
1256,"City Monitoring Station, Leshan",,29.560651,103.759211,160,81,25,18,21,20,24,21,0,85,1,20140907170000
1257,"Leshan Giant Buddha Scenic Area , Leshan",,29.543938,103.772706,163,77,28,21,24,18,24,21,0,85,1,20140907170000
1258,Leshan,,29.54935,103.767777,165,86,28,23,27,20,24,21,0,85,1,20140907170000
1259,"Heilongtan , Meishan",,30.047726,103.900649,129,69,30,6,7,7,24,20,1011,78,0,20140907170000
1260,"Bureau of Meteorology, Meishan",,30.084591,103.843715,183,87,23,14,6,9,24,20,1011,78,0,20140907170000
1261,"Xuguang Community , Meishan",,30.066277,103.8516,163,76,24,20,6,6,24,20,1011,78,0,20140907170000
1262,"City Monitoring Station, Meishan",,30.059205,103.836229,175,81,20,20,6,8,24,20,1011,78,0,20140907170000
1263,Meishan,,30.072618,103.85064,183,87,30,20,7,9,24,20,1011,78,0,20140907170000
1264,"Ziyang middle school, Ziyang",,30.147763,104.638024,93,47,30,2,19,9,25,22,1001,82,2,20140907170000
1265,Ziyang,,30.126054,104.63004,93,51,36,8,37,12,25,22,1001,82,2,20140907170000
191,Shenyang US Consulate,,41.785668,123.432865,173,98,37,12,32,12,19,18,1006,94,6,20140907170000
192,"Huishan, Shenyang",,41.835421,123.647773,174,78,37,9,3,12,19,18,1006,94,6,20140907170000
193,"Hunnan, Shenyang",,41.758263,123.540809,178,87,102,12,29,11,23,18,1005,73,3,20140907170000
194,"Zhangshi, Shenyang",,41.771679,123.289859,170,92,42,9,7,12,19,18,1006,94,6,20140907170000
195,"Artillery College, Shenyang",,41.835749,123.547799,124,100,124,11,10,12,23,18,1005,73,3,20140907170000
196,"Beiling, Shenyang",,41.849633,123.434146,168,86,72,12,14,13,19,18,1006,94,6,20140907170000
197,"Wenyi Road, Shenyang",,41.767444,123.416144,171,98,114,12,32,12,23,18,1005,73,3,20140907170000
198,"Xiaoheyan, Shenyang",,41.779828,123.484015,170,97,148,11,27,11,23,18,1005,73,3,20140907170000
199,"Taiyuan Street, Shenyang",,41.799646,123.406146,170,89,28,19,6,13,19,18,1006,94,6,20140907170000
200,"Ermao, Shenyang",,41.783011,123.366679,191,100,141,21,38,12,23,18,1005,73,3,20140907170000
201,"Liaoning University, Shenyang",,41.830704,123.361071,179,90,72,11,10,12,23,18,1005,73,3,20140907170000
202,Shenyang,,41.808126,123.437611,46,89,72,19,14,13,19,18,1006,94,6,20140907170000
1104,"wenhua street, Shenyang , Shenyang",,41.774139,123.441839,166,101,95,10,17,12,19,18,1006,94,6,20140907170000
1105,"Tanglin Road , Shenyang , Shenyang",,41.823665,123.562317,122,106,102,7,9,12,19,18,1006,94,6,20140907170000
203,"Ganjingzi, Dalian",,38.9747,121.616893,156,65,34,25,2,5,24,19,1008,73,3,20140907170000
204,"Zhoushuizi, Dalian",,38.951928,121.569981,144,54,41,13,17,10,24,19,1008,73,3,20140907170000
205,"Xinghai No 3 station, Dalian",,38.885779,121.568864,117,49,36,6,6,5,24,19,1008,73,3,20140907170000
206,"Qingniwa Bridge, Dalian",,38.91274,121.638018,89,38,42,12,2,5,24,19,1008,73,3,20140907170000
207,"Fujiazhuang, Dalian",,38.864647,121.629947,85,52,27,5,7,5,24,19,1008,73,3,20140907170000
208,"Qixianling, Dalian",,38.856978,121.523169,95,38,50,7,2,20,24,19,1008,73,3,20140907170000
209,"Lushun, Dalian",,38.808946,121.264063,158,82,36,12,16,5,24,19,1008,73,3,20140907170000
210,"Jinzhou, Dalian",,39.132192,121.753259,114,55,18,23,5,2,24,19,1008,73,3,20140907170000
211,"BDA, Dalian",,39.05213,121.782022,107,43,18,16,3,4,24,19,1008,73,3,20140907170000
212,"D&D Port, Dalian",,39.064087,121.981874,87,36,12,7,1,7,24,19,1008,73,3,20140907170000
213,Dalian,,38.91478,121.619625,89,52,42,12,7,5,-,-,0,-,-,20140907170000
214,"Bearing Factory, Dandong",,40.068929,124.345703,153,71,28,6,11,16,21,20,1008,95,1,20140907170000
215,"Financial school, Dandong",,40.158723,124.432593,153,65,28,5,7,11,21,20,1008,95,1,20140907170000
216,"Yuanbaoshan water, Dandong",,40.149431,124.391698,161,73,33,15,13,9,21,20,1008,95,1,20140907170000
217,"Experimental Primary School, Dandong",,39.887343,124.158056,159,94,34,8,6,27,21,20,1008,95,1,20140907170000
218,Dandong,,40.002046,124.360479,161,94,34,15,13,27,21,20,1008,95,1,20140907170000
1106,"minzhu bridge, Dandong , Dandong",,40.112974,124.373604,159,94,34,8,6,27,21,20,1008,95,1,20140907170000
1107,"yuanbaoshan, Dandong , Dandong",,40.146298,124.399081,161,73,33,15,13,9,21,20,1008,95,1,20140907170000
1108,"linjiang houjie, Dandong , Dandong",,40.152757,124.431745,153,60,25,3,7,11,21,20,1008,95,1,20140907170000
219,"BDA, Panjin",,41.157144,122.06645,169,72,50,2,5,21,18,16,0,87,4,20140907170000
220,"Xinglongtai, Panjin",,41.140948,122.111343,157,68,43,4,14,11,18,16,0,87,4,20140907170000
221,"Dingxiang, Panjin",,41.16139,121.928781,169,70,87,4,16,12,18,16,0,87,4,20140907170000
222,Panjin,,41.122089,122.076206,169,72,87,4,16,21,18,16,0,87,4,20140907170000
223,"No.3 water company, Yingkou",,40.682052,122.385352,97,51,70,4,5,8,24,20,1006,78,5,20140907170000
224,"Yingkou University, Yingkou",,40.683689,122.388285,95,52,70,7,4,9,24,20,1006,78,5,20140907170000
225,"Botanical garden, Yingkou",,40.711674,122.281568,112,47,80,10,5,9,24,20,1006,78,5,20140907170000
226,Yingkou,,40.668578,122.24059,114,54,76,7,6,13,24,20,1006,78,5,20140907170000
1109,"jinghu west street, Yingkou , Yingkou",,40.653831,122.221943,93,50,69,4,6,8,24,20,1006,78,5,20140907170000
1110,"Daqing Road , Yingkou , Yingkou",,40.709181,122.28243,114,48,76,7,6,9,24,20,1006,78,5,20140907170000
227,"Xishanpo, Huludao",,40.724078,120.921974,207,109,114,8,17,12,18,16,0,87,4,20140907170000
228,"Huagong hospital, Huludao",,40.755662,120.848435,160,117,57,20,9,21,18,16,0,87,4,20140907170000
229,"New district park, Huludao",,40.723415,120.853801,155,102,94,10,7,13,18,16,0,87,4,20140907170000
230,"Lianshan district governement, Huludao",,40.775488,120.872292,162,132,85,27,15,14,18,16,0,87,4,20140907170000
231,Huludao,,40.712501,120.842107,207,132,114,27,17,21,23,20,0,82,8,20140907170000
1111,"Dongcheng District , Huludao , Huludao",,40.775362,120.871706,164,151,64,26,15,15,,,0,,,20140907170000
1112,"huagong street, Huludao , Huludao",,40.758901,120.842935,163,140,48,16,13,22,,,0,,,20140907170000
232,Anshan,,41.110466,123.000147,186,125,89,8,9,18,19,18,1006,94,6,20140907170000
233,"Qianshan Park, Anshan",,41.033486,123.143897,175,76,39,4,8,7,18,18,1006,100,3,20140907170000
234,"Tiexi, Anshan",,41.121636,122.97506,186,117,49,7,9,18,18,18,1006,100,3,20140907170000
235,"Taiping Station, Anshan",,41.153322,123.052433,182,91,42,2,6,12,18,18,1006,100,3,20140907170000
236,"Central Station, Anshan",,41.106731,123.002736,165,98,89,6,7,12,18,18,1006,100,3,20140907170000
237,"Shengou Temple, Anshan",,41.137157,123.031901,172,91,82,5,7,10,19,18,1006,94,6,20140907170000
1113,"Qianshan , Anshan , Anshan",,41.014521,123.122538,175,76,39,4,8,7,19,18,1006,94,6,20140907170000
1114,"Tiexi Sandao jie, Anshan",,41.103264,122.978613,186,117,49,7,9,18,19,18,1006,94,6,20140907170000
1115,"Taiyang, Anshan",,41.094946,123.019037,165,97,98,4,5,12,23,18,1005,73,3,20140907170000
238,Fushun,,41.883028,123.962984,167,97,55,11,16,16,19,18,1006,94,6,20140907170000
239,"Shenfu new town, Fushun",,41.804638,123.631684,152,67,55,6,6,12,18,18,1006,100,3,20140907170000
240,"Reservoir, Fushun",,41.8464,123.802857,166,80,119,7,13,18,18,18,1006,100,3,20140907170000
241,"Train Station, Fushun",,41.89726,124.017604,182,92,47,8,17,14,18,18,1006,100,3,20140907170000
242,"Dongzhou, Fushun",,41.855578,124.044738,171,96,77,11,15,12,18,18,1006,100,3,20140907170000
243,"Xinhua, Fushun",,41.888598,123.932932,164,91,61,11,19,16,18,18,1006,100,3,20140907170000
244,"Wanghua, Fushun",,41.888825,123.093723,232,86,88,7,25,21,18,18,1006,100,3,20140907170000
245,Benxi,,41.296267,123.772371,161,83,58,6,16,13,19,18,1006,94,6,20140907170000
246,"Weining, Benxi",,41.349663,123.826071,-,-,-,-,-,-,-,-,0,-,-,20140907170000
247,"Occupational disease hospital, Benxi",,41.305432,123.74645,173,77,62,5,8,9,19,18,1006,94,6,20140907170000
248,"Dongming, Benxi",,41.292369,123.765058,164,72,47,1,4,11,19,18,1006,94,6,20140907170000
249,"Caitun, Benxi",,41.301591,123.746039,158,83,31,6,1,13,18,18,1006,100,3,20140907170000
250,"Xihu, Benxi",,41.331332,123.773537,155,76,47,11,5,15,18,18,1006,100,3,20140907170000
251,"Dayu, Benxi",,41.308091,123.818442,161,78,58,6,16,10,18,18,1006,100,3,20140907170000
1116,"Xinlitun , Benxi , Benxi",,41.264104,123.811523,173,77,62,5,8,9,19,18,1006,94,6,20140907170000
252,Jinzhou,,41.097169,121.132647,221,121,37,19,13,14,23,20,1005,82,8,20140907170000
253,"Beihu Park, Jinzhou",,41.141447,121.137339,203,121,71,13,17,15,23,20,1005,82,8,20140907170000
254,"Monitoring station, Jinzhou",,41.113441,121.140911,204,104,71,18,18,13,23,20,1005,82,8,20140907170000
255,"Nanshan, Jinzhou",,41.570689,122.046753,194,91,54,18,12,14,23,20,1005,82,8,20140907170000
1118,"BDA, Jinzhou",,40.853915,121.061756,221,91,37,19,13,14,23,20,1005,82,8,20140907170000
1119,"tianan street, Jinzhou , Jinzhou",,41.124468,121.126119,205,107,52,26,17,14,23,20,1005,82,8,20140907170000
1120,"baigu street, Jinzhou, Jinzhou",,41.12214,121.21027,216,106,56,17,12,14,23,20,1005,82,8,20140907170000
1121,Chaoyang,,41.576022,120.456053,63,53,59,10,6,19,-,-,0,-,-,20140907170000
472,"Fukang road, Tianjin",,39.098136,117.157621,183,90,19,17,8,8,23,19,1008,78,2,20140907170000
1122,"Agricultural Area, Chaoyang",,43.93968,125.247371,59,26,6,3,8,14,23,17,1004,58,2,20140907170000
1123,Tieling,,42.225197,123.732174,187,82,72,17,11,10,-,-,0,-,-,20140907170000
260,"Waterpark, Tieling",,42.297031,123.880748,185,95,67,13,22,12,23,17,1006,69,2,20140907170000
1124,"Huigong Street West , Tieling , Tieling",,42.311115,123.845614,180,82,72,6,9,9,18,18,1006,100,3,20140907170000
1125,Liaoyang,,41.269312,123.24268,78,57,47,5,9,25,-,-,0,-,-,20140907170000
1126,"Riverside Road , Liaoyang , Liaoyang",,41.176884,123.419859,63,39,77,1,17,9,18,18,1006,100,3,20140907170000
1127,Fuxin,,42.02373,121.675733,107,53,46,10,8,12,-,-,0,-,-,20140907170000
266,"Agricultural Area, Fuxin",,42.071291,121.696445,63,31,37,7,6,9,16,9,0,62,4,20140907170000
267,"Industrial Area, Fuxin",,42.041052,121.715554,80,53,37,10,8,11,16,9,0,62,4,20140907170000
1128,"Yulong Metro , Fuxin , Fuxin",,42.035091,121.666531,107,44,46,10,4,12,16,9,0,62,4,20140907170000
1129,"Dongyuan , Fuxin , Fuxin",,42.029119,121.681553,-,-,75,-,-,12,-,-,0,-,-,20140907170000
268,"City Monitoring Station, Jinan",,36.662614,117.054645,188,103,40,22,12,7,23,20,1008,78,2,20140907170000
269,"Shandong Institute of Economics, Jinan",,36.63819,117.074975,173,115,12,9,17,10,23,20,1008,78,2,20140907170000
270,"Quancheng Plaza, Jinan",,36.661711,117.027043,181,115,34,12,11,10,23,20,1008,78,2,20140907170000
271,"Kegansuo, Jinan",,36.611582,116.99384,166,-,66,10,7,8,23,20,1008,78,2,20140907170000
272,"Agriculture Science Institute, Jinan",,36.663115,116.95063,175,118,33,32,8,14,23,20,1008,78,2,20140907170000
273,"Lanxiang technical school, Jinan",,36.700421,116.95342,173,117,71,9,24,10,23,20,1008,78,2,20140907170000
274,"Chemical factory, Jinan",,36.687463,116.994406,179,98,31,29,23,9,23,20,1008,78,2,20140907170000
275,"Provincial Seed Warehouse, Jinan",,36.685706,117.066348,181,113,42,18,13,11,23,20,1008,78,2,20140907170000
276,"Shandong Architecture University, Jinan",,36.681732,117.191868,180,102,28,27,11,12,23,20,1008,78,2,20140907170000
277,"Baosheng cable company, Jinan",,36.724638,117.130855,178,160,22,37,6,10,23,20,1008,78,2,20140907170000
278,"Paomaling, Jinan",,36.47869,117.219027,169,80,85,6,15,15,23,20,1008,78,2,20140907170000
279,"Changqing District Communist Party School, Jinan",,36.548797,116.770859,179,95,42,17,26,13,23,20,1008,78,2,20140907170000
280,"BDA, Jinan",,36.685835,117.130851,173,97,51,33,5,10,23,20,1008,78,2,20140907170000
281,Jinan,,36.651426,117.126625,188,122,66,32,22,14,23,20,1008,78,2,20140907170000
282,"Shinan district No. 1, Qingdao",,36.065534,120.40839,85,37,41,8,9,4,22,20,1008,88,1,20140907170000
283,"Shibei district No. 1, Qingdao",,36.069919,120.341264,74,49,32,6,7,6,22,20,1008,88,1,20140907170000
284,"Shibei district No. 2, Qingdao",,36.104146,120.36637,63,53,87,8,7,9,25,20,1008,74,4,20140907170000
285,"Huangdao District No. 1, Qingdao",,35.958935,120.191041,82,60,40,11,13,8,22,20,1008,88,1,20140907170000
286,"Huangdao District No. 2, Qingdao",,35.970487,120.160339,99,76,39,7,12,9,22,20,1008,88,1,20140907170000
287,"Laoshan District No. 1, Qingdao",,36.085881,120.451839,139,59,32,28,12,7,22,20,1008,88,1,20140907170000
288,"Laoshan District No. 2, Qingdao",,36.091075,120.490388,89,40,47,8,7,6,22,20,1008,88,1,20140907170000
289,"Licang District No. 1, Qingdao",,36.184872,120.38533,85,59,9,8,17,8,22,20,1008,88,1,20140907170000
290,"Licang District No. 2, Qingdao",,36.154369,120.432287,102,63,13,16,7,5,22,20,1008,88,1,20140907170000
291,"Chengyang District No. 1, Qingdao",,36.308502,120.40008,129,52,25,16,10,7,22,20,1008,88,1,20140907170000
292,"Chengyang District No. 2, Qingdao",,36.308429,120.465806,132,53,41,10,9,10,22,20,1008,88,1,20140907170000
293,Qingdao,,36.067358,120.387773,139,76,47,28,13,9,22,20,1008,88,1,20140907170000
294,"Zichuan Meteo. Stations, Zibo",,36.637916,117.960222,188,177,31,54,56,20,20,18,0,87,2,20140907170000
295,"Dongfeng Chemical factory, Zibo",,36.838576,118.050785,172,127,22,57,23,17,20,18,0,87,2,20140907170000
296,"Boshan shuangshan, Zibo",,36.497278,117.853581,184,99,33,29,14,14,20,18,0,87,2,20140907170000
297,"Linzi Putian Park, Zibo",,36.820171,118.315022,177,115,27,47,27,27,20,18,0,87,2,20140907170000
1319,Zhoukou,,33.624592,114.702425,-,-,-,-,-,-,-,18,0,-,-,20140907170000
298,"Qilu Petrochemical, Zibo",,36.765907,118.254967,175,113,20,26,10,20,20,18,0,87,2,20140907170000
299,"Zhoucun sanjin Group, Zibo",,36.8044,117.85694,185,95,30,28,6,19,20,18,0,87,2,20140907170000
300,"Vocational College, Zibo",,36.825208,117.926305,181,119,26,45,33,20,20,18,0,87,2,20140907170000
301,"BDA, Zibo",,36.905214,118.021824,187,161,18,28,22,17,20,18,0,87,2,20140907170000
302,Zibo,,36.813618,118.060948,190,135,45,57,61,17,20,18,0,87,2,20140907170000
303,"Shizhong District Government, Zaozhuang",,34.850397,117.569545,153,89,38,11,19,9,24,22,1009,90,1,20140907170000
304,"Sewage treatment plant, Zaozhuang",,34.818951,117.595345,160,73,30,18,27,8,24,22,1009,90,1,20140907170000
305,"Xuecheng EPA, Zaozhuang",,34.790214,117.272455,170,73,27,25,20,9,24,22,1009,90,1,20140907170000
306,"Yicheng District government, Zaozhuang",,34.772806,117.57647,158,90,49,7,7,9,24,22,1009,90,1,20140907170000
307,"Taierzhuang EPA, Zaozhuang",,34.579462,117.741067,97,54,37,7,4,11,24,22,1009,90,1,20140907170000
308,"Shanting EPA, Zaozhuang",,35.070373,117.457691,154,84,36,12,16,12,24,22,1009,90,1,20140907170000
309,"City EPA, Zaozhuang",,34.809466,117.320608,164,85,45,19,22,7,24,22,1009,90,1,20140907170000
310,"High-tech zone, Zaozhuang",,34.821779,117.363495,176,84,30,16,13,10,24,22,1009,90,1,20140907170000
311,Zaozhuang,,34.809693,117.329634,176,89,38,25,20,12,24,22,1009,90,1,20140907170000
312,"City EPA, Dongying",,37.432052,118.672871,182,131,36,29,36,16,22,18,0,78,3,20140907170000
313,"Vocational College, Dongying",,37.438653,118.630567,181,153,35,37,40,12,22,18,0,78,3,20140907170000
314,"Xianhe Oil Production Plant, Dongying",,37.442419,118.510222,193,196,39,35,24,14,22,18,0,78,3,20140907170000
315,"Gengjin village, Dongying",,37.445072,118.55839,187,123,31,36,29,13,22,18,0,78,3,20140907170000
316,"City environmental company, Dongying",,37.466599,118.508012,179,119,49,24,37,13,22,18,0,78,3,20140907170000
317,"Hekou  district, Dongying",,37.883786,118.522171,205,152,45,18,32,13,22,18,0,78,3,20140907170000
318,"BDA, Dongying",,37.435162,118.701827,193,134,44,29,36,17,22,18,0,78,3,20140907170000
319,Dongying,,37.435429,118.680434,205,196,49,41,40,16,22,18,0,78,3,20140907170000
320,"Bearing Factory, Yantai",,37.544126,121.376956,149,58,20,11,6,7,,,0,,,20140907170000
321,"Xijiao Chemical Station, Yantai",,37.547148,121.323695,109,65,39,10,5,8,,,0,,,20140907170000
322,"Fushan Monitoring Stations, Yantai",,37.472245,121.260116,99,30,56,4,3,9,,,0,,,20140907170000
323,"Mouping EPA, Yantai",,37.376681,121.586509,114,48,28,1,3,4,,,0,,,20140907170000
324,"Laishan EPA, Yantai",,37.478422,121.44829,134,56,30,15,6,6,,,0,,,20140907170000
325,"Laishan Shengquan Industrial Park, Yantai",,37.4271,121.408386,91,55,29,17,5,6,,,0,,,20140907170000
326,"China Agricultural University, Yantai",,37.423568,121.511838,72,52,30,8,8,5,,,0,,,20140907170000
327,"BDA EPA, Yantai",,37.560827,121.257954,80,50,23,12,2,7,,,0,,,20140907170000
329,"Dajijia, Yantai",,37.673849,121.071465,112,44,34,6,8,8,,,0,,,20140907170000
330,Yantai,,37.464793,121.453142,149,67,56,15,7,9,22,19,0,85,4,20140907170000
331,"BDA, Weifang",,36.720022,119.054064,177,119,31,18,10,10,,,0,,,20140907170000
332,"Business School, Weifang",,36.682442,119.105909,167,107,24,33,10,8,,,0,,,20140907170000
333,"Hanting District, Weifang",,36.773484,119.199705,170,111,37,14,6,13,,,0,,,20140907170000
334,"Gongda Company, Weifang",,36.657635,119.167266,172,117,35,15,8,12,,,0,,,20140907170000
335,"City EPA, Weifang",,36.701272,119.16838,171,117,29,16,6,13,,,0,,,20140907170000
336,"City Arbitration Committee, Weifang",,36.702422,119.145927,167,103,34,18,7,13,,,0,,,20140907170000
337,"Xinhui Group, Weifang",,36.641581,119.11679,160,99,29,21,13,10,,,0,,,20140907170000
338,"Jincheng Middle School, Weifang",,36.773611,119.115539,164,101,46,19,8,11,,,0,,,20140907170000
339,Weifang,,36.707217,119.167638,177,119,46,33,10,13,22,18,0,78,3,20140907170000
340,"City Monitoring Station, Jining",,35.408443,116.623917,179,101,35,15,16,13,22,22,1009,94,0,20140907170000
1090,"Shengdi Hollidays Resort, Jining",,35.424746,116.699093,174,112,28,31,13,7,22,22,1009,94,0,20140907170000
341,"Sewage treatment plant, Jining",,35.364286,116.609177,175,88,24,21,12,12,22,22,1009,94,0,20140907170000
342,"Electrochemical Factory, Jining",,35.390473,116.552956,168,87,29,19,12,14,22,22,1009,94,0,20140907170000
343,"Rencheng BDA, Jining",,35.390484,116.662995,177,91,25,24,13,12,22,22,1009,94,0,20140907170000
344,"Agricultural School, Jining",,35.44235,116.601682,167,112,23,22,7,10,22,22,1009,94,0,20140907170000
345,"BDA Huojucheng, Jining",,35.436377,116.642953,175,91,37,11,9,15,22,22,1009,94,0,20140907170000
346,Jining,,35.414473,116.59239,179,112,37,31,16,15,22,22,1009,94,0,20140907170000
347,"Taishan monitoring station, Taian",,36.194362,117.159648,154,73,20,30,4,18,15,7,0,50,5,20140907170000
348,"Shandong Electric Power School, Taian",,36.176071,117.12413,147,56,28,30,4,23,15,7,0,50,5,20140907170000
349,"Population Education school, Taian",,36.194417,117.104131,142,64,22,3,2,13,15,7,0,50,5,20140907170000
350,"Houfeng company, Taian",,36.204863,117.19015,147,67,15,8,4,13,15,7,0,50,5,20140907170000
351,"Nongda new campus, Taian",,36.170179,117.165191,147,67,6,29,6,22,15,7,0,50,5,20140907170000
352,"Transportation technical school, Taian",,36.202126,117.047068,117,45,9,12,3,14,15,7,0,50,5,20140907170000
353,"ICT Technology, Taian",,36.116621,117.107458,154,78,11,14,2,15,15,7,0,50,5,20140907170000
354,Taian,,36.200502,117.093682,154,73,28,30,6,23,15,7,0,50,5,20140907170000
355,"City Environmental Monitoring Station, Weihai",,37.513939,122.067058,76,38,32,20,8,2,22,19,0,85,4,20140907170000
356,"Woodworking Factory, Weihai",,37.325455,122.160777,80,31,37,16,12,5,22,19,0,85,4,20140907170000
357,"Lantian Hotel, Weihai",,37.514641,122.146276,91,48,41,5,6,6,22,19,0,85,4,20140907170000
358,"Zhang village government, Weihai",,37.485561,122.049436,82,41,29,6,7,3,22,19,0,85,4,20140907170000
359,"Gao District Bank, Weihai",,37.534919,122.056294,80,44,37,12,8,3,22,19,0,85,4,20140907170000
360,"Huxia technical school, Weihai",,37.427951,122.130811,74,34,34,9,9,5,22,19,0,85,4,20140907170000
361,Weihai,,37.5141,122.125477,91,48,41,16,12,6,22,19,0,85,4,20140907170000
362,"City governement square, Rizhao",,35.4075,119.526008,127,71,24,13,10,8,23,21,1009,84,1,20140907170000
363,"Port Authority, Rizhao",,35.381297,119.55396,132,71,19,28,7,7,23,21,1009,84,1,20140907170000
364,"City Monitoring Station, Rizhao",,35.388683,119.496405,137,67,25,25,9,6,23,21,1009,84,1,20140907170000
365,"Professor Garden, Rizhao",,35.462161,119.574193,99,64,32,14,11,7,23,21,1009,84,1,20140907170000
366,"Vocational and Technical College, Rizhao",,35.441939,119.538187,107,55,26,17,9,5,23,21,1009,84,1,20140907170000
367,"Lanshan EPA branch, Rizhao",,35.293405,119.345716,142,66,25,17,11,7,23,21,1009,84,1,20140907170000
368,"Jinma Industrial Park, Rizhao",,35.373339,119.514108,109,79,28,21,8,6,23,21,1009,84,1,20140907170000
369,Rizhao,,35.416089,119.532316,142,79,32,28,11,8,23,21,1009,84,1,20140907170000
370,"Vegetable oil factory, Laiwu",,36.205028,117.700917,198,123,28,28,37,16,22,21,1010,94,2,20140907180000
371,"Nursing home, Laiwu",,36.266067,117.652769,184,166,27,18,14,22,22,21,1010,94,2,20140907180000
372,"Xinyi middle school, Laiwu",,36.245086,117.739025,171,111,21,23,29,22,22,21,1010,94,2,20140907180000
373,"Risheng International School, Laiwu",,36.208125,117.730959,328,192,24,12,20,16,22,21,1010,94,2,20140907180000
374,"Gangcheng EPA, Laiwu",,36.066836,117.871823,169,119,22,22,35,17,22,21,1010,94,2,20140907180000
375,"City EPA, Laiwu",,36.228913,117.694797,174,106,25,42,29,21,22,21,1010,94,2,20140907180000
376,Laiwu,,36.213688,117.682612,308,166,27,23,35,22,-,-,0,-,-,20140907180000
377,"Lunan Pharmaceutical Factory, Linyi",,35.061671,118.299527,199,216,12,30,18,22,19,19,0,97,1,20140907180000
378,"Yihe compound, Linyi",,35.056752,118.34739,174,170,17,32,25,19,19,19,0,97,1,20140907180000
379,"Linyi University, Linyi",,35.114777,118.293414,185,1,11,32,15,21,19,19,0,97,1,20140907180000
380,City EPA,Nanfang,35.104871,118.353518,157,106,23,18,23,13,19,19,0,97,1,20140907180000
381,"Xinguang woolen factory, Linyi",,34.981004,118.282,185,186,13,21,20,13,19,19,0,97,1,20140907180000
382,"Hongfu Baijiu Factory, Linyi",,34.998788,118.257275,194,172,14,22,12,14,19,19,0,97,1,20140907180000
384,"Hedong insurance company, Linyi",,35.089354,118.40812,153,142,24,28,18,11,19,19,0,97,1,20140907180000
385,"Jianghua vehicule center, Linyi",,35.010082,118.435749,159,95,14,32,13,11,19,19,0,97,1,20140907180000
386,Linyi,,35.10428,118.362202,199,216,12,30,18,22,19,19,0,97,1,20140907180000
387,"Heima group, Dezhou",,37.466063,116.314134,180,113,35,16,7,16,24,21,1008,82,1,20140907180000
388,"Monitoring station, Dezhou",,37.433107,116.377312,175,136,32,4,8,11,24,21,1008,82,1,20140907180000
389,"Supervision Station, Dezhou",,37.449689,116.324709,178,154,35,8,11,22,24,21,1008,82,1,20140907180000
390,"Huayu technical school, Dezhou",,37.462809,116.357559,167,106,40,20,13,14,24,21,1008,82,1,20140907180000
391,"Shuangyi group, Dezhou",,37.478848,116.316362,194,152,34,25,8,18,24,21,1008,82,1,20140907180000
392,Dezhou,,37.434959,116.363366,194,154,40,25,13,22,24,21,1008,82,1,20140907180000
393,"Dongchang District Government, Liaocheng",,36.444473,115.971733,170,96,29,9,9,19,24,22,1008,83,2,20140907180000
394,"Light Machinery Factory No. 2, Liaocheng",,36.456788,116.002383,177,131,37,11,9,17,24,22,1008,83,2,20140907180000
395,"City committee communist party school, Liaocheng",,36.479537,115.989288,168,105,28,9,9,15,24,22,1008,83,2,20140907180000
396,"Customs, Liaocheng",,36.431933,115.956974,167,88,28,17,6,17,24,22,1008,83,2,20140907180000
397,"Hongshun Garden, Liaocheng",,36.471124,115.960319,172,123,35,11,8,16,24,22,1008,83,2,20140907180000
398,"BDA, Liaocheng",,36.459407,116.043621,173,124,28,8,6,19,24,22,1008,83,2,20140907180000
399,Liaocheng,,36.456792,115.991051,177,131,37,17,9,19,24,22,1008,83,2,20140907180000
400,"City EPA, Binzhou",,37.38024,118.026895,191,92,21,22,19,12,25,22,1008,79,1,20140907180000
401,"Beizhong new school, Binzhou",,37.38374,117.988996,177,122,12,24,2,20,25,22,1008,79,1,20140907180000
402,"No.2 water factory, Binzhou",,37.36155,118.002648,223,150,11,16,8,15,25,22,1008,79,1,20140907180000
403,"Keling Chemical factory, Binzhou",,37.396138,117.943609,175,109,17,15,29,16,25,22,1008,79,1,20140907180000
404,"Yinhe logistics company, Binzhou",,37.356122,117.943326,191,121,12,31,34,16,25,22,1008,79,1,20140907180000
405,"Bilin compond, Binzhou",,37.36815,117.978964,193,142,10,18,9,14,25,22,1008,79,1,20140907180000
406,Binzhou,,37.382639,117.976606,223,150,21,31,34,20,25,22,1008,79,1,20140907180000
407,"Bureau of Meteorology, Heze",,35.248625,115.428775,169,90,27,16,3,17,20,19,0,89,1,20140907180000
408,"Sewage treatment plant, Heze",,35.222517,115.531511,172,91,20,9,7,12,20,19,0,89,1,20140907180000
409,"Municipal CPPCC, Heze",,35.237125,115.480591,168,83,26,13,6,17,20,19,0,89,1,20140907180000
410,"Huarun Pharmaceutical Company, Heze",,35.261463,115.524873,158,73,25,14,7,15,20,19,0,89,1,20140907180000
411,"Heze University, Heze",,35.269706,115.460934,175,91,33,12,7,14,20,19,0,89,1,20140907180000
412,Heze,,35.233354,115.486503,177,105,33,18,7,17,20,19,0,89,1,20140907180000
413,"Shiji Park, Shijiazhuang",,38.03155,114.547873,192,131,28,25,18,12,21,20,1008,94,1,20140907180000
414,"Xinan College, Shijiazhuang",,38.012764,114.473163,185,128,16,15,19,9,21,20,1008,94,1,20140907180000
415,"Chemical College, Shijiazhuang",,38.055503,114.569816,162,145,11,24,13,10,21,20,1008,94,1,20140907180000
416,"Worker hospital, Shijiazhuang",,38.051784,114.461209,191,140,25,22,9,9,21,20,1008,94,1,20140907180000
417,"Northwest Water Company, Shijiazhuang",,38.140638,114.508038,195,130,19,26,8,9,21,20,1008,94,1,20140907180000
418,"High-tech zone, Shijiazhuang",,38.040482,114.610775,193,143,19,28,11,12,21,20,1008,94,1,20140907180000
419,"Fenglong Montain, Shijiazhuang",,37.910829,114.360264,194,90,61,7,16,10,21,20,1008,94,1,20140907180000
1130,"Zhengding Unicom, Shijiazhuang",,38.159458,114.59879,217,304,33,48,14,13,21,20,1008,94,1,20140907180000
1131,"Luancheng Communications, Shijiazhuang",,37.906534,114.638785,253,168,27,40,45,12,21,20,1008,94,1,20140907180000
1132,"Gaocheng Experimental School, Shijiazhuang",,38.039518,114.867812,234,157,27,16,24,14,21,20,1008,94,1,20140907180000
1133,"Wuji EPA, Shijiazhuang",,38.17862,114.997012,288,169,39,43,34,16,21,20,1008,94,1,20140907180000
1134,"Shenze Power Supply Bureau, Shijiazhuang",,38.197674,115.219126,285,218,27,28,17,20,21,20,1008,94,1,20140907180000
1135,"Zhaoxian EPA, Shijiazhuang",,37.77171,114.775957,227,141,43,17,37,13,21,20,1008,94,1,20140907180000
1136,"Gaoyi County City Hall, Shijiazhuang",,37.623535,114.612729,248,158,31,19,8,11,21,20,1008,94,1,20140907180000
1137,"Zanhuang County City Hall, Shijiazhuang",,37.672898,114.398269,174,94,27,28,4,8,21,20,1008,94,1,20140907180000
1138,"Jingxing Bureau of Meteorology, Shijiazhuang",,38.038788,114.158406,169,133,27,34,2,11,21,20,1008,94,1,20140907180000
1139,"Pingshan Ye River, Shijiazhuang",,38.266657,114.210275,200,137,21,40,8,12,21,20,1008,94,1,20140907180000
420,Shijiazhuang,,38.042926,114.520834,193,145,25,28,19,12,21,20,1008,94,1,20140907180000
421,"No. 12 middle school, Tangshan",,39.659306,118.190271,156,76,22,37,9,19,-,-,0,-,-,20140907180000
422,"Ceramics Company, Tangshan",,39.669255,118.225185,211,105,35,18,19,12,23,19,1008,78,1,20140907180000
423,"Commodities Bureau, Tangshan",,39.642301,118.191265,235,168,31,33,11,18,23,19,1008,78,1,20140907180000
424,"Leidazhanzi Station, Tangshan",,39.644375,118.150383,312,196,66,38,14,19,23,19,1008,78,1,20140907180000
425,"Supply and marketing cooperatives, Tangshan",,39.632334,118.17232,291,172,42,22,26,18,23,19,1008,78,1,20140907180000
1140,"Guye District City Hall, Tangshan",,39.741379,118.460246,333,259,31,52,18,21,23,19,1008,78,1,20140907180000
1141,"Kaiping Stations, Tangshan",,39.675246,118.275149,288,253,38,29,13,11,23,19,1008,78,1,20140907180000
1142,"Fengnan District City Hall, Tangshan",,39.5834,118.097454,304,182,64,60,7,14,23,19,1008,78,1,20140907180000
1143,"Fengrun City Hall, Tangshan",,39.840355,118.175338,298,280,47,27,13,16,23,19,1008,78,1,20140907180000
1144,"Qianxi EPA, Tangshan",,40.153339,118.317265,186,115,30,28,5,13,23,19,1008,78,1,20140907180000
1145,"Caofeidian Xinli  Primary School, Tangshan",,39.291232,118.462182,249,188,81,57,9,8,23,19,1008,78,1,20140907180000
1146,"Zunhua EPA, Tangshan",,40.206249,117.997315,185,110,39,21,18,13,23,19,1008,78,1,20140907180000
1147,"Qianan No.1 middle school, Tangshan",,40.004248,118.717055,229,126,34,21,14,17,23,19,1008,78,1,20140907180000
1266,"Luannan County , Tangshan",,39.511132,118.686928,300,171,107,19,16,13,23,19,1008,78,1,20140907180000
1267,"Yutian County , Tangshan",,39.908249,117.751417,206,154,27,44,9,13,23,19,1008,78,1,20140907180000
426,Tangshan,,39.632175,118.186472,304,253,64,60,26,18,-,-,0,-,-,20140907180000
427,"City Monitoring Station, Qinhuangdao",,39.958109,119.607773,152,95,25,48,9,19,,,0,,,20140907180000
428,"Beidaihe, Qinhuangdao",,39.829209,119.53194,204,110,26,17,37,7,,,0,,,20140907180000
429,"Shanhai Pass, Qinhuangdao",,40.019298,119.767898,122,82,13,49,4,15,,,0,,,20140907180000
430,"Contruction Plazz, Qinhuangdao",,39.943187,119.542912,167,126,34,26,33,19,,,0,,,20140907180000
431,"City government, Qinhuangdao",,39.93711,119.612769,198,116,18,24,30,19,,,0,,,20140907180000
1148,"Qinglong EPA, Qinhuangdao",,40.419223,118.958002,190,89,112,9,3,10,23,19,0,78,1,20140907180000
1149,"Changli EPA, Qinhuangdao",,39.714369,119.173237,322,202,48,15,31,15,,,0,,,20140907180000
1268,"Lulong County Bureau of Meteorology , Qinhuangdao",,39.901091,118.904857,423,315,47,19,38,25,23,19,0,78,1,20140907180000
432,Qinhuangdao,,39.936485,119.606263,198,126,34,48,33,19,-,-,0,-,-,20140907180000
433,"CongTai Park, Handan",,36.620197,114.501891,191,101,21,6,3,8,26,21,0,69,1,20140907180000
434,"City EPA, Handan",,36.618145,114.518822,231,113,18,13,2,10,26,21,0,69,1,20140907180000
435,"East Sewage Factory, Handan",,36.616064,114.548714,221,136,21,20,4,8,26,21,0,69,1,20140907180000
436,"Mine Hospital, Handan",,36.578149,114.509854,173,84,18,7,3,4,26,21,0,69,1,20140907180000
1150,"Fengfeng mine Inland Revenue Department, Handan",,36.423085,114.245994,271,191,16,20,8,17,23,21,0,81,2,20140907180000
1151,"Shexian EPA, Handan",,36.589084,113.692341,159,57,27,6,3,9,,,0,,,20140907180000
1152,"Ci County Vocational Education Center, Handan",,36.380247,114.390119,189,96,24,16,5,12,,,0,,,20140907180000
1153,"Yongnian government guesthouse, Handan",,36.783297,114.502905,278,199,23,25,39,7,24,21,0,81,1,20140907180000
1154,"Wuan BDA, Handan",,36.686223,114.269009,297,423,25,1,11,29,,,0,,,20140907180000
1085,Handan,,36.625683,114.544812,231,136,21,20,4,10,24,21,0,81,1,20140907180000
437,"Road and Bridge Corporation, Xingtai",,37.096415,114.538799,211,145,15,27,3,12,24,21,1008,81,1,20140907180000
438,"Dahuo fontain, Xingtai",,37.097563,114.488001,212,127,8,7,12,19,24,21,1008,81,1,20140907180000
439,"Xingtai Normal College, Xingtai",,37.053404,114.531819,192,125,21,13,9,13,26,21,1008,69,1,20140907180000
440,"Environment protection office, Xingtai",,37.06253,114.490985,200,183,17,14,12,16,24,21,1008,81,1,20140907180000
1155,"Cultural centers within the mound, Xingtai",,37.293569,114.524873,198,127,22,16,9,13,24,21,1008,81,1,20140907180000
383,Xingtai,,37.071066,114.510749,212,145,15,27,12,19,24,21,1008,81,1,20140907180000
441,"City Monitoring Station, Baoding",,38.871737,115.527103,195,133,100,16,26,30,24,22,1007,86,1,20140907180000
442,"Surface water Company, Baoding",,38.842891,115.467326,314,226,57,17,9,16,24,22,1007,86,1,20140907180000
443,"Huadian II, Baoding",,38.896748,115.528102,278,186,101,3,14,0,20,14,1007,69,2,20140907180000
444,"Reception Center, Baoding",,38.911905,115.477301,383,262,42,28,4,17,24,22,1007,86,1,20140907180000
445,"Film Factory, Baoding",,38.876949,115.448383,350,286,50,18,9,39,24,22,1007,86,1,20140907180000
446,"Natatorium, Baoding",,38.863815,115.499212,279,233,55,17,30,24,24,22,1007,86,1,20140907180000
1156,"Qingyuan City Hall, Baoding",,38.771758,115.502189,344,222,43,6,12,17,24,22,1007,86,1,20140907180000
1157,"Xushui EPA, Baoding",,39.025781,115.668023,332,279,106,15,58,19,24,22,1007,86,1,20140907180000
1158,"Zhouzhou Monitoring Stations, Baoding",,39.493241,116.040187,188,141,43,22,12,7,24,22,1007,86,1,20140907180000
1159,"Gaobeidian EPA, Baoding",,39.3329,115.885891,207,156,43,26,30,10,24,22,1007,86,1,20140907180000
447,Baoding,,38.874791,115.471124,383,286,100,28,30,39,24,22,1007,86,1,20140907180000
448,"Century Compound, Zhangjiakou",,40.770279,114.909106,72,11,13,4,34,1,18,0,1013,18,3,20140907180000
449,"North Pumping Station, Zhangjiakou",,40.874362,114.910119,61,17,4,10,18,10,18,0,1013,18,3,20140907180000
450,"Hardware Warehouse, Zhangjiakou",,40.81232,114.887119,-,-,-,-,-,-,-,-,0,-,-,20140907180000
451,"Tanji Chang, Zhangjiakou",,40.796301,114.89811,57,7,23,9,8,2,18,0,1013,18,3,20140907180000
1160,"Xiahuayuan EPA, Zhangjiakou",,40.509345,115.302442,57,35,44,18,11,0,18,0,1013,18,3,20140907180000
1161,"Huaian EPA, Zhangjiakou",,40.68157,114.398646,25,33,30,25,13,0,18,0,1013,18,3,20140907180000
1162,"Huailai Fuqian Primary School, Zhangjiakou",,40.422204,115.530285,65,-,1,2,11,3,18,0,1013,18,3,20140907180000
1269,"Zhangbei EPA , Zhangjiakou",,41.166775,114.732369,59,31,20,3,4,0,18,0,1013,18,3,20140907180000
1270,"Kangbao County Environmental Protection Agency , Zhangjiakou",,41.837866,114.591246,57,80,35,2,3,2,18,0,1013,18,3,20140907180000
1271,"Guyuan County welfare , Zhangjiakou",,41.669984,115.687401,68,6,25,4,5,3,18,0,1013,18,3,20140907180000
1272,"Shangyi County Environmental Protection Bureau , Zhangjiakou",,41.086638,113.984688,65,50,26,13,6,15,18,0,1013,18,3,20140907180000
1273,"Yuxian Secondary School , Zhangjiakou",,39.84699,114.601986,70,40,35,7,2,3,18,0,1013,18,3,20140907180000
1274,"Yang County Vocational Education Center , Zhangjiakou",,40.106343,114.134732,97,29,-,-,2,-,18,0,1013,18,3,20140907180000
1275,"Wan county Environmental Protection Agency , Zhangjiakou",,40.770459,114.75033,70,25,35,9,3,2,18,0,1013,18,3,20140907180000
473,"Nankou road, Tianjin",,39.174022,117.199688,182,106,16,34,4,10,23,19,1008,78,2,20140907180000
1276,"Zhuolu County Environmental Protection Agency , Zhangjiakou",,40.374273,115.221393,42,23,23,2,5,6,18,0,1013,18,3,20140907180000
452,Zhangjiakou,,40.825744,114.893659,72,17,27,10,34,13,18,0,1013,18,3,20140907180000
453,"Railway, Chengde",,40.917557,117.972331,72,68,38,9,4,6,20,4,1010,22,3,20140907180000
454,"Cultural Center, Chengde",,40.974625,117.824437,91,65,41,7,1,8,20,4,1010,22,3,20140907180000
455,"Bank of China, Chengde",,40.985582,117.958304,76,50,39,10,27,9,20,4,1010,22,3,20140907180000
456,"BDA, Chengde",,40.937567,117.969325,76,106,53,10,16,8,20,4,1010,22,3,20140907180000
457,"Ligong, Chengde",,41.012579,117.94428,82,40,42,4,1,6,20,4,1010,22,3,20140907180000
1163,"Chengde County EPA, Chengde",,40.776643,118.17646,179,104,37,12,3,9,20,4,1010,22,3,20140907180000
1164,"Xinglong County City Hall, Chengde",,40.424301,117.513488,188,108,61,20,6,12,20,4,1010,22,3,20140907180000
1165,"Luanping EPA, Chengde",,40.950792,117.350715,74,34,54,15,10,10,20,4,1010,22,3,20140907180000
1166,"Fengning County City Hall, Chengde",,41.216739,116.658037,61,43,27,9,4,1,20,4,1010,22,3,20140907180000
1277,"Longhua EPA , Chengde",,41.311956,117.739605,68,25,37,4,6,8,20,4,1010,22,3,20140907180000
458,Chengde,,40.955652,117.968737,82,44,53,10,27,9,20,4,1010,22,3,20140907180000
459,"Municipal EPB, Cangzhou",,38.323507,116.876746,158,87,46,12,5,9,23,19,1008,78,1,20140907180000
460,"Cangxian Urban Construction Bureau, Cangzhou",,38.299495,116.890734,179,91,34,7,1,9,23,19,1008,78,1,20140907180000
461,"TV Broadcast Station, Cangzhou",,38.325525,116.863761,184,97,37,7,6,10,23,19,1008,78,1,20140907180000
1167,"Qing County City Hall, Cangzhou",,38.589643,116.815876,197,78,11,35,5,4,23,19,1008,78,1,20140907180000
1168,"Poyoushi City Hall, Cangzhou",,38.089516,116.590575,13,14,1,12,19,6,23,19,1008,78,1,20140907180000
1169,"Huanghua Finance Bureau Training Center, Cangzhou",,38.377793,117.343356,168,12,44,14,35,2,23,19,1008,78,1,20140907180000
462,Cangzhou,,38.305035,116.844625,184,97,46,12,6,10,23,19,1008,78,1,20140907180000
463,"Environmental Monitoring Supervision Center, Langfang",,39.558157,116.720995,190,130,26,15,13,11,23,19,1008,78,1,20140907180000
464,"TCM Medical Material Company, Langfang",,39.519096,116.689914,191,110,26,15,6,13,23,19,1008,78,1,20140907180000
465,"BDA, Langfang",,39.576175,116.779041,194,122,27,22,8,10,23,19,1008,78,1,20140907180000
466,"North China Institute of Aerospace, Langfang",,39.53517,116.743027,198,130,30,44,7,13,23,19,1008,78,2,20140907180000
1170,"Guan Party School, Langfang",,39.446185,116.311026,162,82,45,27,7,9,23,19,1008,78,1,20140907180000
1171,"Xianghe EPA, Langfang",,39.76725,117.015252,224,157,46,33,12,11,23,19,1008,78,1,20140907180000
1172,"Wenan County EPA, Langfang",,38.880927,116.47001,273,158,62,15,14,12,23,19,1008,78,1,20140907180000
1173,"Three Rivers Department of Transportation, Langfang",,39.989419,117.091528,191,106,37,13,6,11,23,19,1008,78,1,20140907180000
1278,"Yongqing EPA , Langfang",,39.329071,116.510917,194,136,24,23,13,13,23,19,1008,78,1,20140907180000
1279,"Dacheng EPA, Langfang",,38.712628,116.665751,291,175,55,22,22,14,23,19,1008,78,1,20140907180000
467,Langfang,,39.539148,116.689668,194,130,27,28,13,13,23,19,1008,78,1,20140907180000
468,"Hengshui City EPB, Hengshui",,37.739679,115.695929,217,100,42,7,8,13,19,18,0,93,1,20140907180000
469,"Environmental Monitoring Station, Hengshui",,37.738593,115.648837,191,130,36,23,13,14,19,18,0,93,1,20140907180000
470,"Electrical Machine North Factory, Hengshui",,37.758686,115.70094,184,111,39,26,3,14,19,18,0,93,1,20140907180000
1174,"Anping EPA, Hengshui",,38.238559,115.537988,298,188,38,45,16,23,19,18,0,93,1,20140907180000
1175,"Jizhou EPA, Hengshui",,37.548552,115.58679,216,115,37,25,7,11,19,18,0,93,1,20140907180000
1280,"Zaoqiang EPA, Hengshui",,37.520698,115.714936,217,130,97,11,6,10,19,18,0,93,1,20140907180000
1281,"Wuyi EPA, Hengshui",,37.801554,115.898697,218,135,38,11,10,12,19,18,0,93,1,20140907180000
1282,"Wuqiang EPA , Hengshui",,38.03557,115.959767,13,147,38,22,7,20,19,18,0,93,1,20140907180000
1283,"Raoyang EPA , Hengshui",,38.230652,115.741041,296,181,45,14,9,16,19,18,0,93,1,20140907180000
1284,"Gucheng County , Hengshui",,37.347569,115.966707,227,71,43,9,10,9,19,18,0,93,1,20140907180000
471,Hengshui,,37.739562,115.676066,217,130,42,26,13,14,19,18,0,93,1,20140907180000
1176,"Xinji City Hall, Xinji",,37.949711,115.230084,250,144,53,17,20,18,19,18,0,93,1,20140907180000
474,"Qinjian street, Tianjin",,39.166588,117.15104,195,145,24,37,12,9,23,19,1008,78,1,20140907180000
475,"Nanjing Road, Tianjin",,39.120958,117.195112,187,98,24,23,8,8,23,19,1008,78,2,20140907180000
476,"Dazhigu No.8 road, Tianjin",,39.111811,117.25147,174,71,24,23,6,8,23,19,1008,78,1,20140907180000
477,"Qianjin street, Tianjin",,39.09371,117.207981,176,102,17,25,9,6,23,19,1008,78,2,20140907180000
478,"Huaihe street, Tianjin",,39.227167,117.191293,184,133,15,40,3,9,23,19,1008,78,1,20140907180000
479,"Xiangshan street, Tianjin",,39.134752,117.275125,-,-,-,-,-,-,-,-,0,-,-,20140907180000
480,"Yuejin Road, Tianjin",,39.088177,117.320884,180,93,20,37,3,11,23,19,1008,78,2,20140907180000
481,"Zhujiang street, Tianjin",,39.064463,117.231268,-,-,-,-,-,-,-,-,0,-,-,20140907180000
482,"No.4 street, Tianjin",,39.035228,117.713424,188,100,20,17,7,9,23,19,1008,78,2,20140907180000
483,"Yongming road, Tianjin",,38.840392,117.463805,183,84,28,15,9,16,23,19,1008,78,2,20140907180000
484,"Xinhua street, Tianjin",,39.138671,117.010083,184,121,34,22,22,19,23,19,1008,78,1,20140907180000
485,"Jingu Road, Tianjin",,38.985659,117.381254,186,140,28,11,7,16,23,19,1008,78,1,20140907180000
486,"Tanggu Yingkou street, Tianjin",,39.021768,117.656454,174,104,44,23,11,12,23,19,1008,78,1,20140907180000
487,"Hexi Yijing road, Tianjin",,39.248392,117.798043,241,131,29,33,7,16,23,19,1008,78,1,20140907180000
488,"Jianshe Road, Tianjin",,39.720075,117.310588,72,125,34,31,5,17,23,19,1008,78,1,20140907180000
489,"Quanzhou South road, Tianjin",,39.373857,117.050329,184,112,31,18,2,15,23,19,1008,78,1,20140907180000
490,"Donghuan road, Tianjin",,40.043144,117.451062,169,82,41,9,5,-,23,19,1008,78,1,20140907180000
491,"Tuanpowa, Tianjin",,38.920418,117.16299,203,117,27,9,5,18,23,19,1008,78,1,20140907180000
493,"Beiwei No.2 road, Tianjin",,38.943857,116.920624,194,107,35,28,16,12,23,19,1008,78,1,20140907180000
494,"Haitai fazhan No.2 road, Tianjin",,39.079608,117.096583,192,129,16,38,8,14,23,19,1008,78,1,20140907180000
495,"Hangtian road, Tianjin",,39.152244,117.381309,183,106,19,38,7,10,23,19,1008,78,1,20140907180000
496,"Hanbei road, Tianjin",,39.159768,117.770477,191,103,29,39,8,13,23,19,1008,78,2,20140907180000
497,"Baobai highway, Tianjin",,39.51757,117.349635,178,573,35,10,5,14,23,19,1008,78,1,20140907180000
498,Tianjin,,39.085164,117.207281,187,98,24,23,8,8,23,19,1008,78,2,20140907180000
499,"Wolong bridge, Hangzhou",,30.24371,120.132762,155,62,19,12,5,9,25,21,1008,78,2,20140907180000
500,"Hemu primary school, Hangzhou",,30.309669,120.124507,163,69,34,28,20,9,25,21,1008,78,2,20140907180000
501,"Zhejiang Agricultural University, Hangzhou",,30.265601,120.197583,162,72,30,22,16,8,25,21,1008,78,2,20140907180000
502,"Xiasha, Hangzhou",,30.303516,120.352618,154,55,43,6,7,5,25,21,1008,78,2,20140907180000
503,"Yunqi, Hangzhou",,30.178555,120.093142,119,54,29,8,4,7,25,21,1008,78,2,20140907180000
504,"Xixi, Hangzhou",,30.272425,120.068144,156,58,30,17,7,10,25,21,1008,78,2,20140907180000
505,"Chengxiang town, Hangzhou",,30.179493,120.274184,156,81,33,30,32,8,25,21,1008,78,2,20140907180000
506,"Qiandao lake, Hangzhou",,29.638139,119.031092,89,31,30,1,3,6,25,21,1008,78,2,20140907180000
507,"Linping town, Hangzhou",,30.415948,120.305059,153,53,40,15,4,6,25,21,1008,78,2,20140907180000
509,"No.2 Middle School, Hangzhou",,30.044303,119.956356,158,76,19,7,6,9,26,21,1008,74,2,20140907180000
510,"City Hall, Hangzhou",,30.234185,119.723503,157,-,45,11,8,10,26,21,1008,74,2,20140907180000
511,"No. 4 middle school, Hangzhou",,30.229428,119.699591,157,63,25,8,5,8,26,21,1008,74,2,20140907180000
512,Hangzhou,,30.271756,120.159765,166,80,39,28,20,10,26,21,1008,74,2,20140907180000
513,"City Station, Wenzhou",,28.009715,120.679129,95,32,25,22,6,7,23,22,0,95,1,20140907180000
514,"Ouhai, Wenzhou",,28.001846,120.641982,85,39,20,29,7,7,23,22,0,95,1,20140907180000
515,"Longwan, Wenzhou",,27.968122,120.768393,85,39,23,25,5,7,23,22,0,95,1,20140907180000
516,"Nanpu, Wenzhou",,27.981763,120.683685,82,41,16,33,5,16,23,22,0,95,1,20140907180000
517,Wenzhou,,27.990985,120.703425,95,32,25,22,6,7,23,22,0,95,1,20140907180000
518,"Monitoring station, Jiaxing",,30.75437,120.767373,80,33,49,1,6,7,24,21,1008,83,2,20140907180000
519,"Jiaxing University, Jiaxing",,30.745099,120.735004,102,33,46,1,4,7,24,21,1008,83,2,20140907180000
520,"Qinghe Primary School, Jiaxing",,30.775685,120.747969,82,35,44,7,7,6,24,21,1008,83,2,20140907180000
521,Jiaxing,,30.751627,120.762862,80,33,49,1,6,7,24,21,1008,83,2,20140907180000
522,"Chengbei water plant, Huzhou",,30.891155,120.096593,99,38,44,8,6,8,24,21,1008,83,2,20140907180000
523,"Jishan new village, Huzhou",,30.859939,120.120168,144,53,60,11,11,9,24,21,1008,83,2,20140907180000
524,"Town west water plant, Huzhou",,30.862371,120.084577,122,54,59,5,6,8,24,21,1008,83,2,20140907180000
525,Huzhou,,30.892304,120.091694,144,38,60,11,11,9,24,21,1008,83,2,20140907180000
526,"Donghu middle school, Shaoxing",,29.990447,120.647547,132,57,46,14,10,7,25,21,1008,78,2,20140907180000
527,"City EPA station, Shaoxing",,30.001695,120.584318,152,65,47,17,12,3,25,21,1008,78,2,20140907180000
528,"Chengdong BDA committee, Shaoxing",,29.986643,120.613578,151,58,41,12,13,4,25,21,1008,78,2,20140907180000
529,"Paojiang station, Shaoxing",,30.07574,120.62154,119,54,45,11,11,9,25,21,1008,78,2,20140907180000
530,"Shaoxing technical school, Shaoxing",,29.930983,120.577131,129,57,18,7,7,7,25,21,1008,78,2,20140907180000
531,"Library, Shaoxing",,29.706266,120.253183,155,73,47,9,16,8,25,21,1008,78,2,20140907180000
532,"Transporation management station, Shaoxing",,29.726405,120.221602,160,89,45,8,10,10,25,21,1008,78,2,20140907180000
533,"Dongpu Town Governement, Shaoxing",,30.049601,120.539893,124,57,35,15,15,7,25,21,1008,78,2,20140907180000
534,Shaoxing,,29.993122,120.590182,152,58,47,17,13,9,-,-,0,-,-,20140907180000
535,"City Monitoring Station, Jinhua",,29.100031,119.690373,186,106,49,14,17,9,21,21,0,94,0,20140907180000
536,"No.15 middle school, Jinhua",,29.074022,119.652121,188,98,50,8,13,8,21,21,0,94,0,20140907180000
537,"No.4 middle school, Jinhua",,29.110109,119.653654,209,112,46,12,24,9,21,21,0,94,0,20140907180000
538,"Beiyuan, Jinhua",,29.332898,120.083351,174,104,31,25,17,11,21,21,0,94,0,20140907180000
539,"Jiangdong, Jinhua",,29.302486,120.095291,172,96,48,19,16,12,21,21,0,94,0,20140907180000
540,Jinhua,,29.076083,119.65215,209,112,50,14,24,9,21,21,0,94,0,20140907180000
541,"EPA building, Quzhou",,28.937291,118.876081,155,66,28,19,13,7,26,24,1009,86,1,20140907180000
542,"Experimental school, Quzhou",,28.961502,118.880916,153,69,25,7,12,5,26,24,1009,86,1,20140907180000
543,"Quzhou University, Quzhou",,28.971452,118.860052,147,56,14,7,6,12,26,24,1009,86,1,20140907180000
544,Quzhou,,28.966994,118.864252,155,66,28,19,13,12,26,24,1009,86,1,20140907180000
545,"Putuo east port, Zhoushan",,29.951412,122.317679,70,22,49,2,2,4,24,23,1008,94,1,20140907180000
546,"Dinghai tanfeng, Zhoushan",,30.018014,122.126566,65,26,36,5,3,9,24,23,1008,94,1,20140907180000
547,Zhoushan,,29.983049,122.210763,109,54,49,6,3,9,24,23,1008,94,1,20140907180000
548,"Taizhou EPA building, Taizhou",,28.651216,121.42331,124,57,41,6,2,6,23,23,0,98,1,20140907180000
549,"Luqiao Tian Yang Wang, Taizhou",,28.574364,121.381194,117,56,33,12,1,6,23,23,0,98,1,20140907180000
550,"Huangyan EPA building, Taizhou",,28.656151,121.285064,102,40,19,10,1,10,23,23,0,98,1,20140907180000
551,"Yu Zhuang Qian, Lishui",,28.419638,119.883884,102,35,20,15,4,6,26,23,1009,81,1,20140907180000
552,"Monitoring station building, Lishui",,28.444379,119.923103,97,41,12,15,21,5,26,23,1009,81,1,20140907180000
553,"Liandu primary school, Lishui",,28.450912,119.939332,132,62,17,18,4,4,26,23,1009,81,1,20140907180000
554,Lishui,,28.464224,119.927201,99,43,17,16,3,6,25,23,1008,87,1,20140907180000
1248,Jingningxian,,27.977454,119.634837,61,42,2,10,2,5,25,23,1008,87,1,20140907180000
555,Taigu Primary School,,29.864178,121.60022,104,51,22,16,5,7,24,23,1007,94,1,20140907180000
556,Qianhu shuihan,,29.862459,121.5328,152,70,26,25,6,6,24,23,1008,94,1,20140907180000
557,Sanjiang secondary schools,,29.891563,121.568427,151,64,25,25,13,7,24,23,1007,94,1,20140907180000
558,Longsai Hospital,,29.957301,121.726734,147,57,28,16,17,8,24,23,1007,94,1,20140907180000
559,Beilun District EPB,,29.911633,121.850773,102,48,27,10,3,6,24,23,1007,94,1,20140907180000
560,Wanli University,,29.821314,121.574364,158,83,28,17,8,8,24,23,1007,94,1,20140907180000
561,Qianhu water plant,,29.774416,121.648136,85,39,26,5,132,6,24,23,1008,94,1,20140907180000
562,Municipal management station,,29.899182,121.626691,117,58,25,17,43,8,24,23,1008,94,1,20140907180000
1177,Daxie Literary Museum,,29.9027,121.986447,93,40,25,9,119,6,24,23,1007,94,1,20140907180000
1178,Cixi EPB,,30.165807,121.248991,107,47,40,11,124,13,25,24,1009,94,1,20140907180000
1179,Cixi Experimently Primary School,,30.179808,121.268672,122,62,39,26,10,9,24,23,1008,94,1,20140907180000
1180,"Yongsan Park, Yuyao",,30.050842,121.162477,149,65,37,35,12,7,24,23,1007,94,1,20140907180000
1182,Fenghua EPB,,29.666557,121.42069,159,72,25,6,4,10,24,23,1008,94,1,20140907180000
1183,"Yuelong station, Ninghai",,29.296505,121.445872,97,42,37,6,4,6,24,23,1008,94,1,20140907180000
1184,"Wenfeng Primary School, Xiangshan",,29.470908,121.889544,97,39,35,3,2,7,24,23,1007,94,1,20140907180000
1185,"Chengnan Primary School, Ninghai",,29.293812,121.43666,80,44,36,3,4,6,24,23,1008,94,1,20140907180000
1186,"Xingang Primary School, Xiangshan",,29.203878,121.952514,74,25,45,5,3,6,24,23,1008,94,1,20140907180000
1356,Haishu City Monitoring Center,,29.86835,121.539341,158,78,21,27,6,6,24,23,1007,94,1,20140907180000
1357,Fenghua Xikou government,,29.693164,121.29331,114,52,24,9,3,5,24,23,1008,94,1,20140907180000
1294,Ningbo,,29.865766,121.548164,158,83,28,17,132,8,24,23,1007,94,1,20140907180000
1187,Fuyang,,30.046157,119.96468,158,76,19,7,6,9,-,-,0,-,-,20140907180000
1188,Yiwu,,29.304353,120.079794,174,104,48,25,17,12,-,-,0,-,-,20140907180000
1189,Zhuji,,29.711185,120.240748,160,89,47,9,16,10,26,21,1008,74,2,20140907180000
563,"Shanxi Road , Nanjing",,32.06795,118.779216,161,83,49,15,13,11,24,23,1008,94,1,20140907180000
564,"Ruijin Road , Nanjing",,32.029321,118.80817,155,74,25,16,10,10,24,23,1007,94,1,20140907180000
565,"Xuanwu Lake, Nanjing",,32.075423,118.800188,156,72,45,6,15,6,24,23,1008,94,1,20140907180000
566,"Olympic Center, Nanjing",,32.007171,118.742217,166,80,43,6,3,7,24,23,1008,94,1,20140907180000
567,"Xianlin University Town , Nanjing",,32.106958,118.919882,157,88,46,9,5,10,24,23,1008,94,1,20140907180000
568,Nanjing,,32.058179,118.802061,157,94,52,26,10,12,24,23,1007,94,1,20140907180000
569,"Shangfang hill , Suzhou",,31.24502,120.565211,127,41,32,22,7,7,24,21,1008,83,2,20140907180000
570,"Wuzhong District , Suzhou",,31.268105,120.61717,102,62,41,9,3,7,24,21,1008,83,3,20140907180000
571,"Suzhou New District , Suzhou",,31.297277,120.547262,129,46,35,21,13,7,24,21,1008,83,3,20140907180000
572,"Suzhou Industrial Area, Suzhou",,31.307603,120.673257,112,49,40,14,12,8,24,21,1008,83,2,20140907180000
573,"Xiangcheng district, Suzhou",,31.368674,120.645209,124,46,31,17,4,8,24,21,1008,83,2,20140907180000
574,Suzhou,,31.296701,120.589493,144,62,30,14,8,7,24,21,1008,83,2,20140907180000
575,"South suburb , Nantong",,31.957836,120.917218,132,55,27,8,12,4,20,19,1003,94,1,20140907180000
576,"Xinghu park, Nantong",,31.927873,120.944254,139,59,29,15,12,5,20,19,1003,93,1,20140907180000
577,"Zilang school, Nantong",,32.039638,120.814358,114,51,31,16,13,0,20,19,1003,94,1,20140907180000
578,Nantong,,31.978005,120.898555,139,59,29,15,12,8,20,19,1003,93,1,20140907180000
579,Lianyungang,,34.595509,119.226814,152,84,21,27,10,7,8,8,1016,96,0,20140907180000
580,"Hongmen police substation, Lianyungang",,34.588692,119.146693,89,44,24,11,5,8,22,21,1009,96,0,20140907180000
581,"Xugou Nuclear Expert Village , Lianyungang",,34.749957,119.373707,87,50,22,28,10,10,22,21,1009,96,0,20140907180000
582,"Hengrui pharmaceutical company, BDA, Lianyungang",,34.697574,119.353668,89,50,25,24,5,7,22,21,1009,96,0,20140907180000
583,"City Monitoring Station, Lianyungang",,34.586791,119.186929,87,51,24,8,3,8,22,22,1009,95,0,20140907180000
584,"Yellow river new village , Xuzhou",,34.271542,117.177241,107,48,33,4,9,11,23,22,1009,88,2,20140907180000
585,"Tongshan Veterinary Hospital , Xuzhou",,34.307086,117.197766,89,30,30,7,9,10,23,22,1009,88,2,20140907180000
586,"New Town , Xuzhou",,34.213992,117.261718,102,52,38,3,2,13,24,22,1009,90,1,20140907180000
587,"Taoyuan road, Xuzhou",,34.289822,117.249721,97,55,4,6,6,10,24,22,1009,90,1,20140907180000
588,"Agricultural Science Academy , Xuzhou",,34.27655,117.299079,63,40,26,5,12,7,24,22,1009,90,1,20140907180000
589,"Tongshan EPA, Xuzhou",,34.179384,117.171798,104,52,26,1,6,8,24,22,1009,90,1,20140907180000
590,Xuzhou,,34.20346,117.289825,107,56,36,7,9,12,23,22,1009,88,2,20140907180000
591,Yangzhou,,32.39233,119.418446,159,69,10,19,10,5,11,9,0,90,6,20140907180000
592,"Hanjiang Monitoring Station, Yangzhou",,32.374218,119.394484,127,55,23,18,20,5,22,20,0,86,1,20140907180000
593,"No. 4 Hospital, Yangzhou",,32.401394,119.44444,112,56,28,10,15,3,22,20,0,86,1,20140907180000
594,"City Monitoring Station, Yangzhou",,32.406588,119.41591,107,51,23,7,6,5,22,20,0,85,2,20140907180000
595,"University Town , Wuxi",,31.484752,120.273571,109,55,35,4,10,6,24,21,1008,83,3,20140907180000
596,"Shibei High School , Wuxi",,31.619969,120.279584,122,52,24,24,17,2,24,21,1008,83,3,20140907180000
597,"Yuhong Elementary School , Wuxi",,31.561155,120.249588,139,65,41,16,9,7,24,21,1008,83,3,20140907180000
598,Wuxi,,31.488746,120.31575,151,65,36,26,16,10,-,-,0,-,-,20140907180000
599,Changzhou,,31.808037,119.979205,172,86,6,22,36,13,11,9,0,88,5,20140907180000
600,"Chengjian School, Changzhou",,31.776476,119.937681,139,61,24,25,13,10,22,22,1003,97,2,20140907180000
601,"Changzhou Engineering Institute , Changzhou",,31.806828,119.966724,124,55,23,17,16,9,22,22,1003,97,2,20140907180000
602,"Wujin Monitoring Station, Changzhou",,31.701788,119.939676,139,76,19,16,12,12,22,22,1003,97,2,20140907180000
603,"City Monitoring Station, Changzhou",,31.777201,119.979426,154,69,31,21,19,9,22,22,1003,97,2,20140907180000
604,Zhenjiang,,32.18597,119.431281,170,79,4,39,15,13,9,8,0,93,5,20140907180000
605,"New District Administrative office , Zhenjiang",,32.186174,119.685021,122,60,22,22,9,11,24,23,1007,94,1,20140907180000
696,Taiyuan,,37.871115,112.555178,168,95,15,12,12,17,-,-,0,-,-,20140907180000
606,"Vocational Education Center , Zhenjiang",,32.212973,119.496253,119,60,18,20,8,9,24,23,1007,94,1,20140907180000
607,"Dantu Monitoring Station , Zhenjiang",,32.130026,119.435432,122,67,30,19,12,9,24,23,1007,94,1,20140907180000
608,"City Monitoring Station, Zhenjiang",,32.202178,119.439766,112,76,30,24,13,4,24,23,1007,94,1,20140907180000
609,"Gaogang Adminstrative office , Taizhoushi",,32.300768,119.886757,89,39,14,7,9,6,22,20,0,86,1,20140907180000
610,"Students Innovation Park , Taizhoushi",,32.461672,119.892761,147,52,27,2,10,4,22,20,0,86,1,20140907180000
611,Taizhoushi,,32.453555,119.927852,147,49,27,14,22,11,22,20,0,86,1,20140907180000
612,"Yancheng power station , Yancheng",,33.400859,120.123067,85,47,30,5,6,3,-,-,0,-,-,20140907180000
613,Yancheng,,33.345939,120.168504,144,52,30,5,3,7,11,10,1016,95,4,20140907180000
614,"Wenfeng Middle School , Yancheng",,33.370531,120.134041,74,35,29,7,5,5,-,-,0,-,-,20140907180000
615,"BDA Management Committe, Yancheng",,33.393191,120.22978,104,49,25,8,3,4,-,-,0,-,-,20140907180000
616,"City Monitoring Station, Yancheng",,33.390623,120.164423,13,42,28,7,2,5,22,20,0,86,1,20140907180000
617,Suqian,,33.960666,118.281004,160,87,24,7,5,7,11,10,0,91,6,20140907180000
618,"Suqian College , Suqian",,33.951472,118.298523,97,40,28,13,2,8,22,21,0,91,1,20140907180000
619,"Suqian Middle School , Suqian",,33.95784,118.249505,112,54,19,9,7,8,22,21,0,92,1,20140907180000
620,"Suyu District Environmental Protection Agency , Suqian",,33.94932,118.326569,153,54,28,7,44,9,22,21,0,92,1,20140907180000
621,"City Monitoring Station, Suqian",,33.956982,118.277022,139,55,19,2,5,8,22,21,0,92,1,20140907180000
622,Taizhou,,28.653436,121.425185,129,57,39,11,2,10,23,23,0,98,1,20140907180000
623,Donghu Liyuan,,30.572324,114.377844,163,101,15,23,3,9,26,25,1007,94,2,20140907180000
624,Yuehu Lake,,30.554662,114.256937,159,90,17,51,4,8,26,25,1007,94,2,20140907180000
625,Hankou Huaqiao ,,30.61724,114.287652,5,114,15,57,6,12,26,25,1007,94,2,20140907190000
626,Wuchang Ziyang ,,30.530801,114.309438,157,125,24,47,2,5,26,25,1007,94,2,20140907190000
627,Qingshan Ganghua,,30.622435,114.375599,179,146,13,34,11,11,26,25,1007,94,2,20140907190000
628,Dunkou Xinou,,30.480091,114.162176,159,121,25,17,4,7,26,25,1007,94,2,20140907190000
629,Donghu Gaoxin,,30.48095,114.40724,163,96,24,41,4,7,26,25,1007,94,2,20140907190000
630,Wujianshan,,30.63114,114.135907,185,139,18,50,0,13,26,25,1007,94,2,20140907190000
631,Yuanshun Road,,30.297142,113.858587,147,60,39,4,2,6,28,25,1008,84,3,20140907190000
632,Wuhan,,30.590689,114.310838,179,146,24,58,11,12,26,25,1007,94,2,20140907190000
1190,"Silingsan Factory, Yichang",,30.713288,111.306585,1,1,15,0,0,7,27,24,1008,76,3,20140907190000
633,Yichang,,30.689528,111.292131,1,1,19,0,0,9,27,24,1008,76,3,20140907190000
633,Yichang,,30.689528,111.292131,1,1,19,0,0,9,27,24,1008,76,3,20140907190000
1191,"City Library , Jingzhou",,30.31494,112.260844,172,89,11,12,6,12,27,25,1007,85,2,20140907190000
1192,"City committee communist party school, Jingzhou",,30.35054,112.20743,165,83,31,18,10,12,32,25,1006,60,2,20140907190000
1193,"kerong EPA, Jingzhou",,30.302965,112.29443,1,1,18,0,0,13,24,23,1006,94,0,20140907190000
634,Jingzhou,,30.332608,112.245451,172,89,18,12,6,13,27,25,1007,85,2,20140907190000
634,Jingzhou,,30.332608,112.245451,172,89,18,12,6,13,27,25,1007,85,2,20140907190000
635,Huangshi,,30.19723,115.043908,171,119,30,29,9,25,23,25,1010,93,1,20140907190000
635,Huangshi,,30.19723,115.043908,171,119,30,29,9,25,23,25,1010,93,1,20140907190000
1194,"Chenjiaying, Huangshi",,30.232823,115.067923,171,119,11,29,9,25,23,,1010,93,1,20140907190000
1195,"Chenjiawan , Huangshi",,30.200422,115.082138,165,84,35,29,13,23,23,,1010,93,1,20140907190000
1196,"Xinxialu, Huangshi",,30.17332,114.954357,162,87,35,22,13,20,23,,1010,93,1,20140907190000
1197,"Tie montian, Huangshi",,30.203885,114.906439,171,87,30,1,1,12,23,,1010,93,1,20140907190000
1198,"BDA, Huangshi",,30.207491,115.031739,170,88,34,22,9,23,23,,1010,93,1,20140907190000
636,Shiyan,,32.627208,110.803311,167,86,18,13,6,6,21,,0,99,1,20140907190000
636,Shiyan,,32.627208,110.803311,167,86,18,13,6,6,21,,0,99,1,20140907190000
1199,"Wudang Mountain , Shiyan",,32.392921,111.047655,137,50,17,1,3,7,22,,,95,1,20140907190000
1200,"Riverside Village , Shiyan",,32.647286,110.785335,159,86,15,7,1,6,21,,0,99,1,20140907190000
1201,"Liujiagou , Shiyan",,32.636732,110.731129,167,83,8,13,5,5,21,,0,99,1,20140907190000
1202,"Yunyang County District automatic air station , Shiyan",,32.833065,110.816809,-,-,-,-,-,-,-,,0,-,-,20140907190000
637,Xiangyang,,32.007029,112.128496,170,91,17,6,2,12,25,,1009,92,1,20140907190000
637,Xiangyang,,32.007029,112.128496,170,91,17,6,2,12,25,,1009,92,1,20140907190000
638,Ezhou,,30.389244,114.899884,173,88,36,18,12,25,25,25,1017,92,1,20140907190000
638,Ezhou,,30.389244,114.899884,173,88,36,18,12,25,25,25,1017,92,1,20140907190000
1203,"City government, Ezhou",,30.391836,114.892822,173,88,25,18,12,17,25,,1017,92,1,20140907190000
1204,"Zhaojiaba, Ezhou",,30.368966,114.90365,170,84,36,8,4,20,25,,1017,92,1,20140907190000
1205,"Fankou BDA, Ezhou",,30.410759,114.818225,177,124,36,29,13,38,25,,1017,92,1,20140907190000
639,Jingmen,,31.033208,112.205093,134,-,34,-,-,13,-,21,0,-,-,20140907190000
639,Jingmen,,31.033208,112.205093,134,-,34,-,-,13,-,21,0,-,-,20140907190000
640,Xiaogan,,30.922089,113.922387,185,109,21,1,1,6,26,25,1007,94,2,20140907190000
640,Xiaogan,,30.922089,113.922387,185,109,21,1,1,6,26,25,1007,94,2,20140907190000
1206,"wenhua street, Shenyang , Xiaogan",,30.925856,113.92104,-,-,-,-,-,-,-,21,0,-,-,20140907190000
1207,"Dongcheng District , Huludao , Xiaogan",,30.917963,113.943904,185,109,21,1,1,6,26,25,1007,94,2,20140907190000
641,Huanggang,,30.45124,114.877378,176,107,38,17,9,25,26,25,1017,92,2,20140907190000
641,Huanggang,,30.45124,114.877378,176,107,38,17,9,25,26,25,1017,92,2,20140907190000
1208,"Dazhou Island, Huanggang",,30.446205,114.900323,169,107,36,17,9,23,25,,1017,92,1,20140907190000
1209,"Workers Center , Huanggang",,30.469244,114.912504,176,99,38,5,4,25,25,,1017,92,1,20140907190000
642,Xianning,,29.838978,114.327898,158,90,30,11,17,18,22,25,983,93,1,20140907190000
642,Xianning,,29.838978,114.327898,158,90,30,11,17,18,22,25,983,93,1,20140907190000
1210,"Municipal Development and Reform Commission , Xianning",,29.818645,114.328461,158,90,22,11,1,18,22,,983,93,1,20140907190000
1211,"Xianan District Governement, Xianning",,29.51107,114.181864,147,78,17,15,4,16,23,,991,92,1,20140907190000
1212,"Yangtze River Industrial Park , Xianning",,29.883098,114.32909,156,81,30,9,17,13,22,,983,93,1,20140907190000
1213,"Qianshan Park, Xianning",,29.815351,114.328689,139,66,26,11,3,14,22,,983,93,1,20140907190000
643,Suizhou,,31.688342,113.388675,162,113,14,11,6,17,23,,1003,96,1,20140907190000
643,Suizhou,,31.688342,113.388675,162,113,14,11,6,17,23,,1003,96,1,20140907190000
1338,"City committee communist party school, Suizhou",,31.725316,113.3648,180,113,-,15,3,20,23,,1003,96,1,20140907190000
1339,"Forestry Bureau, Suizhou",,31.690065,113.383157,-,83,-,-,-,-,-,,0,-,-,20140907190000
644,Enshi,,30.292138,109.484562,59,-,42,-,-,12,-,20,0,-,-,20140907190000
644,Enshi,,30.269587,109.493042,59,-,42,-,-,12,-,20,0,-,-,20140907190000
645,Xiantao,,30.360228,113.460616,162,-,30,-,-,5,-,22,0,-,-,20140907190000
645,Xiantao,,30.360228,113.460616,162,-,30,-,-,5,-,22,0,-,-,20140907190000
646,Qianjiang,,30.399387,112.905661,134,-,34,-,-,13,-,21,0,-,-,20140907190000
646,Qianjiang,,30.399387,112.905661,134,-,34,-,-,13,-,21,0,-,-,20140907190000
647,Tianmen,,30.661027,113.172549,162,-,30,-,-,5,-,21,0,-,-,20140907190000
647,Tianmen,,30.661027,113.172549,162,-,30,-,-,5,-,21,0,-,-,20140907190000
1088,Shennongjia,,31.741307,110.685554,164,-,40,-,-,4,-,20,0,-,-,20140907190000
1088,Shennongjia,,31.741307,110.685554,164,-,40,-,-,4,-,20,0,-,-,20140907190000
1214,"Xiangcheng Yundong Street, Xiangfan",,32.017716,112.16102,-,-,-,-,-,-,-,,0,-,-,20140907190000
655,"City Environmental Monitoring Station, Baotou",,40.657201,109.886738,42,32,27,9,8,7,,,0,,,20140907190000
656,"Donghe EPB, Baotou",,40.586213,110.002224,61,71,20,20,11,5,,,0,,,20140907190000
657,"Baotou shopping mall, Baotou",,40.508334,109.819085,87,45,27,7,5,4,,,0,,,20140907190000
658,"Huilong logistics, Baotou",,40.633436,109.879821,21,27,28,9,6,9,,,0,,,20140907190000
659,Baotou,,40.658597,109.846051,87,75,27,28,11,8,13,1,0,31,1,20140907190000
660,"Huatai Automobile Mall, Eerduosi",,39.837048,109.972209,55,30,72,10,3,4,13,1,1013,31,1,20140907190000
661,"Olympus Garden, Eerduosi",,39.789171,109.987742,57,56,57,16,48,3,13,1,1013,31,1,20140907190000
662,Eerduosi,,39.609284,109.78704,72,78,87,16,48,4,13,1,1013,31,1,20140907190000
663,"Tianyi Road, Chifeng",,42.275552,118.88507,21,17,49,4,3,2,16,3,1011,31,3,20140907190000
664,"Songshan No.1 Middle School, Chifeng",,42.329307,118.793045,25,50,44,6,3,1,16,3,1011,31,3,20140907190000
665,"Hada Street, Chifeng",,42.280714,118.988235,21,82,25,3,5,9,16,3,1011,31,3,20140907190000
666,"Songshan Road, Chifeng",,42.171487,118.89501,21,57,47,1,12,5,18,2,1010,23,7,20140907190000
667,Chifeng,,42.259752,118.893027,25,82,49,6,16,9,16,3,1011,31,3,20140907190000
674,Fuzhou,,26.071406,119.301294,63,47,16,16,2,6,27,24,1008,84,1,20140907190000
675,"Xidong, Xiamen",,24.815345,118.161848,72,26,56,11,2,5,28,26,1008,89,1,20140907190000
676,"Hongwen, Xiamen",,24.473969,118.156281,55,17,53,7,5,5,28,26,1008,89,1,20140907190000
677,"Gulangyu, Xiamen",,24.443168,118.068571,82,35,62,16,8,6,28,26,1008,89,1,20140907190000
678,"Huli, Xiamen",,24.51235,118.099146,59,30,51,24,8,4,28,26,1008,89,1,20140907190000
679,Xiamen,,24.477187,118.094402,82,35,62,24,8,6,-,-,0,-,-,20140907190000
680,"Qingyuan Montain, Quanzhou",,24.939503,118.598337,95,81,26,15,13,5,28,26,1008,89,1,20140907190000
681,"Tushan Street, Quanzhou",,24.90867,118.586397,97,78,7,8,6,5,28,26,1008,89,1,20140907190000
682,"Wanan, Quanzhou",,24.304154,118.070903,99,57,23,17,7,8,28,26,1008,89,1,20140907190000
683,Quanzhou,,24.87179,118.68001,99,78,29,17,10,8,28,26,1008,89,1,20140907190000
687,"Jiancaoping, Taiyuan",,37.887889,112.528383,175,107,10,16,12,17,17,15,1013,88,1,20140907190000
688,"Jianhe, Taiyuan",,37.910779,112.579258,184,112,11,12,11,16,17,15,1013,88,1,20140907190000
689,"Shanglan, Taiyuan",,38.011589,112.440679,87,64,23,11,10,10,17,15,1013,88,1,20140907190000
690,"Jinyuan, Taiyuan",,37.713164,112.475552,171,96,3,14,15,17,17,15,1013,88,1,20140907190000
691,"Xiaodian, Taiyuan",,37.782137,112.483533,193,107,14,21,26,15,17,15,1013,88,1,20140907190000
692,"Taoyuan, Taiyuan",,37.869752,112.543332,164,77,16,5,14,22,17,16,1013,94,0,20140907190000
693,"Wucheng, Taiyuan",,37.819998,112.576252,182,101,17,11,11,16,17,15,1013,88,1,20140907190000
694,"Nanzhai, Taiyuan",,37.985902,112.555312,174,119,10,13,6,16,17,15,1013,88,1,20140907190000
695,"Jinsheng, Taiyuan",,37.781205,112.494494,206,117,10,18,30,17,17,15,1013,88,1,20140907190000
697,"Monitoring station, Changzhi",,36.194062,113.10389,142,61,11,11,6,12,21,21,0,100,1,20140907190000
698,"Auditing bureau, Changzhi",,36.212787,113.095221,147,60,11,15,8,15,21,21,0,100,1,20140907190000
699,"Qinghua station, Changzhi",,36.154328,113.116385,127,72,12,16,17,18,21,21,0,100,1,20140907190000
700,"No.8 middle school, Changzhi",,36.185451,113.099481,149,63,6,6,14,8,,,0,,,20140907190000
701,Changzhi,,36.195553,113.12292,149,63,13,15,14,15,18,17,0,92,1,20140907190000
702,"Yungang Hotel, Datong",,40.076997,113.278079,25,32,25,6,9,8,10,3,1014,53,3,20140907190000
703,"college of education, Datong",,40.085608,113.27808,42,32,23,6,7,5,10,3,1014,53,3,20140907190000
704,Datong,,40.078016,113.307143,42,41,31,6,18,8,10,3,1014,53,3,20140907190000
705,"Technical Schools, Linfen",,36.07131,111.509046,158,68,16,15,5,28,16,13,0,82,1,20140907190000
706,"Municipal party committee, Linfen",,36.087425,111.508771,117,64,20,1,15,20,16,13,0,82,1,20140907190000
1073,"City Monitoring Station, Linfen",,36.097676,111.518739,155,62,15,17,7,17,16,13,0,82,1,20140907190000
707,"South Airport, Linfen",,36.041614,111.497968,132,66,5,6,1,22,16,13,0,82,1,20140907190000
708,Linfen,,36.087944,111.525098,158,68,20,17,20,28,16,13,0,82,1,20140907190000
709,"City center, Yangquan",,37.848012,113.578636,193,125,22,36,55,13,17,15,1013,88,0,20140907190000
710,Yangquan,,37.857475,113.586921,204,135,32,35,52,25,17,16,1013,94,0,20140907190000
711,"Water Company, Jincheng",,35.504787,112.857245,72,77,11,29,8,15,22,19,1010,80,1,20140907190000
712,"Baiyun shopping mall, Jincheng",,35.492858,112.841566,122,71,5,28,14,16,18,17,1010,92,1,20140907190000
713,"City EPA, Jincheng",,35.488422,112.858528,99,61,6,22,9,20,18,17,1010,92,1,20140907190000
714,"Institute of Technology, Jincheng",,35.484844,112.878073,74,77,5,28,24,16,18,17,1010,92,1,20140907190000
715,"No.1 middle school, Jincheng",,35.478725,112.838636,55,56,5,28,6,10,22,19,1010,80,1,20140907190000
716,Jincheng,,35.490287,112.85794,122,77,9,29,24,17,18,17,1010,92,1,20140907190000
718,"District Government, Shuozhou",,39.320857,112.430641,-,61,-,24,51,-,18,5,1010,31,2,20140907190000
719,"City EPA, Shuozhou",,39.331495,112.407997,-,-,-,-,-,-,-,-,0,-,-,20140907190000
720,"No.2 middle school, Shuozhou",,39.377963,112.432877,85,50,23,35,51,9,18,5,1010,31,2,20140907190000
721,Shuozhou,,39.332756,112.439672,85,50,23,35,51,9,18,5,1010,31,2,20140907190000
722,"Jinlun compound, Jinzhong",,37.697891,112.771017,173,100,5,5,7,17,17,15,1013,88,0,20140907190000
723,"Hydraulic Component Factory, Jinzhong",,37.688355,112.725844,178,103,9,28,11,16,17,16,1013,94,0,20140907190000
724,"Nandu compound, Jinzhong",,37.713148,112.732036,182,110,3,6,3,14,17,16,1013,94,0,20140907190000
725,"Yuci district government, Jinzhong",,37.698228,112.714167,-,-,-,-,-,-,-,-,0,-,-,20140907190000
726,Jinzhong,,37.687705,112.759187,180,110,7,28,11,17,17,16,1013,94,0,20140907190000
727,"Yuncheng Middle School, Yuncheng",,35.012345,111.003215,152,70,18,13,54,23,21,20,1010,94,1,20140907190000
728,"Yudou BDA, Yuncheng",,35.05065,111.029571,124,78,14,22,11,44,20,20,1010,92,0,20140907190000
730,"Regional Technical School, Yuncheng",,35.028727,110.974076,162,78,12,7,8,33,21,20,1010,94,1,20140907190000
731,"Airport new district, Yuncheng",,35.084515,111.05339,158,75,17,9,13,25,21,20,1010,94,1,20140907190000
732,Yuncheng,,35.025675,111.013344,162,78,18,22,54,33,-,-,0,-,-,20140907190000
733,"Jiyin, Xinzhou",,38.413292,112.742432,153,81,12,17,41,17,17,15,1013,88,0,20140907190000
734,"BDA, Xinzhou",,38.450069,112.736723,151,56,7,5,34,17,17,15,1013,88,0,20140907190000
735,"Convention Center, Xinzhou",,38.492043,112.709772,159,71,8,6,29,15,17,16,1013,94,0,20140907190000
736,Xinzhou,,38.417244,112.740742,153,81,12,17,41,17,17,16,1013,94,0,20140907190000
737,"City EPA, Luliang",,37.522189,111.144365,80,57,7,15,11,14,22,16,0,57,3,20140907190000
738,"Soybean factory, Luliang",,37.51689,111.135101,95,48,5,17,4,15,22,16,0,57,3,20140907190000
739,"Water Company, Luliang",,37.53394,111.138834,107,90,7,17,7,17,22,16,0,57,3,20140907190000
740,Luliang,,25.027007,103.668566,107,90,7,17,11,17,22,16,0,57,3,20140907190000
741,"City government, Sanmenxia",,34.776251,111.198781,99,79,8,11,16,1,21,20,1010,94,1,20140907190000
743,"BDA, Sanmenxia",,34.800434,111.204332,119,55,10,4,1,6,21,20,1010,94,1,20140907190000
744,Sanmenxia,,34.771506,111.206129,132,79,10,11,16,14,21,20,1010,94,1,20140907190000
745,"Food Factory, Changchun",,43.919094,125.329521,137,72,109,14,3,10,18,16,1004,88,1,20140907190000
746,"Bus Factory, Changchun",,43.912337,125.293431,93,41,45,11,3,9,18,16,1004,88,1,20140907190000
747,"Institute of Posts and Telecommunications, Changchun",,43.842368,125.285005,147,79,31,17,2,10,18,16,1004,88,1,20140907190000
748,"Laodong Park, Changchun",,43.877293,125.371519,155,79,42,10,3,12,18,16,1004,88,1,20140907190000
749,"Forest area, Changchun",,43.871825,125.331519,151,77,46,15,2,9,18,16,1004,88,1,20140907190000
750,"Jinyuetan, Changchun",,43.79031,125.460561,153,56,43,5,1,8,18,16,1004,88,1,20140907190000
751,"Shuaiwanzi, Changchun",,43.552321,125.639086,163,71,39,6,4,7,17,15,1005,88,1,20140907190000
752,"Economic Development Zone Sanitation Department, Changchun",,43.869221,125.42365,162,82,60,7,2,9,18,16,1004,88,1,20140907190000
753,"High-tech Zone Administrative Committee, Changchun",,43.819064,125.256375,139,70,48,5,3,10,18,16,1004,88,1,20140907190000
754,"Daishan Park, Changchun",,43.852365,125.223399,119,66,65,14,2,9,18,16,1004,88,1,20140907190000
755,Changchun,,43.819415,125.329977,155,79,42,17,3,12,-,-,0,-,-,20140907190000
756,"Hadawan, Jilin",,43.888081,126.545727,144,80,10,26,8,10,15,15,0,96,3,20140907190000
757,"Fengman, Jilin",,43.768169,126.678802,50,16,26,1,2,4,15,15,0,96,3,20140907190000
758,"Electric Power College, Jilin",,43.827403,126.502281,65,50,16,28,2,6,15,15,0,96,3,20140907190000
936,Haikou,,20.028742,110.333225,46,23,22,4,4,6,24,23,1004,94,5,20140907190000
759,"Jiangnan Park, Jilin",,43.83531,126.556519,59,35,15,8,4,5,15,15,0,96,3,20140907190000
760,"Dongjuzi, Jilin",,43.838597,126.590068,46,30,22,5,1,6,15,15,0,96,3,20140907190000
763,Jilin,,43.840137,126.555262,144,80,39,28,8,10,15,15,0,96,3,20140907190000
764,"Lingbei, Haerbin",,45.756979,126.548008,55,30,41,13,6,3,18,16,1002,88,3,20140907190000
765,"Songbei Commercial University, Haerbin",,45.818624,126.566963,42,27,3,8,7,5,18,16,1002,88,3,20140907190000
766,"Acheng huining, Haerbin",,45.544286,126.985183,53,26,42,1,4,3,18,16,1002,88,3,20140907190000
767,"Nangang College Street, Haerbin",,45.724121,126.604906,59,41,48,12,3,5,18,16,1002,88,3,20140907190000
768,"Taiping Hongwei Park, Haerbin",,45.775332,126.695101,74,30,40,11,4,6,18,16,1002,88,3,20140907190000
769,"Daowai Chengde Square, Haerbin",,45.768637,126.640955,59,27,41,12,5,4,18,16,1002,88,3,20140907190000
770,"Xiangfang Hongqi Street, Haerbin",,45.733936,126.691083,55,29,43,12,3,7,18,16,1002,88,3,20140907190000
771,"Dongli Heping Road, Haerbin",,45.727765,126.651974,82,35,43,10,7,4,18,16,1002,88,3,20140907190000
772,"Daoli Jianguo Road, Haerbin",,45.749715,126.59891,55,27,38,24,12,6,18,16,1002,88,3,20140907190000
773,"Pingfang Light Factory, Haerbin",,45.611951,126.620898,46,14,39,4,2,5,18,16,1002,88,3,20140907190000
774,"Hulan Normal College, Haerbin",,45.983745,126.616553,57,16,43,10,7,5,18,16,1002,88,3,20140907190000
775,"Provincial Academy of Agricultural Sciences, Haerbin",,45.686141,126.626517,59,28,37,12,6,5,18,16,1002,88,3,20140907190000
776,Haerbin,,45.805757,126.541007,55,30,41,13,7,5,-,-,0,-,-,20140907190000
777,"Anju Compound, Qiqihaer",,47.365672,123.937016,61,-,73,1,2,5,16,15,1001,93,1,20140907190000
778,"Farming Vehicule Factory, Qiqihaer",,47.326793,123.961427,57,20,49,7,6,9,17,16,1002,91,2,20140907190000
779,"Fuqu EPA, Qiqihaer",,47.1853,123.62322,87,48,105,3,1,6,16,15,1001,93,1,20140907190000
780,"City Center Square, Qiqihaer",,47.343096,123.96192,63,19,37,5,1,6,17,16,1002,91,2,20140907190000
1217,"City Environmental Monitoring Station, Qiqihaer",,47.303639,123.957551,78,27,53,6,5,6,17,16,1002,91,2,20140907190000
781,Qiqihaer,,47.356387,123.924736,87,48,105,7,6,9,16,15,1001,93,1,20140907190000
782,"Saertu District, Daqing",,46.582368,125.152904,93,52,31,6,9,3,22,16,1003,63,2,20140907190000
783,"Datong District, Daqing",,46.036786,124.842115,117,47,101,2,5,5,22,16,1003,63,2,20140907190000
784,"Honggang District, Daqing",,46.418381,124.88973,117,48,64,5,5,4,22,16,1003,63,2,20140907190000
785,"Longfeng District, Daqing",,46.535426,125.107043,65,43,50,5,5,5,22,16,1003,63,2,20140907190000
786,"Ranghulu District, Daqing",,46.635123,124.85648,102,45,70,7,8,4,22,16,1003,63,2,20140907190000
787,Daqing,,46.591414,125.110838,117,52,101,7,9,5,22,16,1003,63,2,20140907190000
788,"Locomotive Factory, Mudanjiang",,44.610589,129.652672,124,55,45,10,6,5,14,13,1006,98,1,20140907190000
789,"No. 1 hospital, Mudanjiang",,44.567775,129.617043,59,30,34,7,2,5,14,13,1006,98,1,20140907190000
1220,"EPA building, Mudanjiang",,44.567777,129.620658,109,58,5,9,5,2,14,13,1006,98,1,20140907190000
1221,"Cultural Square, Mudanjiang",,44.586388,129.623164,78,51,1,14,18,9,14,13,1006,98,1,20140907190000
790,Mudanjiang,,44.553619,129.640246,124,64,45,14,18,9,14,13,1006,98,1,20140907190000
791,"Mingzhu Plaza, Hefei",,31.782847,117.201512,171,132,162,23,5,13,25,24,1007,94,1,20140907190000
792,"Sanli Street, Hefei",,31.874637,117.312573,173,108,127,28,8,15,25,24,1007,94,1,20140907190000
793,"Hupo Compound, Hefei",,31.868583,117.264491,170,-,78,8,8,10,25,24,1007,94,1,20140907190000
794,"Dongpu Reservoir, Hefei",,31.90319,117.165584,163,92,157,32,1,10,25,24,1007,94,1,20140907190000
795,"Changjiang middle road, Hefei",,31.855185,117.255484,167,143,12,14,9,8,25,24,1007,94,1,20140907190000
796,"Luyang District, Hefei",,31.941771,117.271504,180,153,5,3,15,13,25,24,1007,94,1,20140907190000
797,"Yaohai District, Hefei",,31.856595,117.341644,185,115,21,7,5,8,25,24,1007,94,1,20140907190000
798,"Baohe District, Hefei",,31.793644,117.307554,188,110,5,2,1,15,25,24,1007,94,1,20140907190000
799,"Lake district, Hefei",,31.736619,117.283501,163,88,22,3,4,3,25,24,1007,94,1,20140907190000
800,"High-tech zone, Hefei",,31.849755,117.129624,165,170,27,22,9,8,25,24,1007,94,1,20140907190000
801,Hefei,,31.819449,117.232753,171,143,162,23,9,13,-,-,0,-,-,20140907190000
802,"Hudong Road No.4 Elementary School, Maanshan",,31.684121,118.511017,165,82,112,18,10,14,24,23,1007,94,1,20140907190000
803,"Tianping Garment Factory, Maanshan",,31.64197,118.488043,170,83,181,10,11,13,24,23,1007,94,1,20140907190000
804,"City education base, Maanshan",,31.711216,118.648913,132,57,13,3,2,7,24,23,1007,94,1,20140907190000
805,"Cihu No.2 elementary school, Maanshan",,31.748546,118.515729,174,102,155,15,6,10,24,23,1007,94,1,20140907190000
806,"Maanshan steel factory power plant, Maanshan",,31.690864,118.48528,173,78,22,6,8,15,24,23,1007,94,1,20140907190000
807,Maanshan,,31.668461,118.511939,174,102,181,18,11,15,24,23,1007,94,1,20140907190000
808,"Science Innovation Center, Wuhu",,31.417056,118.375406,157,72,9,8,3,12,24,23,1007,94,1,20140907190000
809,"No.4 Water Plant, Wuhu",,31.315914,118.376231,30,57,28,9,4,15,24,23,1007,94,1,20140907190000
810,"Monitoring station, Wuhu",,31.348955,118.358154,144,90,18,8,4,8,24,23,1007,94,1,20140907190000
811,"Wuqierling Factory, Wuhu",,31.382068,118.407639,151,69,18,4,8,8,24,23,1007,94,1,20140907190000
812,Wuhu,,31.351007,118.438322,157,90,28,9,8,15,24,23,1007,94,1,20140907190000
1331,Chuzhou,,32.299549,118.322508,-,-,-,-,-,-,-,22,0,-,-,20140907190000
813,"Jiangxi Foreign Affairs Office, Nanchang",,28.678027,115.903436,159,67,22,2,1,7,28,24,1007,74,1,20140907190000
814,"Provincial forestry company, Nanchang",,28.69065,115.898546,156,91,17,3,2,7,28,24,1007,74,1,20140907190000
815,"Institute of Forestry, Nanchang",,28.731518,115.82478,109,52,31,3,5,8,28,24,1007,74,1,20140907190000
816,"Jingdong town government, Nanchang",,28.680659,115.972736,147,60,28,1,2,8,28,24,1007,74,1,20140907190000
817,"Contruction Industry College, Nanchang",,28.684018,115.865891,151,73,18,24,11,11,28,24,1007,74,1,20140907190000
818,"Xianghu, Nanchang",,28.637831,115.9033,159,84,34,9,8,11,28,24,1007,74,1,20140907190000
819,"Martial Arts School, Nanchang",,28.794538,115.752876,95,49,8,4,5,7,28,24,1007,74,1,20140907190000
820,"Petrifaction Company, Nanchang",,28.608634,115.912999,164,89,26,2,2,14,28,24,1007,74,1,20140907190000
821,"Provincial Station, Nanchang",,28.677155,115.941896,132,78,29,6,2,10,28,24,1007,74,1,20140907190000
822,Nanchang,,28.679883,115.863022,164,91,34,8,5,14,28,24,1007,74,1,20140907190000
823,"Lushan Mountain Observatory, Jiujiang",,29.5751,115.998926,-,-,-,-,-,-,-,-,0,-,-,20140907190000
824,"Shili, Jiujiang",,29.668119,115.992381,159,78,10,12,7,7,22,18,1009,74,2,20140907190000
825,"Maoshantou, Jiujiang",,29.700819,115.967192,132,71,14,15,7,9,22,18,1009,74,2,20140907190000
826,"Xiyuan, Jiujiang",,29.723929,115.998206,171,130,13,43,33,6,22,18,1009,74,2,20140907190000
827,"Wuqierling Factory, Jiujiang",,29.640802,116.022713,132,68,21,5,4,2,22,18,1009,74,2,20140907190000
828,"Water Scientific Research Institute, Jiujiang",,29.679179,116.068081,175,106,10,10,28,5,22,18,1009,74,2,20140907190000
829,"Zonghe Industrial Park, Jiujiang",,29.592047,115.916335,129,63,17,12,12,3,22,18,1009,74,2,20140907190000
830,"Petrochemical General Plant, Jiujiang",,29.738832,116.09463,170,93,13,46,8,7,22,18,1009,74,2,20140907190000
831,Jiujiang,,29.70254,116.007025,175,130,21,46,33,9,22,18,1009,74,2,20140907190000
1332,"Feiyu, Xinyu",,27.844697,115.000136,159,91,16,11,11,,27,,1007,90,1,20140907190000
1333,"Beigang, Xinyu",,27.932491,115.103767,154,73,13,2,6,,27,,1007,90,1,20140907190000
1334,"No.2 water factory, Xinyu",,27.839577,114.933915,158,91,5,20,10,,27,,1007,90,1,20140907190000
1335,"Bureau of Meteorology, Xinyu",,27.81048,114.936507,160,114,8,-,22,,27,,1007,90,1,20140907190000
1336,Xinyu,,27.814351,114.922194,160,114,13,20,22,14,27,24,1007,90,1,20140907190000
832,"Tobacco Factory, Zhengzhou",,34.753419,113.687131,155,60,11,9,4,16,21,21,1009,100,1,20140907190000
833,"Textile Machinery Factory, Zhengzhou",,34.773366,113.647067,180,81,8,19,6,17,21,21,1009,100,1,20140907190000
834,"Banking College, Zhengzhou",,34.800856,113.681126,153,74,2,22,11,12,21,21,1009,100,1,20140907190000
835,"Water Supply Company, Zhengzhou",,34.807188,113.571089,163,77,9,22,13,18,21,21,1009,100,1,20140907190000
836,"Economic Development Zone Management Committee, Zhengzhou",,34.717652,113.733182,157,73,6,22,7,10,21,21,1009,100,1,20140907190000
837,"No. 47 middle school, Zhengzhou",,34.772211,113.74009,162,73,4,21,7,10,21,21,1009,100,1,20140907190000
838,"City Monitoring Station, Zhengzhou",,34.748404,113.60514,152,76,6,17,2,14,21,21,1009,100,1,20140907190000
839,"Henan Medical University, Zhengzhou",,34.752637,113.641658,155,65,15,18,6,9,21,21,1009,100,1,20140907190000
840,"Gangli Reservoir, Zhengzhou",,34.952652,113.64248,149,56,6,12,9,12,21,21,1009,100,1,20140907190000
841,Zhengzhou,,34.745417,113.631415,155,76,15,18,6,14,-,-,0,-,-,20140907190000
842,"Henan University No.1 Hospital, Kaifeng",,34.799302,114.352706,191,87,21,12,10,12,21,21,1009,100,1,20140907190000
843,"Maternity And Child Hospital, Kaifeng",,34.795803,114.386103,169,92,15,9,7,13,21,21,1009,100,1,20140907190000
844,"Cancer Hospital, Kaifeng",,34.775428,114.350292,169,92,13,15,8,5,21,21,1009,100,1,20140907190000
845,"Yellow River Conservancy Institute, Kaifeng",,34.826066,114.324772,-,-,-,-,-,-,-,-,0,-,-,20140907190000
846,"Shijixing Kindergarden, Kaifeng",,34.793606,114.302744,185,101,9,14,7,20,21,21,1009,100,1,20140907190000
847,Kaifeng,,34.796346,114.313426,191,101,21,15,10,20,21,21,1009,100,1,20140907190000
852,Jiaozuo,,35.215381,113.248188,163,78,12,17,8,12,21,21,1009,100,1,20140907190000
853,"Cotton Research Institute, Anyang",,36.081435,114.486451,163,63,13,-,6,10,23,21,1008,81,2,20140907190000
854,"Hongmiao Street, Anyang",,36.086733,114.326,172,84,10,22,7,16,23,21,1008,81,2,20140907190000
855,"Yinxing Compound, Anyang",,36.056519,114.36495,190,91,9,26,23,13,23,21,1008,81,2,20140907190000
