locationid,stationname,chinesename,latitude,longitude,pm25,pm10,o3,no2,so2,co,temperature,dewpoint,pressure,humidity,wind,est_time
1,Dongcheng Dongsi,,39.9304,116.423239,172,-,49,39,4,8,24,19,1004,73,1,20140810170000
2,"Temple of Heaven, Dongcheng",,39.887403,116.41324,161,77,66,38,2,7,24,19,1004,73,1,20140810170000
3,West Park officials,,39.930333,116.345162,154,78,51,46,2,8,24,19,1004,73,1,20140810170000
4,West Wanshou Nishinomiya,,39.879354,116.358183,155,71,54,39,2,8,24,19,1004,73,1,20140810170000
5,Chaoyang Olympic Sports Center,,39.983406,116.403253,163,97,47,43,3,5,24,19,1004,73,1,20140810170000
6,Chaoyang Agricultural Exhibition Hall,,39.938331,116.46715,168,79,79,44,3,8,24,19,1004,73,1,20140810170000
7,Haidian Wanliu,,39.988245,116.293062,154,93,42,51,4,6,24,19,1004,73,1,20140810170000
8,The Haidian northern New Area,,40.091313,116.180194,138,-,38,22,4,6,24,19,1004,73,1,20140810170000
9,Haidian Beijing Botanical Garden,,40.003252,116.213097,128,-,92,14,2,10,24,19,1004,73,1,20140810170000
10,Fengtai garden,,39.86423,116.285037,154,-,54,36,2,7,24,19,1004,73,1,20140810170000
11,Fengtai Yungang,,39.82535,116.152237,122,-,55,24,2,6,24,19,1004,73,1,20140810170000
12,Shijingshan city,,39.915286,116.190144,157,77,55,30,2,7,24,19,1004,73,1,20140810170000
13,"Fangshan, Liangxiang",,39.743357,116.14225,145,-,42,26,2,8,24,19,1004,73,1,20140810170000
14,"Huangcunzhen, Daxing",,39.719389,116.410219,160,-,86,30,2,8,24,19,1004,73,1,20140810170000
15,BDA,,39.796197,116.51197,188,-,74,53,4,8,24,19,1004,73,1,20140810170000
16,Tongzhou New Town,,39.887113,116.6689,192,-,47,61,2,6,24,19,1004,73,1,20140810170000
17,Shunyi New Town ,,40.128111,116.660908,143,97,93,14,2,5,24,19,1004,73,1,20140810170000
18,Changping Town,,40.218245,116.236084,90,45,79,23,2,5,24,19,1004,73,1,20140810170000
19,"Mentougou, Longquan Town",,39.938397,116.112323,96,59,44,19,2,7,24,19,1004,73,1,20140810170000
20,Pinggu town,,40.144433,117.106563,108,41,92,7,2,5,24,19,1004,73,1,20140810170000
21,Huairou town,,40.329104,116.63387,108,71,115,9,2,6,24,19,1004,73,1,20140810170000
22,The town of Miyun,,40.371186,116.838053,89,-,113,13,2,6,24,19,1004,73,1,20140810170000
23,Yanqing town,,40.454217,115.978106,17,-,36,2,2,3,24,19,1004,73,1,20140810170000
24,Changping Dingling,,40.293269,116.226108,20,33,95,3,2,4,24,19,1004,73,1,20140810170000
25,Badaling Northwest,,40.36623,115.994146,40,9,21,31,3,5,24,19,1004,73,1,20140810170000
26,Miyun Reservoir,,40.500157,116.91701,77,-,124,1,2,6,24,19,1004,73,1,20140810170000
27,"Donggaocun Zhen, Pinggu",,40.10142,117.126556,86,41,120,8,2,3,24,19,1004,73,1,20140810170000
28,"Yongledianzhen, Tongzhou",,39.713192,116.78905,172,-,34,21,5,5,24,19,1004,73,1,20140810170000
29,"Yufazhen, Daxing",,39.521203,116.306026,181,117,90,1,2,10,24,19,1004,73,1,20140810170000
30,"Liulihezhen, Fangshan",,39.581169,116.006089,158,84,45,26,12,5,24,19,1004,73,1,20140810170000
31,"Qianmen E St, Dongcheng",,39.900402,116.401242,161,-,22,44,2,8,24,19,1004,73,1,20140810170000
32,Yongdingmen Inner St,,39.877401,116.400238,163,-,48,74,4,8,24,19,1004,73,1,20140810170000
33,Xizhimen N St,,39.955352,116.355187,154,97,35,50,4,9,24,19,1004,73,1,20140810170000
34,South Ring Road,,39.857377,116.37421,165,105,30,55,3,8,24,19,1004,73,1,20140810170000
35,East Fourth Ring Road,,39.940273,116.489075,175,79,44,69,2,11,24,19,1004,73,1,20140810170000
36,Beijing,,39.955906,116.474246,168,79,79,44,3,8,24,19,1004,73,1,20140810170000
37,Putuo,,31.232979,121.415378,144,64,29,20,10,6,25,22,1004,83,1,20140810170000
38,Yangpu Sipiao,,31.263795,121.540311,110,50,40,13,5,3,25,22,1004,83,1,20140810170000
39,Shanghai Normal College Primary Division,,31.199031,121.487719,153,57,30,20,5,11,25,22,1004,83,1,20140810170000
40,Dianshan Lake,,31.091338,120.982293,172,76,72,9,13,11,25,22,1004,83,1,20140810170000
41,Hongkou Liangcheng,,31.298906,121.47155,151,58,25,19,9,10,25,22,1004,83,1,20140810170000
42,Jingan,,31.224251,121.429637,153,60,31,18,7,9,25,22,1004,83,1,20140810170000
43,Shanghai Normal University,,31.163531,121.416643,156,57,35,22,11,9,25,22,1004,83,1,20140810170000
44,Chuansha,,31.188626,121.707342,71,28,25,15,6,6,25,22,1004,83,1,20140810170000
45,Zhangjiang,,31.204896,121.581215,100,36,30,19,4,7,25,22,1004,83,1,20140810170000
46,Lingshan Road,,31.226286,121.537317,99,46,32,22,7,8,25,22,1004,83,1,20140810170000
1080,City average,,31.228451,121.478227,130,53,31,19,7,7,25,22,1004,83,1,20140810170000
47,Shanghai,,31.202842,121.453493,153,60,31,20,7,11,25,22,1004,83,1,20140810170000
48,Guangzhou,,23.138517,113.263701,104,48,19,28,44,10,28,26,1005,89,2,20140810170000
49,"Huadu town, Guangzhou",,23.389121,113.220062,104,40,28,21,25,8,28,26,1005,89,2,20140810170000
50,"Luogang Zhenlong, Guangzhou",,23.308027,113.567032,87,37,48,14,3,9,28,26,1005,89,2,20140810170000
51,"LuHu, Guangzhou",,23.151743,113.281842,104,35,15,22,6,7,28,26,1005,89,2,20140810170000
52,"Tianhu, Guangzhou",,23.647433,113.629715,50,17,57,3,4,6,28,26,1005,89,2,20140810170000
53,"Zhudong, Guangzhou",,23.418406,113.078552,93,46,38,21,16,8,28,26,1005,89,2,20140810170000
54,"Modiesha station, Guangzhou",,23.103814,113.338238,63,45,14,23,9,8,28,26,1005,89,2,20140810170000
55,Zhuhai,,22.2677,113.581765,42,40,25,9,2,10,29,27,1005,89,4,20140810170000
1075,"Huicai technical school, Foshan",,23.039667,113.105492,78,50,14,17,27,7,28,26,1004,89,2,20140810170000
56,"Sanshuiyun donghai, Foshan",,23.185788,112.865368,59,49,15,18,20,6,28,26,1004,89,2,20140810170000
57,"Nanhai Bureau of Meteorology, Foshan",,23.046836,113.145764,68,29,12,22,9,8,28,26,1004,89,2,20140810170000
58,"Sanshui Monitoring Station, Foshan",,23.163551,112.890843,53,17,16,9,5,7,28,26,1004,89,2,20140810170000
1087,Foshan,,23.018995,113.126899,78,50,14,22,27,8,28,26,1004,89,2,20140810170000
59,"Ronggui street committee, Shunde",,22.762729,113.258356,61,26,18,27,12,12,28,26,1004,89,2,20140810170000
60,Shunde,,22.80246,113.298701,65,30,18,9,31,12,28,26,1004,89,2,20140810170000
61,"Donghu, Jiangmen",,22.590411,113.087351,55,24,17,9,6,4,29,27,1005,89,4,20140810170000
62,"Taoyuan Atmosphere Premier Station, Jiangmen",,22.72489,112.93404,61,32,25,6,7,6,29,27,1005,89,3,20140810170000
63,Jiangmen,,22.576047,113.087351,55,24,17,9,8,10,29,27,1005,89,4,20140810170000
64,"Kengkouzi station, Zhaoqing",,23.158865,112.570287,5,9,16,3,2,6,28,26,1004,89,2,20140810170000
65,"Mugangzi station, Zhaoqing",,23.067961,112.431934,59,30,11,12,6,7,28,26,1004,89,2,20140810170000
66,"Qixingyanzi station, Zhaoqing",,23.075974,112.477437,-,-,32,-,-,6,-,-,0,-,-,20140810170000
67,Zhaoqing,,23.044571,112.470346,65,30,11,18,7,9,28,26,1004,89,2,20140810170000
68,"Jinguo Bay, Huizhou",,22.937223,114.385567,55,28,28,17,5,5,30,27,1005,84,6,20140810170000
1091,"Xiabu, Huizhou",,23.077493,114.410275,59,23,24,20,5,4,30,27,1005,84,6,20140810170000
69,"Xijiao, Huizhou",,23.338178,114.112867,55,26,48,10,4,4,30,27,1005,84,7,20140810170000
70,"Jiangbei, Huizhou",,23.111706,114.415274,57,37,27,26,5,5,30,27,1005,84,6,20140810170000
71,"Huiyang chuanhu, Huizhou",,22.814485,114.329292,53,20,22,7,5,6,30,27,1005,84,6,20140810170000
72,"Daya bay management committee, Huizhou",,22.739283,114.53631,55,30,20,14,6,4,30,27,1005,84,6,20140810170000
73,Huizhou,,23.109349,114.421164,59,37,27,26,6,5,30,27,1005,84,6,20140810170000
74,"Guancheng No.2 water plant, Dongguan",,23.057294,113.753254,63,16,27,10,8,7,30,28,1005,89,5,20140810170000
75,"Dongcheng Shijing, Dongguan",,23.010039,113.799529,53,19,26,15,8,6,30,28,1005,89,5,20140810170000
76,"Nancheng Xiping, Dongguan",,22.963051,113.743494,61,26,25,10,8,5,30,28,1005,89,5,20140810170000
77,"Nancheng Yuanling, Dongguan",,23.025058,113.751308,63,24,25,7,9,6,30,28,1005,89,5,20140810170000
78,Dongguan,,23.017813,113.756958,65,26,27,11,9,7,30,28,1005,89,5,20140810170000
79,"Zimaling, Zhongshan",,22.505112,113.407183,34,20,20,1,7,7,29,27,1005,89,4,20140810170000
80,"Yangtze River tourist area, Zhongshan",,22.48589,113.439054,21,21,23,4,3,6,29,27,1005,89,4,20140810170000
81,"Huabai Park, Zhongshan",,22.51839,113.374362,38,15,16,3,4,9,29,27,1005,89,4,20140810170000
82,Zhongshan,,22.513997,113.398277,38,20,23,4,7,9,29,27,1005,89,3,20140810170000
83,"No.8 middle school, Shaoguan",,24.767777,113.583537,70,33,34,10,8,6,28,25,1004,75,3,20140810170000
83,"No.8 middle school, Shaoguan",,24.767777,113.583537,70,33,34,10,8,6,28,25,1004,75,3,20140810170000
84,"Forest area, Shaoguan",,24.796107,113.612131,107,59,42,16,32,10,28,25,1004,75,3,20140810170000
84,"Forest area, Shaoguan",,24.796106,113.612131,107,59,42,16,32,10,28,25,1004,75,3,20140810170000
86,"Shaoguan University, Shaoguan",,24.790864,113.646599,87,30,36,19,18,2,28,25,1004,75,3,20140810170000
86,"Shaoguan University, Shaoguan",,24.790864,113.646598,87,30,36,19,18,2,28,25,1004,75,3,20140810170000
88,"Qujiang Monitoring Station, Shaoguan",,24.683042,113.60157,104,57,31,26,18,9,28,25,1004,75,3,20140810170000
88,"Qujiang Monitoring Station, Shaoguan",,24.683042,113.60157,104,57,31,26,18,9,28,25,1004,75,3,20140810170000
89,Shaoguan,,24.807342,113.602712,107,59,42,26,32,10,28,25,1004,75,3,20140810170000
90,"Chaonanzi Station, Shantou",,23.251213,116.406762,59,15,27,2,6,9,30,26,1005,79,2,20140810170000
91,Shantou,,23.350642,116.686306,80,40,28,6,7,8,30,26,1005,79,2,20140810170000
92,"City Environmental Monitoring Station, Zhanjiang",,21.220431,110.397317,38,12,7,8,7,3,29,24,1005,70,2,20140810170000
93,"EPB Dormitory, Zhanjiang",,21.197376,110.406487,42,24,6,8,2,4,29,24,1005,70,2,20140810170000
94,"Xiashan Swimming Park, Zhanjiang",,21.200431,110.415655,38,25,10,8,46,4,29,24,1005,70,2,20140810170000
95,"Zhanjiang Theatre, Zhanjiang",,21.268177,110.366445,59,42,5,7,4,4,29,24,1005,70,2,20140810170000
96,"Mazhang EPA, Zhanjiang",,21.265486,110.335993,55,21,19,5,4,12,29,24,1005,70,2,20140810170000
97,"Potou District EPB, Zhanjiang",,21.247604,110.454508,59,25,17,8,1,4,29,24,1005,70,2,20140810170000
98,Zhanjiang,,21.26832,110.363883,59,42,19,8,7,12,29,24,1005,70,2,20140810170000
99,"Maogang sub-office EPB, Maoming",,21.466435,111.033462,34,20,27,3,3,3,28,26,0,87,2,20140810170000
100,"Petrochemical No. 7 elementaty school, Maoming",,21.648905,110.937861,30,34,20,12,6,9,28,26,0,87,2,20140810170000
101,"Jiankang road, Maoming",,21.662211,110.909482,59,34,12,7,5,11,28,26,0,87,2,20140810170000
102,"Gaoling, Maoming",,21.690558,110.871146,82,52,11,12,9,12,28,26,0,87,2,20140810170000
1094,Maoming,,21.660223,110.929968,82,52,20,12,9,12,28,26,0,87,2,20140810170000
103,"Jiaying University, Meizhou",,24.325415,116.12816,70,35,30,10,6,6,30,26,1005,79,2,20140810170000
104,"Mexian new town, Meizhou",,24.269283,116.084546,72,45,34,10,11,7,30,26,1005,79,2,20140810170000
105,"Environmental Monitoring Center, Meizhou",,24.262778,116.129621,63,41,25,9,5,6,30,26,1005,79,2,20140810170000
1095,Meizhou,,24.285988,116.127065,72,45,34,10,11,7,30,26,1005,79,2,20140810170000
106,"City EPA, Shanwei",,22.772349,115.370227,30,20,24,5,4,8,28,27,1006,92,5,20140810170000
107,"City government, Shanwei",,22.787161,115.375536,34,28,26,3,4,7,28,27,1006,92,5,20140810170000
108,"Xincheng Middle School, Shanwei",,22.789851,115.367124,38,18,25,5,3,5,28,27,1006,92,5,20140810170000
1099,Shanwei,,22.783576,115.38022,34,28,26,5,4,8,28,27,1006,92,5,20140810170000
109,"No.3 elementary school, Heyuan",,23.75435,114.703514,57,52,32,9,1,10,30,25,1005,71,1,20140810170000
109,"No.3 elementary school, Heyuan",,23.755946,114.699091,57,52,32,9,1,10,30,25,1005,71,1,20140810170000
111,"City water company, Heyuan",,23.688709,114.954652,97,48,42,9,43,8,30,25,1005,71,1,20140810170000
111,"City water company, Heyuan",,23.754246,114.682459,97,48,42,9,43,8,30,25,1005,71,1,20140810170000
113,"Heyuan high school, Heyuan",,23.720037,114.699563,104,40,37,7,10,9,30,25,1005,71,1,20140810170000
113,"Heyuan high school, Heyuan",,23.720666,114.693879,104,40,37,7,10,9,30,25,1005,71,1,20140810170000
115,Heyuan,,23.740888,114.705147,104,52,42,9,43,10,30,25,1005,71,1,20140810170000
116,"Yuanyang Lake, Yangjiang",,21.855869,111.983676,25,20,24,2,1,4,28,26,1005,86,3,20140810170000
1100,Yangjiang,,21.855227,111.987308,59,22,24,2,2,8,28,26,1005,86,3,20140810170000
118,"Town governement, Qingyuan",,23.708005,113.026215,30,18,14,12,7,7,28,26,1004,89,2,20140810170000
119,"Fupin district, Qingyuan",,24.185415,113.419369,61,18,13,15,8,8,28,26,1004,89,2,20140810170000
119,"Fupin district, Qingyuan",,23.624781,113.067713,61,18,13,15,8,8,28,26,1004,89,2,20140810170000
121,"Environment protection office, Qingyuan",,23.691109,113.047948,122,59,14,7,7,9,28,26,1004,89,2,20140810170000
121,"Environment protection office, Qingyuan",,23.685931,113.053239,122,59,14,7,7,9,28,26,1004,89,2,20140810170000
123,"Fengcheng Subdistrict, Qingyuan",,23.695447,113.068189,30,18,14,12,7,7,28,26,1004,89,2,20140810170000
124,Qingyuan,,23.679304,113.061513,122,59,14,15,8,9,28,26,1004,89,2,20140810170000
125,"Xiyuan Road, Chaozhou",,23.668654,116.638272,91,37,25,7,11,15,30,26,1005,79,2,20140810170000
126,"Archives Bureau, Chaozhou",,23.667881,116.649104,109,44,28,6,14,15,30,26,1005,79,2,20140810170000
127,"Municipal Corporation, Chaozhou",,23.65035,116.621859,97,40,26,5,11,16,30,26,1005,79,2,20140810170000
1101,Chaozhou,,23.654204,116.626969,109,44,28,7,14,16,30,26,1005,79,2,20140810170000
128,"Donghu Park, Jieyang",,23.532877,116.374427,85,34,26,5,7,9,30,26,1005,79,2,20140810170000
129,"Yuhu Middle School, Jieyang",,23.52682,116.414123,74,36,27,17,10,9,30,26,1005,79,2,20140810170000
130,"Experimental Primary School, Jieyang",,23.571473,116.364137,70,30,29,4,9,8,30,26,1005,79,2,20140810170000
1102,Jieyang,,23.547596,116.37754,85,36,29,17,10,9,30,26,1005,79,2,20140810170000
131,"City Environmental Monitoring Station, Yunfu",,22.936779,112.042248,55,21,6,6,4,9,28,26,1004,89,2,20140810170000
132,"The new city government headquarters, Yunfu",,22.914275,112.044475,46,20,8,6,4,11,28,26,1004,89,2,20140810170000
133,"Muyang police sub-station, Yunfu",,22.951267,112.05923,76,42,8,8,6,7,28,26,1004,89,2,20140810170000
1103,Yunfu,,22.912436,112.049811,76,42,8,8,6,11,28,26,1004,89,2,20140810170000
134,Yantian,,22.587949,114.266899,34,15,30,6,4,5,30,27,1005,84,6,20140810170000
135,Kwai Chung,,22.354168,114.134558,46,34,16,17,3,10,30,27,1005,84,6,20140810170000
135,Kwai Chung,,22.572837,113.867166,46,34,16,17,3,10,30,27,1005,84,6,20140810170000
135,Kwai Chung,,22.627947,114.428875,46,34,16,17,3,10,30,27,1005,84,6,20140810170000
137,Nanyou,,22.513802,113.928051,42,21,30,12,11,4,30,27,1005,84,6,20140810170000
138,Meisha,,22.59611,114.318345,50,27,9,19,19,11,30,27,1005,84,6,20140810170000
139,Xi xiang,,22.717524,114.252304,42,38,13,22,3,7,30,27,1005,84,6,20140810170000
140,Liyuan,,22.54732,114.101205,53,18,12,14,2,5,30,27,1005,84,6,20140810170000
1072,Kwai Chung,,22.354168,114.134558,42,21,19,14,4,11,30,27,1005,84,6,20140810170000
1072,Kwai Chung,,22.627947,114.428875,42,21,19,14,4,11,30,27,1005,84,6,20140810170000
141,OCT,,22.539549,113.992458,34,20,21,7,2,13,30,27,1005,84,6,20140810170000
142,Honghu,,22.559647,114.121976,38,16,16,18,3,3,30,27,1005,84,6,20140810170000
143,Mission Hills,,22.694131,114.050496,34,33,21,10,2,10,30,27,1005,84,6,20140810170000
144,Shenzhen,,22.540382,114.062982,53,38,30,22,19,13,-,-,0,-,-,20140810170000
145,Chengdu,,30.622581,104.069564,63,27,87,15,4,11,28,22,1006,70,3,20140810170000
146,"Jinquan lianghe, Chengdu",,30.710359,103.974209,61,25,39,17,3,10,27,22,1006,74,1,20140810170000
147,"Shilidian, Chengdu",,30.684718,104.17845,78,48,46,22,3,8,27,22,1006,74,1,20140810170000
148,"Sanwayao, Chengdu",,30.568159,104.081524,-,-,108,24,5,-,-,-,0,-,-,20140810170000
149,"Shahepu, Chengdu",,30.633685,104.120536,55,26,45,18,3,10,27,22,1006,74,1,20140810170000
150,"Liang Lane, Chengdu",,30.682601,104.076522,55,27,34,15,1,9,27,22,1006,74,1,20140810170000
151,"Caotang Temple, Chengdu",,30.651891,104.0284,57,24,87,12,4,11,27,22,1006,74,1,20140810170000
152,"Lingyansi, Chengdu",,31.025729,103.615022,42,12,84,1,2,3,27,22,1006,74,1,20140810170000
153,"Fuleshan, Mianyang",,31.472493,104.7806,21,10,24,5,4,7,26,21,1002,62,4,20140810170000
154,"High-tech Zone Water Company, Mianyang",,31.463309,104.674293,53,26,21,16,5,3,26,21,1002,62,4,20140810170000
155,"No.3 water company, Mianyang",,31.505002,104.731054,50,18,23,10,4,3,26,21,1002,62,4,20140810170000
156,Mianyang,,31.465174,104.681731,53,26,25,16,5,7,26,21,1002,62,4,20140810170000
157,"Dongshan Park, Deyang",,31.118648,104.424587,21,8,27,8,5,7,27,22,1006,74,1,20140810170000
158,"Xixiaoqu, Deyang",,31.131159,104.390972,9,9,21,6,7,6,27,22,1006,74,1,20140810170000
159,"City Procuratorate, Deyang",,31.114554,104.407986,21,15,28,6,10,8,27,22,1006,74,1,20140810170000
160,"Refractory Factory, Deyang",,31.108606,104.356506,13,20,28,5,12,4,27,22,1006,74,1,20140810170000
161,Deyang,,31.124715,104.400703,21,20,28,8,12,8,27,22,1006,74,1,20140810170000
162,"Nongnongping, Panzhihua",,26.566698,101.695438,89,52,18,9,5,13,24,18,0,62,1,20140810170000
163,"Hemenkou, Panzhihua",,26.589072,101.578312,97,66,8,13,30,29,24,18,0,62,1,20140810170000
164,"Bingcaogang, Panzhihua",,26.58143,101.718473,109,78,10,26,3,13,24,18,0,62,1,20140810170000
165,"Renhe, Panzhihua",,26.498166,101.746887,109,62,19,6,2,15,24,18,0,62,1,20140810170000
166,"Jinjina, Panzhihua",,26.553226,101.84862,104,81,18,10,54,13,24,18,0,62,1,20140810170000
167,Panzhihua,,26.578779,101.720211,109,81,19,26,54,29,24,18,0,62,1,20140810170000
168,"Shima Middle School, Yibin",,28.815979,104.599199,99,51,36,12,14,7,27,22,1003,68,1,20140810170000
169,"Municipal party committee, Yibin",,28.762654,104.624834,95,25,30,6,33,10,27,22,1003,68,1,20140810170000
170,"No. 4 middle school, Yibin",,28.783257,104.608407,112,52,23,13,27,5,27,22,1003,68,1,20140810170000
171,"City government, Yibin",,28.760477,104.644079,132,85,31,13,36,8,27,22,1003,68,1,20140810170000
172,"Huangjinzui, Yibin",,28.712319,104.578389,89,57,31,15,3,9,27,22,1003,68,1,20140810170000
173,"Shaping Middle School, Yibin",,28.795569,104.681393,68,30,29,7,7,4,27,22,1003,68,1,20140810170000
174,Yibin,,28.748384,104.645766,132,85,36,15,36,10,27,22,1003,68,1,20140810170000
175,"Datang Hill, Zigong",,29.359969,104.757388,144,69,20,10,11,15,24,21,1001,82,2,20140810170000
176,"Yanma Road, Zigong",,29.355752,104.724036,134,78,28,4,4,7,24,21,1001,82,2,20140810170000
177,"Tanmulin Street, Zigong",,29.353555,104.777397,85,25,27,7,8,5,24,21,1001,82,2,20140810170000
178,"Chunhua Road, Zigong",,29.33825,104.771895,104,54,20,6,6,8,24,21,1001,82,2,20140810170000
179,Zigong,,29.33617,104.781138,144,78,28,10,11,15,24,21,1001,82,2,20140810170000
180,"Jiushi Hill, Luzhou",,28.955347,105.434207,76,38,49,5,5,3,25,24,1001,92,2,20140810170000
181,"Xiaoshishang Port, Luzhou",,28.899583,105.447192,93,44,51,7,2,7,25,24,1001,92,2,20140810170000
182,"Lantianxian Bridge, Luzhou",,28.852766,105.4358,91,28,84,13,1,2,25,24,1001,92,2,20140810170000
183,"City Environment Monitoring Station, Luzhou",,28.895898,105.435802,82,32,46,13,1,5,25,24,1001,92,2,20140810170000
184,Luzhou,,28.868782,105.445938,93,44,84,13,5,7,25,24,1001,92,2,20140810170000
185,"City Committee, Nanchong",,30.799993,106.082906,65,24,14,14,15,6,24,24,1004,100,2,20140810170000
186,"Refinery Factory, Nanchong",,30.819412,106.10712,80,33,47,12,9,4,24,24,1004,100,2,20140810170000
187,"Gaoping District Monitoring Station, Nanchong",,30.783291,106.110417,82,40,23,9,14,6,24,24,1004,100,2,20140810170000
188,"Jialing District EPB, Nanchong",,30.761255,106.06818,89,46,13,7,4,9,24,24,1004,100,2,20140810170000
189,"City Environmental Monitoring Station, Nanchong",,30.836519,106.11272,74,24,20,15,5,5,24,24,1004,100,2,20140810170000
190,Nanchong,,30.835511,106.114717,89,46,47,15,15,9,24,24,1004,100,2,20140810170000
1249,"City Monitoring Station, Neijiang",,29.592673,105.036234,72,35,20,8,5,5,24,21,1001,82,2,20140810170000
1250,"Dongxing District Government , Neijiang",,29.592148,105.074966,97,30,28,2,3,4,24,21,1001,82,2,20140810170000
1251,"No 2 middle school, Neijiang",,29.579135,105.068548,95,54,32,4,4,5,24,21,1001,82,2,20140810170000
1252,Neijiang,,29.577653,105.06166,97,54,32,9,7,5,24,21,1001,82,2,20140810170000
1253,"City Monitoring Station, Suining",,30.610641,105.683583,65,34,30,6,1,2,23,21,0,83,2,20140810170000
1254,"Administrative center , Suining",,30.63206,105.819747,50,52,41,3,2,2,23,21,0,83,2,20140810170000
1255,Suining,,30.530053,105.596307,65,52,41,6,16,9,23,21,0,83,2,20140810170000
1256,"City Monitoring Station, Leshan",,29.560651,103.759211,70,29,28,21,5,10,24,22,0,91,2,20140810170000
1257,"Leshan Giant Buddha Scenic Area , Leshan",,29.543938,103.772706,59,27,35,8,2,9,24,22,0,91,2,20140810170000
1258,Leshan,,29.54935,103.767777,89,52,35,22,8,13,24,22,0,91,2,20140810170000
1259,"Heilongtan , Meishan",,30.047726,103.900649,95,44,23,1,1,6,27,22,1006,74,1,20140810170000
1260,"Bureau of Meteorology, Meishan",,30.084591,103.843715,132,64,23,16,7,7,27,22,1006,74,1,20140810170000
1261,"Xuguang Community , Meishan",,30.066277,103.8516,132,60,26,3,2,7,27,22,1006,74,1,20140810170000
1262,"City Monitoring Station, Meishan",,30.059205,103.836229,137,53,30,19,8,6,27,22,1006,74,1,20140810170000
1263,Meishan,,30.072618,103.85064,137,64,30,19,8,7,27,22,1006,74,1,20140810170000
1264,"Ziyang middle school, Ziyang",,30.147763,104.638024,112,72,33,3,1,7,25,21,1001,80,3,20140810170000
1265,Ziyang,,30.126054,104.63004,112,72,39,5,3,10,25,21,1001,80,3,20140810170000
191,Shenyang US Consulate,,41.785668,123.432865,95,76,95,29,11,7,19,18,1002,94,1,20140810170000
192,"Huishan, Shenyang",,41.835421,123.647773,129,64,95,9,4,7,20,19,1003,94,2,20140810170000
193,"Hunnan, Shenyang",,41.758263,123.540809,149,75,63,23,12,8,20,19,1003,94,2,20140810170000
194,"Zhangshi, Shenyang",,41.771679,123.289859,122,63,40,25,6,7,20,19,1003,94,2,20140810170000
195,"Artillery College, Shenyang",,41.835749,123.547799,76,93,101,22,6,7,20,19,1003,94,2,20140810170000
196,"Beiling, Shenyang",,41.849633,123.434146,132,65,62,17,4,8,20,19,1003,94,2,20140810170000
197,"Wenyi Road, Shenyang",,41.767444,123.416144,151,76,80,29,11,8,20,19,1003,94,2,20140810170000
198,"Xiaoheyan, Shenyang",,41.779828,123.484015,151,84,109,23,7,8,20,19,1003,94,2,20140810170000
199,"Taiyuan Street, Shenyang",,41.799646,123.406146,124,57,25,18,5,8,20,19,1003,94,2,20140810170000
200,"Ermao, Shenyang",,41.783011,123.366679,161,81,104,48,24,8,20,19,1003,94,2,20140810170000
201,"Liaoning University, Shenyang",,41.830704,123.361071,156,71,39,16,3,7,20,19,1003,94,2,20140810170000
202,Shenyang,,41.808126,123.437611,95,76,62,29,11,8,19,18,1002,94,1,20140810170000
1104,"wenhua street, Shenyang , Shenyang",,41.774139,123.441839,129,68,44,21,7,8,19,18,1002,94,1,20140810170000
1105,"Tanglin Road , Shenyang , Shenyang",,41.823665,123.562317,78,92,74,26,5,7,20,19,1003,94,2,20140810170000
203,"Ganjingzi, Dalian",,38.9747,121.616893,127,67,28,18,1,4,23,16,1003,65,1,20140810170000
204,"Zhoushuizi, Dalian",,38.951928,121.569981,70,46,27,21,4,7,23,16,1003,65,1,20140810170000
205,"Xinghai No 3 station, Dalian",,38.885779,121.568864,91,56,34,16,4,4,23,16,1003,65,1,20140810170000
206,"Qingniwa Bridge, Dalian",,38.91274,121.638018,112,56,37,49,2,8,24,16,1003,61,2,20140810170000
207,"Fujiazhuang, Dalian",,38.864647,121.629947,78,45,34,13,7,7,23,16,1003,65,1,20140810170000
208,"Qixianling, Dalian",,38.856978,121.523169,68,46,30,12,3,9,23,16,1003,65,1,20140810170000
209,"Lushun, Dalian",,38.808946,121.264063,72,30,17,3,3,4,23,16,1003,65,1,20140810170000
210,"Jinzhou, Dalian",,39.132192,121.753259,93,48,19,24,1,3,23,16,1003,65,1,20140810170000
211,"BDA, Dalian",,39.05213,121.782022,70,30,18,16,4,6,23,16,1003,65,1,20140810170000
212,"D&D Port, Dalian",,39.064087,121.981874,55,24,23,11,1,9,23,16,1003,65,1,20140810170000
213,Dalian,,38.91478,121.619625,78,45,34,13,7,8,23,16,1003,65,1,20140810170000
214,"Bearing Factory, Dandong",,40.068929,124.345703,80,45,33,8,10,7,19,17,1003,87,1,20140810170000
215,"Financial school, Dandong",,40.158723,124.432593,87,44,36,7,6,17,19,17,1003,87,1,20140810170000
216,"Yuanbaoshan water, Dandong",,40.149431,124.391698,78,36,33,4,10,15,19,17,1003,87,1,20140810170000
217,"Experimental Primary School, Dandong",,39.887343,124.158056,97,53,31,12,6,21,19,17,1003,87,1,20140810170000
218,Dandong,,40.002046,124.360479,104,52,31,17,8,21,19,17,1003,87,1,20140810170000
1106,"minzhu bridge, Dandong , Dandong",,40.112974,124.373604,95,52,25,17,8,21,19,17,1003,87,1,20140810170000
1107,"yuanbaoshan, Dandong , Dandong",,40.146298,124.399081,76,34,31,5,10,15,19,17,1003,87,1,20140810170000
1108,"linjiang houjie, Dandong , Dandong",,40.152757,124.431745,104,51,31,8,7,18,19,17,1003,87,1,20140810170000
219,"BDA, Panjin",,41.157144,122.06645,93,44,40,17,-,14,18,18,0,95,1,20140810170000
220,"Xinglongtai, Panjin",,41.140948,122.111343,76,46,33,17,10,7,18,18,0,95,1,20140810170000
221,"Dingxiang, Panjin",,41.16139,121.928781,87,26,38,5,8,5,18,18,0,95,1,20140810170000
222,Panjin,,41.122089,122.076206,87,32,27,6,8,5,18,18,0,96,1,20140810170000
223,"No.3 water company, Yingkou",,40.682052,122.385352,34,16,45,5,3,5,23,20,1003,78,1,20140810170000
224,"Yingkou University, Yingkou",,40.683689,122.388285,21,21,64,2,3,5,23,20,1003,78,1,20140810170000
225,"Botanical garden, Yingkou",,40.711674,122.281568,50,17,38,30,3,5,23,20,1003,78,1,20140810170000
226,Yingkou,,40.668578,122.24059,50,20,59,13,3,5,23,20,1003,78,1,20140810170000
1109,"jinghu west street, Yingkou , Yingkou",,40.653831,122.221943,34,16,43,2,3,5,23,20,1003,78,1,20140810170000
1110,"Daqing Road , Yingkou , Yingkou",,40.709181,122.28243,50,16,32,13,2,5,23,20,1003,78,1,20140810170000
227,"Xishanpo, Huludao",,40.724078,120.921974,70,33,42,3,6,3,18,18,0,96,1,20140810170000
228,"Huagong hospital, Huludao",,40.755662,120.848435,139,39,29,17,2,10,18,18,0,96,1,20140810170000
229,"New district park, Huludao",,40.723415,120.853801,87,36,31,7,2,4,18,18,0,96,1,20140810170000
230,"Lianshan district governement, Huludao",,40.775488,120.872292,114,42,35,24,6,2,18,18,0,96,1,20140810170000
231,Huludao,,40.712501,120.842107,151,47,32,31,6,10,-,-,0,-,-,20140810170000
1111,"Dongcheng District , Huludao , Huludao",,40.775362,120.871706,122,47,32,24,6,2,,,0,,,20140810170000
1112,"huagong street, Huludao , Huludao",,40.758901,120.842935,151,39,25,31,6,10,,,0,,,20140810170000
232,Anshan,,41.110466,123.000147,160,95,28,29,14,21,19,18,1002,94,1,20140810170000
233,"Qianshan Park, Anshan",,41.033486,123.143897,80,32,15,4,6,6,19,18,1002,94,1,20140810170000
234,"Tiexi, Anshan",,41.121636,122.97506,157,87,28,6,20,6,19,18,1002,94,1,20140810170000
235,"Taiping Station, Anshan",,41.153322,123.052433,155,82,19,23,9,21,19,18,1002,94,1,20140810170000
236,"Central Station, Anshan",,41.106731,123.002736,127,78,35,16,15,14,19,18,1002,94,1,20140810170000
237,"Shengou Temple, Anshan",,41.137157,123.031901,151,79,27,9,5,10,19,18,1002,94,1,20140810170000
1113,"Qianshan , Anshan , Anshan",,41.014521,123.122538,97,40,11,4,6,6,19,18,1002,94,1,20140810170000
1114,"Tiexi Sandao jie, Anshan",,41.103264,122.978613,160,95,25,7,11,7,19,18,1002,94,1,20140810170000
1115,"Taiyang, Anshan",,41.094946,123.019037,124,78,28,18,14,15,19,18,1002,94,1,20140810170000
238,Fushun,,41.883028,123.962984,158,77,50,22,18,12,19,18,1002,94,1,20140810170000
239,"Shenfu new town, Fushun",,41.804638,123.631684,151,71,38,22,5,9,19,18,1002,94,1,20140810170000
240,"Reservoir, Fushun",,41.8464,123.802857,152,40,47,15,7,11,19,18,1002,94,1,20140810170000
241,"Train Station, Fushun",,41.89726,124.017604,154,65,56,8,15,9,19,18,1002,94,1,20140810170000
242,"Dongzhou, Fushun",,41.855578,124.044738,159,64,59,12,6,9,19,18,1002,94,1,20140810170000
243,"Xinhua, Fushun",,41.888598,123.932932,114,55,50,13,6,10,19,18,1002,94,1,20140810170000
244,"Wanghua, Fushun",,41.888825,123.093723,154,69,62,11,11,11,19,18,1002,94,1,20140810170000
245,Benxi,,41.296267,123.772371,283,308,45,23,7,30,19,18,1002,94,1,20140810170000
246,"Weining, Benxi",,41.349663,123.826071,93,60,13,12,3,26,19,18,1002,94,1,20140810170000
247,"Occupational disease hospital, Benxi",,41.305432,123.74645,151,70,42,23,7,28,19,18,1002,94,1,20140810170000
248,"Dongming, Benxi",,41.292369,123.765058,153,61,37,17,6,30,19,18,1002,94,1,20140810170000
249,"Caitun, Benxi",,41.301591,123.746039,147,95,27,7,3,12,19,18,1002,94,1,20140810170000
250,"Xihu, Benxi",,41.331332,123.773537,283,308,45,13,1,13,19,18,1002,94,1,20140810180000
251,"Dayu, Benxi",,41.308091,123.818442,153,60,45,9,13,21,19,18,1002,94,1,20140810180000
1116,"Xinlitun , Benxi , Benxi",,41.264104,123.811523,117,61,37,23,7,28,19,18,1002,94,1,20140810180000
252,Jinzhou,,41.097169,121.132647,151,52,26,18,5,6,21,19,1004,87,2,20140810180000
253,"Beihu Park, Jinzhou",,41.141447,121.137339,102,48,26,6,5,6,21,19,1004,87,2,20140810180000
254,"Monitoring station, Jinzhou",,41.113441,121.140911,107,50,30,14,6,6,21,19,1004,87,2,20140810180000
255,"Nanshan, Jinzhou",,41.570689,122.046753,151,24,25,18,4,6,21,19,1004,87,2,20140810180000
1118,"BDA, Jinzhou",,40.853915,121.061756,152,54,20,38,12,6,21,19,1004,87,2,20140810180000
1119,"tianan street, Jinzhou , Jinzhou",,41.124468,121.126119,93,52,26,9,5,6,21,19,1004,87,2,20140810180000
1120,"baigu street, Jinzhou, Jinzhou",,41.12214,121.21027,93,40,15,15,3,4,21,19,1004,87,2,20140810180000
1121,Chaoyang,,41.576022,120.456053,137,50,26,7,5,33,-,-,0,-,-,20140810180000
472,"Fukang road, Tianjin",,39.098136,117.157621,157,91,74,20,15,13,27,19,1003,61,1,20140810180000
1122,"Agricultural Area, Chaoyang",,43.93968,125.247371,104,46,5,5,5,14,22,18,1003,72,2,20140810180000
1123,Tieling,,42.225197,123.732174,147,79,42,31,12,26,19,18,1002,94,1,20140810180000
260,"Waterpark, Tieling",,42.297031,123.880748,117,79,20,31,12,6,19,18,1002,94,1,20140810180000
1124,"Huigong Street West , Tieling , Tieling",,42.311115,123.845614,129,68,33,9,9,26,19,18,1002,94,1,20140810180000
1125,Liaoyang,,41.269312,123.24268,167,160,36,25,42,28,19,18,1002,94,1,20140810180000
1126,"Riverside Road , Liaoyang , Liaoyang",,41.176884,123.419859,167,100,36,13,42,18,19,18,1002,94,1,20140810180000
1127,Fuxin,,42.02373,121.675733,134,63,41,15,8,9,-,-,0,-,-,20140810180000
266,"Agricultural Area, Fuxin",,42.071291,121.696445,74,36,35,6,4,7,18,17,0,97,1,20140810180000
267,"Industrial Area, Fuxin",,42.041052,121.715554,134,63,30,15,8,7,18,17,0,97,1,20140810180000
1128,"Yulong Metro , Fuxin , Fuxin",,42.035091,121.666531,93,40,36,26,3,7,18,17,0,97,1,20140810180000
1129,"Dongyuan , Fuxin , Fuxin",,42.029119,121.681553,-,-,-,-,-,-,-,-,0,-,-,20140810180000
268,"City Monitoring Station, Jinan",,36.662614,117.054645,194,134,119,13,27,0,25,20,1004,71,1,20140810180000
269,"Shandong Institute of Economics, Jinan",,36.63819,117.074975,-,-,-,-,-,-,-,-,0,-,-,20140810180000
270,"Quancheng Plaza, Jinan",,36.661711,117.027043,-,-,-,-,-,-,-,-,0,-,-,20140810180000
271,"Kegansuo, Jinan",,36.611582,116.99384,171,112,121,3,17,0,25,20,1004,71,1,20140810180000
272,"Agriculture Science Institute, Jinan",,36.663115,116.95063,180,119,55,24,11,0,25,20,1004,71,1,20140810180000
273,"Lanxiang technical school, Jinan",,36.700421,116.95342,-,-,-,-,-,-,-,-,0,-,-,20140810180000
274,"Chemical factory, Jinan",,36.687463,116.994406,-,-,-,-,-,-,-,-,0,-,-,20140810180000
275,"Provincial Seed Warehouse, Jinan",,36.685706,117.066348,182,126,132,15,22,0,25,20,1004,71,1,20140810180000
276,"Shandong Architecture University, Jinan",,36.681732,117.191868,-,-,-,-,-,-,-,-,0,-,-,20140810180000
277,"Baosheng cable company, Jinan",,36.724638,117.130855,-,-,-,-,-,-,-,-,0,-,-,20140810180000
278,"Paomaling, Jinan",,36.47869,117.219027,-,-,-,-,-,-,-,-,0,-,-,20140810180000
279,"Changqing District Communist Party School, Jinan",,36.548797,116.770859,-,-,-,-,-,-,-,-,0,-,-,20140810180000
280,"BDA, Jinan",,36.685835,117.130851,190,134,89,21,19,0,25,20,1004,71,1,20140810180000
281,Jinan,,36.651426,117.126625,198,134,122,24,27,0,25,20,1004,71,1,20140810180000
282,"Shinan district No. 1, Qingdao",,36.065534,120.40839,-,-,-,-,-,-,-,-,0,-,-,20140810180000
283,"Shibei district No. 1, Qingdao",,36.069919,120.341264,-,-,-,-,-,-,-,-,0,-,-,20140810180000
284,"Shibei district No. 2, Qingdao",,36.104146,120.36637,-,-,-,-,-,-,-,-,0,-,-,20140810180000
285,"Huangdao District No. 1, Qingdao",,35.958935,120.191041,-,-,-,-,-,-,-,-,0,-,-,20140810180000
286,"Huangdao District No. 2, Qingdao",,35.970487,120.160339,-,-,-,-,-,-,-,-,0,-,-,20140810180000
287,"Laoshan District No. 1, Qingdao",,36.085881,120.451839,-,-,-,-,-,-,-,-,0,-,-,20140810180000
288,"Laoshan District No. 2, Qingdao",,36.091075,120.490388,-,-,-,-,-,-,-,-,0,-,-,20140810180000
289,"Licang District No. 1, Qingdao",,36.184872,120.38533,-,-,-,-,-,-,-,-,0,-,-,20140810180000
290,"Licang District No. 2, Qingdao",,36.154369,120.432287,-,-,-,-,-,-,-,-,0,-,-,20140810180000
291,"Chengyang District No. 1, Qingdao",,36.308502,120.40008,-,-,-,-,-,-,-,-,0,-,-,20140810180000
292,"Chengyang District No. 2, Qingdao",,36.308429,120.465806,-,-,-,-,-,-,-,-,0,-,-,20140810180000
293,Qingdao,,36.067358,120.387773,-,-,-,-,-,-,-,-,0,-,-,20140810180000
294,"Zichuan Meteo. Stations, Zibo",,36.637916,117.960222,-,-,-,-,-,-,-,-,0,-,-,20140810180000
295,"Dongfeng Chemical factory, Zibo",,36.838576,118.050785,178,133,35,45,41,0,22,16,0,71,3,20140810180000
296,"Boshan shuangshan, Zibo",,36.497278,117.853581,-,-,-,-,-,-,-,-,0,-,-,20140810180000
297,"Linzi Putian Park, Zibo",,36.820171,118.315022,-,-,-,-,-,-,-,-,0,-,-,20140810180000
298,"Qilu Petrochemical, Zibo",,36.765907,118.254967,-,-,-,-,-,-,-,-,0,-,-,20140810180000
299,"Zhoucun sanjin Group, Zibo",,36.8044,117.85694,-,-,-,-,-,-,-,-,0,-,-,20140810180000
300,"Vocational College, Zibo",,36.825208,117.926305,-,-,-,-,-,-,-,-,0,-,-,20140810180000
301,"BDA, Zibo",,36.905214,118.021824,-,-,-,-,-,-,-,-,0,-,-,20140810180000
302,Zibo,,36.813618,118.060948,191,183,35,45,55,0,22,16,0,71,3,20140810180000
303,"Shizhong District Government, Zaozhuang",,34.850397,117.569545,172,122,50,17,67,0,24,21,1006,81,1,20140810180000
304,"Sewage treatment plant, Zaozhuang",,34.818951,117.595345,-,-,-,-,-,-,-,-,0,-,-,20140810180000
305,"Xuecheng EPA, Zaozhuang",,34.790214,117.272455,185,100,42,40,20,0,24,21,1006,81,1,20140810180000
306,"Yicheng District government, Zaozhuang",,34.772806,117.57647,190,116,135,11,35,0,24,21,1006,81,1,20140810180000
307,"Taierzhuang EPA, Zaozhuang",,34.579462,117.741067,167,81,64,12,8,0,24,21,1006,81,1,20140810180000
308,"Shanting EPA, Zaozhuang",,35.070373,117.457691,169,87,83,10,22,0,24,21,1006,81,1,20140810180000
309,"City EPA, Zaozhuang",,34.809466,117.320608,-,-,-,-,-,-,-,-,0,-,-,20140810180000
310,"High-tech zone, Zaozhuang",,34.821779,117.363495,-,-,-,-,-,-,-,-,0,-,-,20140810180000
311,Zaozhuang,,34.809693,117.329634,190,122,135,40,67,0,24,21,1006,81,1,20140810180000
312,"City EPA, Dongying",,37.432052,118.672871,175,118,108,18,29,0,24,18,0,69,4,20140810180000
313,"Vocational College, Dongying",,37.438653,118.630567,-,-,-,-,-,-,-,-,0,-,-,20140810180000
314,"Xianhe Oil Production Plant, Dongying",,37.442419,118.510222,-,-,-,-,-,-,-,-,0,-,-,20140810180000
315,"Gengjin village, Dongying",,37.445072,118.55839,180,128,70,15,19,0,24,18,0,69,4,20140810180000
316,"City environmental company, Dongying",,37.466599,118.508012,187,127,136,33,40,0,24,18,0,69,4,20140810180000
317,"Hekou  district, Dongying",,37.883786,118.522171,-,-,-,-,-,-,-,-,0,-,-,20140810180000
318,"BDA, Dongying",,37.435162,118.701827,-,-,-,-,-,-,-,-,0,-,-,20140810180000
319,Dongying,,37.435429,118.680434,187,128,136,33,40,0,24,18,0,69,4,20140810180000
320,"Bearing Factory, Yantai",,37.544126,121.376956,97,61,29,58,8,0,,,0,,,20140810180000
321,"Xijiao Chemical Station, Yantai",,37.547148,121.323695,91,51,36,20,10,0,,,0,,,20140810180000
322,"Fushan Monitoring Stations, Yantai",,37.472245,121.260116,-,-,-,-,-,-,,,,,,20140810180000
323,"Mouping EPA, Yantai",,37.376681,121.586509,-,-,-,-,-,-,,,,,,20140810180000
324,"Laishan EPA, Yantai",,37.478422,121.44829,-,-,-,-,-,-,,,,,,20140810180000
325,"Laishan Shengquan Industrial Park, Yantai",,37.4271,121.408386,-,-,-,-,-,-,,,,,,20140810180000
326,"China Agricultural University, Yantai",,37.423568,121.511838,-,-,-,-,-,-,,,,,,20140810180000
327,"BDA EPA, Yantai",,37.560827,121.257954,-,-,-,-,-,-,,,,,,20140810180000
329,"Dajijia, Yantai",,37.673849,121.071465,-,-,-,-,-,-,,,,,,20140810180000
330,Yantai,,37.464793,121.453142,97,61,36,58,10,0,22,18,0,75,3,20140810180000
331,"BDA, Weifang",,36.720022,119.054064,-,-,-,-,-,-,,,,,,20140810180000
332,"Business School, Weifang",,36.682442,119.105909,-,-,-,-,-,-,,,,,,20140810180000
333,"Hanting District, Weifang",,36.773484,119.199705,-,-,-,-,-,-,,,,,,20140810180000
334,"Gongda Company, Weifang",,36.657635,119.167266,165,113,81,29,11,0,,,0,,,20140810180000
335,"City EPA, Weifang",,36.701272,119.16838,-,-,-,-,-,-,,,,,,20140810180000
336,"City Arbitration Committee, Weifang",,36.702422,119.145927,-,-,-,-,-,-,,,,,,20140810180000
337,"Xinhui Group, Weifang",,36.641581,119.11679,-,-,-,-,-,-,,,,,,20140810180000
338,"Jincheng Middle School, Weifang",,36.773611,119.115539,-,-,-,-,-,-,,,,,,20140810180000
339,Weifang,,36.707217,119.167638,172,120,108,29,17,0,24,18,0,69,4,20140810180000
340,"City Monitoring Station, Jining",,35.408443,116.623917,-,-,-,-,-,-,-,-,0,-,-,20140810180000
1090,"Shengdi Hollidays Resort, Jining",,35.424746,116.699093,-,-,-,-,-,-,-,-,0,-,-,20140810180000
341,"Sewage treatment plant, Jining",,35.364286,116.609177,-,-,-,-,-,-,-,-,0,-,-,20140810180000
342,"Electrochemical Factory, Jining",,35.390473,116.552956,112,60,46,20,13,0,24,22,1005,89,1,20140810180000
343,"Rencheng BDA, Jining",,35.390484,116.662995,-,-,-,-,-,-,-,-,0,-,-,20140810180000
344,"Agricultural School, Jining",,35.44235,116.601682,-,-,-,-,-,-,-,-,0,-,-,20140810180000
345,"BDA Huojucheng, Jining",,35.436377,116.642953,-,-,-,-,-,-,-,-,0,-,-,20140810180000
346,Jining,,35.414473,116.59239,112,60,46,20,13,0,24,22,1005,89,1,20140810180000
347,"Taishan monitoring station, Taian",,36.194362,117.159648,169,85,73,17,14,0,16,14,0,84,3,20140810180000
348,"Shandong Electric Power School, Taian",,36.176071,117.12413,174,139,51,48,11,0,16,14,0,84,3,20140810180000
349,"Population Education school, Taian",,36.194417,117.104131,172,92,112,4,12,0,16,14,0,84,3,20140810180000
350,"Houfeng company, Taian",,36.204863,117.19015,-,-,-,-,-,-,-,-,0,-,-,20140810180000
351,"Nongda new campus, Taian",,36.170179,117.165191,-,-,-,-,-,-,-,-,0,-,-,20140810180000
352,"Transportation technical school, Taian",,36.202126,117.047068,-,-,-,-,-,-,-,-,0,-,-,20140810180000
353,"ICT Technology, Taian",,36.116621,117.107458,-,-,-,-,-,-,-,-,0,-,-,20140810180000
354,Taian,,36.200502,117.093682,174,139,112,48,14,0,16,14,0,84,3,20140810180000
355,"City Environmental Monitoring Station, Weihai",,37.513939,122.067058,-,-,-,-,-,-,-,-,0,-,-,20140810180000
356,"Woodworking Factory, Weihai",,37.325455,122.160777,-,-,-,-,-,-,-,-,0,-,-,20140810180000
357,"Lantian Hotel, Weihai",,37.514641,122.146276,-,-,-,-,-,-,-,-,0,-,-,20140810180000
358,"Zhang village government, Weihai",,37.485561,122.049436,-,-,-,-,-,-,-,-,0,-,-,20140810180000
359,"Gao District Bank, Weihai",,37.534919,122.056294,-,-,-,-,-,-,-,-,0,-,-,20140810180000
360,"Huxia technical school, Weihai",,37.427951,122.130811,59,33,38,15,6,0,22,18,0,75,3,20140810180000
361,Weihai,,37.5141,122.125477,59,33,38,15,6,0,22,18,0,75,3,20140810180000
362,"City governement square, Rizhao",,35.4075,119.526008,160,77,45,10,11,0,25,22,1005,81,2,20140810180000
363,"Port Authority, Rizhao",,35.381297,119.55396,157,85,30,20,9,0,25,22,1005,81,2,20140810180000
364,"City Monitoring Station, Rizhao",,35.388683,119.496405,-,-,-,-,-,-,-,-,0,-,-,20140810180000
365,"Professor Garden, Rizhao",,35.462161,119.574193,-,-,-,-,-,-,-,-,0,-,-,20140810180000
366,"Vocational and Technical College, Rizhao",,35.441939,119.538187,-,-,-,-,-,-,-,-,0,-,-,20140810180000
367,"Lanshan EPA branch, Rizhao",,35.293405,119.345716,-,-,-,-,-,-,-,-,0,-,-,20140810180000
368,"Jinma Industrial Park, Rizhao",,35.373339,119.514108,-,-,-,-,-,-,-,-,0,-,-,20140810180000
369,Rizhao,,35.416089,119.532316,160,85,45,20,11,0,25,22,1005,81,2,20140810180000
370,"Vegetable oil factory, Laiwu",,36.205028,117.700917,206,102,106,6,64,0,24,20,1005,69,1,20140810180000
371,"Nursing home, Laiwu",,36.266067,117.652769,-,-,-,-,-,-,-,-,0,-,-,20140810180000
372,"Xinyi middle school, Laiwu",,36.245086,117.739025,-,-,-,-,-,-,-,-,0,-,-,20140810180000
373,"Risheng International School, Laiwu",,36.208125,117.730959,-,-,-,-,-,-,-,-,0,-,-,20140810180000
374,"Gangcheng EPA, Laiwu",,36.066836,117.871823,-,-,-,-,-,-,-,-,0,-,-,20140810180000
375,"City EPA, Laiwu",,36.228913,117.694797,-,-,-,-,-,-,-,-,0,-,-,20140810180000
376,Laiwu,,36.213688,117.682612,207,108,86,9,51,0,24,20,1005,69,1,20140810180000
377,"Lunan Pharmaceutical Factory, Linyi",,35.061671,118.299527,183,200,26,23,25,0,21,20,0,92,2,20140810180000
378,"Yihe compound, Linyi",,35.056752,118.34739,178,134,29,36,22,0,21,20,0,92,2,20140810180000
379,"Linyi University, Linyi",,35.114777,118.293414,-,-,-,-,-,-,-,-,0,-,-,20140810180000
380,City EPA,Nanfang,35.104871,118.353518,-,-,-,-,-,-,-,-,0,-,-,20140810180000
381,"Xinguang woolen factory, Linyi",,34.981004,118.282,184,179,35,29,44,0,21,20,0,92,2,20140810180000
382,"Hongfu Baijiu Factory, Linyi",,34.998788,118.257275,-,-,-,-,-,-,-,-,0,-,-,20140810180000
384,"Hedong insurance company, Linyi",,35.089354,118.40812,174,160,37,24,19,0,21,20,0,92,2,20140810180000
385,"Jianghua vehicule center, Linyi",,35.010082,118.435749,-,-,-,-,-,-,-,-,0,-,-,20140810180000
386,Linyi,,35.10428,118.362202,184,200,35,29,44,0,21,20,0,92,2,20140810180000
387,"Heima group, Dezhou",,37.466063,116.314134,159,87,44,11,4,0,26,20,1003,66,1,20140810180000
388,"Monitoring station, Dezhou",,37.433107,116.377312,-,-,-,-,-,-,-,-,0,-,-,20140810180000
389,"Supervision Station, Dezhou",,37.449689,116.324709,132,113,43,8,10,0,26,20,1003,66,1,20140810180000
390,"Huayu technical school, Dezhou",,37.462809,116.357559,-,-,-,-,-,-,-,-,0,-,-,20140810180000
391,"Shuangyi group, Dezhou",,37.478848,116.316362,-,-,-,-,-,-,-,-,0,-,-,20140810180000
392,Dezhou,,37.434959,116.363366,159,113,44,11,14,0,26,20,1003,66,1,20140810180000
393,"Dongchang District Government, Liaocheng",,36.444473,115.971733,160,106,35,17,13,0,25,22,1004,77,2,20140810180000
394,"Light Machinery Factory No. 2, Liaocheng",,36.456788,116.002383,164,106,41,12,12,0,25,22,1004,77,2,20140810180000
395,"City committee communist party school, Liaocheng",,36.479537,115.989288,159,81,35,10,8,0,25,22,1004,77,2,20140810180000
396,"Customs, Liaocheng",,36.431933,115.956974,-,-,-,-,-,-,-,-,0,-,-,20140810180000
397,"Hongshun Garden, Liaocheng",,36.471124,115.960319,-,-,-,-,-,-,-,-,0,-,-,20140810180000
398,"BDA, Liaocheng",,36.459407,116.043621,-,-,-,-,-,-,-,-,0,-,-,20140810180000
399,Liaocheng,,36.456792,115.991051,164,106,41,17,13,0,25,22,1004,77,2,20140810180000
400,"City EPA, Binzhou",,37.38024,118.026895,188,77,32,17,20,0,27,20,1004,58,1,20140810180000
401,"Beizhong new school, Binzhou",,37.38374,117.988996,185,120,28,19,16,0,27,20,1004,58,1,20140810180000
402,"No.2 water factory, Binzhou",,37.36155,118.002648,171,129,31,22,10,0,27,20,1004,58,1,20140810180000
403,"Keling Chemical factory, Binzhou",,37.396138,117.943609,-,-,-,-,-,-,-,-,0,-,-,20140810180000
404,"Yinhe logistics company, Binzhou",,37.356122,117.943326,-,-,-,-,-,-,-,-,0,-,-,20140810180000
405,"Bilin compond, Binzhou",,37.36815,117.978964,-,-,-,-,-,-,-,-,0,-,-,20140810180000
406,Binzhou,,37.382639,117.976606,188,129,32,22,20,0,27,20,1004,58,1,20140810180000
407,"Bureau of Meteorology, Heze",,35.248625,115.428775,165,86,42,17,12,0,21,17,0,78,2,20140810180000
408,"Sewage treatment plant, Heze",,35.222517,115.531511,-,-,-,-,-,-,-,-,0,-,-,20140810180000
409,"Municipal CPPCC, Heze",,35.237125,115.480591,161,75,41,13,10,0,21,17,0,78,2,20140810180000
410,"Huarun Pharmaceutical Company, Heze",,35.261463,115.524873,-,-,-,-,-,-,-,-,0,-,-,20140810180000
411,"Heze University, Heze",,35.269706,115.460934,164,82,48,12,9,0,21,17,0,78,2,20140810180000
412,Heze,,35.233354,115.486503,165,86,48,17,12,0,21,17,0,78,2,20140810180000
413,"Shiji Park, Shijiazhuang",,38.03155,114.547873,181,125,37,29,13,14,22,21,1004,94,0,20140810180000
414,"Xinan College, Shijiazhuang",,38.012764,114.473163,180,133,23,36,21,13,22,21,1004,94,0,20140810180000
415,"Chemical College, Shijiazhuang",,38.055503,114.569816,188,139,26,37,13,12,22,21,1004,94,0,20140810180000
416,"Worker hospital, Shijiazhuang",,38.051784,114.461209,174,137,40,36,15,16,22,21,1004,94,0,20140810180000
417,"Northwest Water Company, Shijiazhuang",,38.140638,114.508038,174,138,32,37,19,13,22,21,1004,94,0,20140810180000
418,"High-tech zone, Shijiazhuang",,38.040482,114.610775,172,123,27,29,15,14,22,21,1004,94,0,20140810180000
419,"Fenglong Montain, Shijiazhuang",,37.910829,114.360264,65,18,188,1,29,17,22,21,1004,94,0,20140810180000
1130,"Zhengding Unicom, Shijiazhuang",,38.159458,114.59879,192,172,41,47,17,15,22,21,1004,94,0,20140810180000
1131,"Luancheng Communications, Shijiazhuang",,37.906534,114.638785,180,116,41,43,51,10,22,21,1004,94,0,20140810180000
1132,"Gaocheng Experimental School, Shijiazhuang",,38.039518,114.867812,177,127,38,25,40,12,22,21,1004,94,0,20140810180000
1133,"Wuji EPA, Shijiazhuang",,38.17862,114.997012,200,131,47,18,19,11,22,21,1004,94,0,20140810180000
1134,"Shenze Power Supply Bureau, Shijiazhuang",,38.197674,115.219126,189,118,46,19,16,8,22,21,1004,94,0,20140810180000
1135,"Zhaoxian EPA, Shijiazhuang",,37.77171,114.775957,170,115,53,22,34,10,22,21,1004,94,0,20140810180000
1136,"Gaoyi County City Hall, Shijiazhuang",,37.623535,114.612729,192,156,40,35,12,13,22,21,1004,94,0,20140810180000
1137,"Zanhuang County City Hall, Shijiazhuang",,37.672898,114.398269,217,133,87,26,17,13,22,21,1004,94,0,20140810180000
1138,"Jingxing Bureau of Meteorology, Shijiazhuang",,38.038788,114.158406,162,128,71,48,18,14,22,21,1004,94,0,20140810180000
1139,"Pingshan Ye River, Shijiazhuang",,38.266657,114.210275,251,180,58,19,13,21,22,21,1004,94,0,20140810180000
420,Shijiazhuang,,38.042926,114.520834,188,139,42,44,36,16,22,21,1004,94,0,20140810180000
421,"No. 12 middle school, Tangshan",,39.659306,118.190271,112,66,49,15,9,5,-,-,0,-,-,20140810180000
422,"Ceramics Company, Tangshan",,39.669255,118.225185,165,138,38,35,38,5,27,19,1003,61,1,20140810180000
1089,"Xiaoshanzi Station, Tangshan",,39.631273,118.206223,-,-,-,-,-,-,-,-,0,-,-,20140810180000
423,"Commodities Bureau, Tangshan",,39.642301,118.191265,157,91,37,36,29,7,27,19,1003,61,1,20140810180000
424,"Leidazhanzi Station, Tangshan",,39.644375,118.150383,182,92,48,26,15,5,27,19,1003,61,1,20140810180000
425,"Supply and marketing cooperatives, Tangshan",,39.632334,118.17232,168,125,37,38,25,7,27,19,1003,61,1,20140810180000
1140,"Guye District City Hall, Tangshan",,39.741379,118.460246,162,104,50,30,46,10,27,19,1003,61,1,20140810180000
1141,"Kaiping Stations, Tangshan",,39.675246,118.275149,182,151,37,43,23,11,27,19,1003,61,1,20140810180000
1142,"Fengnan District City Hall, Tangshan",,39.5834,118.097454,173,97,46,69,7,8,27,19,1003,61,1,20140810180000
1143,"Fengrun City Hall, Tangshan",,39.840355,118.175338,160,129,58,28,15,9,27,19,1003,61,1,20140810180000
1144,"Qianxi EPA, Tangshan",,40.153339,118.317265,95,50,37,17,25,8,27,19,1003,61,1,20140810180000
547,Zhoushan,,29.983049,122.210763,78,24,47,3,3,10,26,22,1003,78,1,20140810190000
1145,"Caofeidian Xinli  Primary School, Tangshan",,39.291232,118.462182,185,160,136,65,11,5,27,19,1003,61,1,20140810180000
1146,"Zunhua EPA, Tangshan",,40.206249,117.997315,99,67,2,21,7,8,27,19,1003,61,1,20140810180000
1147,"Qianan No.1 middle school, Tangshan",,40.004248,118.717055,109,52,50,12,6,10,27,19,1003,61,1,20140810180000
1266,"Luannan County , Tangshan",,39.511132,118.686928,151,69,79,23,5,15,27,19,1003,61,1,20140810180000
1267,"Yutian County , Tangshan",,39.908249,117.751417,142,68,81,27,10,8,27,19,1003,61,1,20140810180000
426,Tangshan,,39.632175,118.186472,182,151,48,69,38,11,27,19,1003,61,1,20140810180000
427,"City Monitoring Station, Qinhuangdao",,39.958109,119.607773,170,53,46,12,3,7,,,,,,20140810180000
428,"Beidaihe, Qinhuangdao",,39.829209,119.53194,87,41,28,20,12,8,,,0,,,20140810180000
429,"Shanhai Pass, Qinhuangdao",,40.019298,119.767898,50,25,11,23,15,4,,,0,,,20140810180000
430,"Contruction Plazz, Qinhuangdao",,39.943187,119.542912,124,52,34,33,6,7,,,0,,,20140810180000
431,"City government, Qinhuangdao",,39.93711,119.612769,68,34,30,26,10,6,,,0,,,20140810180000
1148,"Qinglong EPA, Qinhuangdao",,40.419223,118.958002,107,32,86,12,3,3,27,19,0,61,1,20140810180000
1149,"Changli EPA, Qinhuangdao",,39.714369,119.173237,114,54,60,33,6,9,,,0,,,20140810180000
1268,"Lulong County Bureau of Meteorology , Qinhuangdao",,39.901091,118.904857,152,55,87,11,9,10,27,19,0,61,1,20140810180000
432,Qinhuangdao,,39.936485,119.606263,68,34,30,26,10,6,27,19,0,61,2,20140810180000
433,"CongTai Park, Handan",,36.620197,114.501891,286,133,41,12,5,9,25,22,0,74,2,20140810180000
434,"City EPA, Handan",,36.618145,114.518822,282,96,43,20,5,9,25,22,0,74,2,20140810180000
435,"East Sewage Factory, Handan",,36.616064,114.548714,163,92,23,2,8,7,25,22,0,74,2,20140810180000
436,"Mine Hospital, Handan",,36.578149,114.509854,251,107,43,9,3,6,25,22,0,74,2,20140810180000
1150,"Fengfeng mine Inland Revenue Department, Handan",,36.423085,114.245994,284,188,40,13,14,14,23,21,0,80,3,20140810180000
1151,"Shexian EPA, Handan",,36.589084,113.692341,211,111,36,8,9,28,,,0,,,20140810180000
1152,"Ci County Vocational Education Center, Handan",,36.380247,114.390119,204,120,47,32,23,7,,,0,,,20140810180000
1153,"Yongnian government guesthouse, Handan",,36.783297,114.502905,261,203,40,22,72,8,27,22,0,64,3,20140810180000
1154,"Wuan BDA, Handan",,36.686223,114.269009,282,335,30,1,6,29,,,0,,,20140810180000
1085,Handan,,36.625683,114.544812,286,92,43,20,8,9,25,22,0,74,2,20140810180000
437,"Road and Bridge Corporation, Xingtai",,37.096415,114.538799,222,229,38,22,22,11,25,22,1004,74,2,20140810180000
438,"Dahuo fontain, Xingtai",,37.097563,114.488001,265,283,2,31,3,13,27,22,1004,64,3,20140810180000
439,"Xingtai Normal College, Xingtai",,37.053404,114.531819,207,193,30,25,17,11,25,22,1004,74,2,20140810180000
440,"Environment protection office, Xingtai",,37.06253,114.490985,248,245,19,32,44,12,25,22,1004,74,2,20140810180000
1155,"Cultural centers within the mound, Xingtai",,37.293569,114.524873,224,73,48,17,20,12,27,22,1004,64,3,20140810180000
383,Xingtai,,37.071066,114.510749,248,245,38,32,44,12,25,22,1004,74,2,20140810180000
441,"City Monitoring Station, Baoding",,38.871737,115.527103,191,124,146,10,30,10,22,20,1004,91,1,20140810180000
442,"Surface water Company, Baoding",,38.842891,115.467326,200,135,82,28,30,8,22,20,1004,91,1,20140810180000
443,"Huadian II, Baoding",,38.896748,115.528102,228,134,151,6,35,6,22,20,1004,91,1,20140810180000
444,"Reception Center, Baoding",,38.911905,115.477301,260,138,70,19,8,11,22,20,1004,91,1,20140810180000
445,"Film Factory, Baoding",,38.876949,115.448383,241,163,71,19,11,14,22,20,1004,91,1,20140810190000
446,"Natatorium, Baoding",,38.863815,115.499212,201,144,111,13,48,12,22,20,1004,91,1,20140810190000
1156,"Qingyuan City Hall, Baoding",,38.771758,115.502189,196,127,110,7,14,9,26,22,1003,67,1,20140810190000
1157,"Xushui EPA, Baoding",,39.025781,115.668023,216,141,186,3,18,12,26,22,1003,67,1,20140810190000
1158,"Zhouzhou Monitoring Stations, Baoding",,39.493241,116.040187,167,76,93,12,9,3,26,22,1003,67,1,20140810190000
1159,"Gaobeidian EPA, Baoding",,39.3329,115.885891,182,108,133,20,27,6,26,22,1003,67,1,20140810190000
447,Baoding,,38.874791,115.471124,260,163,151,28,48,14,22,20,1004,91,1,20140810190000
448,"Century Compound, Zhangjiakou",,40.770279,114.909106,50,13,9,4,6,2,19,9,1006,45,1,20140810190000
449,"North Pumping Station, Zhangjiakou",,40.874362,114.910119,13,30,36,5,19,10,21,9,1006,36,1,20140810190000
450,"Hardware Warehouse, Zhangjiakou",,40.81232,114.887119,9,9,17,9,13,13,21,9,1006,36,1,20140810190000
451,"Tanji Chang, Zhangjiakou",,40.796301,114.89811,59,22,23,3,21,3,19,9,1006,45,1,20140810190000
1160,"Xiahuayuan EPA, Zhangjiakou",,40.509345,115.302442,63,29,28,25,14,0,21,9,1006,36,1,20140810190000
1161,"Huaian EPA, Zhangjiakou",,40.68157,114.398646,72,20,0,8,17,0,21,9,1006,36,1,20140810190000
1162,"Huailai Fuqian Primary School, Zhangjiakou",,40.422204,115.530285,68,33,27,16,17,2,21,9,1006,36,1,20140810190000
1269,"Zhangbei EPA , Zhangjiakou",,41.166775,114.732369,59,30,22,1,4,1,21,9,1006,36,1,20140810190000
1270,"Kangbao County Environmental Protection Agency , Zhangjiakou",,41.837866,114.591246,61,28,2,2,6,4,21,9,1006,36,1,20140810190000
1271,"Guyuan County welfare , Zhangjiakou",,41.669984,115.687401,74,26,15,4,17,3,21,9,1006,36,1,20140810190000
1272,"Shangyi County Environmental Protection Bureau , Zhangjiakou",,41.086638,113.984688,-,-,-,-,-,-,-,-,0,-,-,20140810190000
1273,"Yuxian Secondary School , Zhangjiakou",,39.84699,114.601986,91,27,31,7,4,4,21,9,1006,36,1,20140810190000
1274,"Yang County Vocational Education Center , Zhangjiakou",,40.106343,114.134732,72,25,38,2,3,6,21,9,1006,36,1,20140810190000
1275,"Wan county Environmental Protection Agency , Zhangjiakou",,40.770459,114.75033,68,27,38,6,2,2,21,9,1006,36,1,20140810190000
591,Yangzhou,,32.39233,119.418446,159,69,10,19,10,5,11,9,0,90,6,20140810200000
473,"Nankou road, Tianjin",,39.174022,117.199688,160,107,98,22,14,15,27,19,1003,61,2,20140810190000
1276,"Zhuolu County Environmental Protection Agency , Zhangjiakou",,40.374273,115.221393,61,53,29,1,1,8,21,9,1006,36,1,20140810190000
452,Zhangjiakou,,40.825744,114.893659,59,22,23,5,21,11,19,9,1006,45,1,20140810190000
453,"Railway, Chengde",,40.917557,117.972331,68,25,12,9,3,4,16,16,1006,97,0,20140810190000
454,"Cultural Center, Chengde",,40.974625,117.824437,42,20,13,10,1,3,16,16,1006,97,0,20140810190000
455,"Bank of China, Chengde",,40.985582,117.958304,78,23,7,15,23,3,16,16,1006,97,0,20140810190000
456,"BDA, Chengde",,40.937567,117.969325,63,35,13,13,20,4,16,16,1006,97,0,20140810190000
457,"Ligong, Chengde",,41.012579,117.94428,112,33,8,7,1,3,16,16,1006,97,0,20140810190000
1163,"Chengde County EPA, Chengde",,40.776643,118.17646,74,51,20,8,1,3,17,16,1006,92,1,20140810190000
1164,"Xinglong County City Hall, Chengde",,40.424301,117.513488,95,45,26,12,1,7,17,16,1006,92,1,20140810190000
1165,"Luanping EPA, Chengde",,40.950792,117.350715,63,34,13,10,1,5,17,16,1006,92,1,20140810190000
1166,"Fengning County City Hall, Chengde",,41.216739,116.658037,72,33,25,7,4,5,17,16,1006,92,1,20140810190000
1277,"Longhua EPA , Chengde",,41.311956,117.739605,89,37,18,7,12,4,17,16,1006,92,1,20140810190000
458,Chengde,,40.955652,117.968737,112,35,13,15,23,4,16,16,1006,97,0,20140810190000
459,"Municipal EPB, Cangzhou",,38.323507,116.876746,134,81,65,6,3,6,27,19,1003,61,1,20140810190000
460,"Cangxian Urban Construction Bureau, Cangzhou",,38.299495,116.890734,153,85,32,14,4,5,27,19,1003,61,2,20140810190000
461,"TV Broadcast Station, Cangzhou",,38.325525,116.863761,144,68,38,5,8,5,27,19,1003,61,2,20140810190000
1167,"Qing County City Hall, Cangzhou",,38.589643,116.815876,171,47,17,27,4,2,27,19,1003,61,1,20140810190000
1168,"Poyoushi City Hall, Cangzhou",,38.089516,116.590575,163,107,1,12,18,5,27,19,1003,61,1,20140810190000
1169,"Huanghua Finance Bureau Training Center, Cangzhou",,38.377793,117.343356,193,64,70,10,36,2,27,19,1003,61,1,20140810190000
462,Cangzhou,,38.305035,116.844625,153,85,38,14,8,5,27,19,1003,61,2,20140810190000
463,"Environmental Monitoring Supervision Center, Langfang",,39.558157,116.720995,177,112,49,42,9,8,27,19,1003,61,1,20140810190000
464,"TCM Medical Material Company, Langfang",,39.519096,116.689914,179,122,46,15,5,9,27,19,1003,61,2,20140810190000
465,"BDA, Langfang",,39.576175,116.779041,176,93,43,50,10,6,27,19,1003,61,2,20140810190000
466,"North China Institute of Aerospace, Langfang",,39.53517,116.743027,180,112,49,29,11,10,27,19,1003,61,1,20140810190000
1170,"Guan Party School, Langfang",,39.446185,116.311026,185,114,135,20,6,8,27,19,1003,61,1,20140810190000
1171,"Xianghe EPA, Langfang",,39.76725,117.015252,167,109,85,33,8,6,27,19,1003,61,1,20140810190000
1172,"Wenan County EPA, Langfang",,38.880927,116.47001,168,82,158,10,8,9,27,19,1003,61,1,20140810190000
1173,"Three Rivers Department of Transportation, Langfang",,39.989419,117.091528,137,60,53,20,8,6,27,19,1003,61,1,20140810190000
1278,"Yongqing EPA , Langfang",,39.329071,116.510917,197,182,108,19,11,8,27,19,1003,61,1,20140810190000
1279,"Dacheng EPA, Langfang",,38.712628,116.665751,144,75,146,4,13,8,27,19,1003,61,1,20140810190000
467,Langfang,,39.539148,116.689668,179,122,46,50,10,9,27,19,1003,61,1,20140810190000
468,"Hengshui City EPB, Hengshui",,37.739679,115.695929,166,91,45,9,7,5,21,15,0,66,3,20140810190000
469,"Environmental Monitoring Station, Hengshui",,37.738593,115.648837,177,111,44,38,8,6,21,15,0,66,3,20140810190000
470,"Electrical Machine North Factory, Hengshui",,37.758686,115.70094,172,90,46,8,7,7,21,15,0,66,3,20140810190000
1174,"Anping EPA, Hengshui",,38.238559,115.537988,-,81,61,15,19,11,23,15,0,60,3,20140810190000
1175,"Jizhou EPA, Hengshui",,37.548552,115.58679,180,95,43,12,10,7,23,15,0,60,3,20140810190000
1280,"Zaoqiang EPA, Hengshui",,37.520698,115.714936,183,101,52,8,6,7,23,15,0,60,3,20140810190000
1281,"Wuyi EPA, Hengshui",,37.801554,115.898697,179,104,43,18,10,7,23,15,0,60,3,20140810190000
1282,"Wuqiang EPA , Hengshui",,38.03557,115.959767,185,-,42,23,18,11,23,15,0,60,3,20140810190000
1283,"Raoyang EPA , Hengshui",,38.230652,115.741041,179,88,67,12,13,6,23,15,0,60,3,20140810190000
1284,"Gucheng County , Hengshui",,37.347569,115.966707,179,94,90,13,15,7,24,15,0,54,3,20140810190000
471,Hengshui,,37.739562,115.676066,177,111,45,38,8,6,21,15,0,66,3,20140810190000
1176,"Xinji City Hall, Xinji",,37.949711,115.230084,182,102,66,17,20,8,22,15,0,63,3,20140810190000
474,"Qinjian street, Tianjin",,39.166588,117.15104,157,94,50,23,14,15,27,19,1003,61,2,20140810190000
475,"Nanjing Road, Tianjin",,39.120958,117.195112,159,86,78,14,14,15,27,19,1003,61,2,20140810190000
476,"Dazhigu No.8 road, Tianjin",,39.111811,117.25147,147,77,49,12,11,9,27,19,1003,61,2,20140810190000
477,"Qianjin street, Tianjin",,39.09371,117.207981,154,87,72,16,21,13,27,19,1003,61,2,20140810190000
478,"Huaihe street, Tianjin",,39.227167,117.191293,191,189,38,-,16,17,27,19,1003,61,2,20140810190000
479,"Xiangshan street, Tianjin",,39.134752,117.275125,169,86,49,15,13,17,27,19,1003,61,2,20140810190000
480,"Yuejin Road, Tianjin",,39.088177,117.320884,161,102,43,25,11,15,27,19,1003,61,2,20140810190000
481,"Zhujiang street, Tianjin",,39.064463,117.231268,-,-,-,-,-,-,-,-,0,-,-,20140810190000
482,"No.4 street, Tianjin",,39.035228,117.713424,169,113,33,36,16,16,27,19,1003,61,2,20140810190000
483,"Yongming road, Tianjin",,38.840392,117.463805,158,91,34,26,13,11,27,19,1003,61,2,20140810190000
484,"Xinhua street, Tianjin",,39.138671,117.010083,153,86,95,17,14,10,27,19,1003,61,2,20140810190000
485,"Jingu Road, Tianjin",,38.985659,117.381254,159,112,45,11,12,11,27,19,1003,61,2,20140810190000
486,"Tanggu Yingkou street, Tianjin",,39.021768,117.656454,168,102,49,26,17,11,27,19,1003,61,2,20140810190000
487,"Hexi Yijing road, Tianjin",,39.248392,117.798043,147,82,44,33,6,13,27,19,1003,61,2,20140810190000
488,"Jianshe Road, Tianjin",,39.720075,117.310588,160,95,42,37,6,9,27,19,1003,61,2,20140810190000
489,"Quanzhou South road, Tianjin",,39.373857,117.050329,181,137,50,40,11,21,27,19,1003,61,2,20140810190000
490,"Donghuan road, Tianjin",,40.043144,117.451062,85,40,46,24,4,8,27,19,1003,61,2,20140810190000
491,"Tuanpowa, Tianjin",,38.920418,117.16299,163,98,45,22,16,14,27,19,1003,61,2,20140810190000
493,"Beiwei No.2 road, Tianjin",,38.943857,116.920624,151,59,94,14,12,12,27,19,1003,61,2,20140810190000
494,"Haitai fazhan No.2 road, Tianjin",,39.079608,117.096583,161,69,89,22,6,16,27,19,1003,61,2,20140810190000
495,"Hangtian road, Tianjin",,39.152244,117.381309,167,94,37,37,12,16,27,19,1003,61,2,20140810190000
496,"Hanbei road, Tianjin",,39.159768,117.770477,160,71,51,20,7,16,27,19,1003,61,2,20140810190000
497,"Baobai highway, Tianjin",,39.51757,117.349635,139,86,42,5,4,9,27,19,1003,61,2,20140810190000
498,Tianjin,,39.085164,117.207281,159,87,78,16,21,15,27,19,1003,61,2,20140810190000
499,"Wolong bridge, Hangzhou",,30.24371,120.132762,82,37,26,6,4,6,26,21,1004,74,2,20140810190000
500,"Hemu primary school, Hangzhou",,30.309669,120.124507,107,33,37,16,3,8,26,21,1004,74,2,20140810190000
501,"Zhejiang Agricultural University, Hangzhou",,30.265601,120.197583,153,67,23,23,10,11,26,21,1004,74,2,20140810190000
502,"Xiasha, Hangzhou",,30.303516,120.352618,152,52,23,15,11,7,26,21,1004,74,2,20140810190000
503,"Yunqi, Hangzhou",,30.178555,120.093142,76,30,22,8,4,7,26,21,1004,74,2,20140810190000
504,"Xixi, Hangzhou",,30.272425,120.068144,82,28,26,12,3,9,26,21,1004,74,2,20140810190000
505,"Chengxiang town, Hangzhou",,30.179493,120.274184,127,51,27,11,6,9,26,21,1004,74,2,20140810190000
506,"Qiandao lake, Hangzhou",,29.638139,119.031092,80,30,39,5,2,12,26,21,1004,74,2,20140810190000
507,"Linping town, Hangzhou",,30.415948,120.305059,151,50,29,14,9,9,26,21,1004,74,2,20140810190000
509,"No.2 Middle School, Hangzhou",,30.044303,119.956356,87,34,-,-,-,8,26,21,1004,74,2,20140810190000
510,"City Hall, Hangzhou",,30.234185,119.723503,55,37,37,6,4,7,26,21,1004,74,2,20140810190000
511,"No. 4 middle school, Hangzhou",,30.229428,119.699591,55,28,7,4,7,8,26,21,1004,74,2,20140810190000
512,Hangzhou,,30.271756,120.159765,153,67,37,23,10,11,26,21,1004,74,2,20140810190000
513,"City Station, Wenzhou",,28.009715,120.679129,99,46,17,16,6,12,24,24,0,96,1,20140810190000
514,"Ouhai, Wenzhou",,28.001846,120.641982,104,51,11,19,2,15,24,24,0,96,1,20140810190000
515,"Longwan, Wenzhou",,27.968122,120.768393,102,47,18,25,3,9,24,24,0,96,1,20140810190000
516,"Nanpu, Wenzhou",,27.981763,120.683685,112,55,14,16,4,19,24,24,0,96,1,20140810190000
517,Wenzhou,,27.990985,120.703425,112,55,18,25,6,19,24,24,0,96,1,20140810190000
518,"Monitoring station, Jiaxing",,30.75437,120.767373,153,58,26,23,22,10,25,22,1004,83,1,20140810190000
519,"Jiaxing University, Jiaxing",,30.745099,120.735004,149,69,31,28,9,8,25,22,1004,83,1,20140810190000
520,"Qinghe Primary School, Jiaxing",,30.775685,120.747969,144,70,37,12,12,6,25,22,1004,83,1,20140810190000
521,Jiaxing,,30.751627,120.762862,153,70,27,28,22,10,25,22,1004,83,1,20140810190000
522,"Chengbei water plant, Huzhou",,30.891155,120.096593,78,57,15,23,13,10,24,22,1004,89,1,20140810190000
523,"Jishan new village, Huzhou",,30.859939,120.120168,142,51,18,26,10,11,24,22,1004,89,1,20140810190000
524,"Town west water plant, Huzhou",,30.862371,120.084577,99,52,12,22,4,8,24,22,1004,89,2,20140810190000
525,Huzhou,,30.892304,120.091694,142,57,18,28,13,11,24,22,1004,89,1,20140810190000
526,"Donghu middle school, Shaoxing",,29.990447,120.647547,151,59,33,23,31,8,25,20,1004,74,1,20140810190000
527,"City EPA station, Shaoxing",,30.001695,120.584318,157,68,34,16,10,5,26,21,1004,74,2,20140810190000
528,"Chengdong BDA committee, Shaoxing",,29.986643,120.613578,154,61,33,13,35,4,26,21,1004,74,2,20140810190000
529,"Paojiang station, Shaoxing",,30.07574,120.62154,153,63,29,27,52,11,26,21,1004,74,2,20140810190000
530,"Shaoxing technical school, Shaoxing",,29.930983,120.577131,137,59,16,14,8,8,25,20,1004,74,1,20140810190000
531,"Library, Shaoxing",,29.706266,120.253183,147,62,23,8,6,19,25,20,1004,74,1,20140810190000
532,"Transporation management station, Shaoxing",,29.726405,120.221602,134,73,23,3,6,23,25,20,1004,74,1,20140810190000
533,"Dongpu Town Governement, Shaoxing",,30.049601,120.539893,142,56,24,21,17,9,25,20,1004,74,1,20140810190000
534,Shaoxing,,29.993122,120.590182,157,63,34,27,52,11,25,21,1004,78,0,20140810190000
535,"City Monitoring Station, Jinhua",,29.100031,119.690373,154,0,32,8,6,8,23,23,0,96,1,20140810190000
536,"No.15 middle school, Jinhua",,29.074022,119.652121,152,0,33,6,5,9,23,23,0,96,1,20140810190000
537,"No.4 middle school, Jinhua",,29.110109,119.653654,153,0,29,9,8,10,23,23,0,96,1,20140810190000
538,"Beiyuan, Jinhua",,29.332898,120.083351,151,60,25,11,10,10,23,23,0,96,1,20140810190000
539,"Jiangdong, Jinhua",,29.302486,120.095291,152,65,31,11,9,11,23,23,0,96,1,20140810190000
540,Jinhua,,29.076083,119.65215,154,0,33,9,8,10,23,23,0,96,1,20140810190000
541,"EPA building, Quzhou",,28.937291,118.876081,91,41,20,12,11,9,26,25,1003,96,2,20140810190000
542,"Experimental school, Quzhou",,28.961502,118.880916,112,0,16,6,3,7,26,25,1003,96,2,20140810190000
543,"Quzhou University, Quzhou",,28.971452,118.860052,95,45,21,12,5,6,26,25,1003,96,2,20140810190000
544,Quzhou,,28.966994,118.864252,112,45,21,12,11,8,26,25,1003,96,2,20140810190000
545,"Putuo east port, Zhoushan",,29.951412,122.317679,46,12,45,2,3,10,26,22,1004,78,1,20140810190000
546,"Dinghai tanfeng, Zhoushan",,30.018014,122.126566,78,24,47,3,2,7,26,22,1003,78,1,20140810190000
548,"Taizhou EPA building, Taizhou",,28.651216,121.42331,151,59,41,2,2,9,25,24,0,94,1,20140810190000
549,"Luqiao Tian Yang Wang, Taizhou",,28.574364,121.381194,154,61,34,5,3,7,25,24,0,94,1,20140810190000
550,"Huangyan EPA building, Taizhou",,28.656151,121.285064,142,53,26,3,2,19,25,24,0,94,1,20140810190000
551,"Yu Zhuang Qian, Lishui",,28.419638,119.883884,109,39,27,19,6,5,28,25,1004,80,1,20140810190000
552,"Monitoring station building, Lishui",,28.444379,119.923103,151,53,21,13,2,6,27,25,1003,89,0,20140810190000
553,"Liandu primary school, Lishui",,28.450912,119.939332,152,63,21,8,2,7,27,25,1003,89,0,20140810190000
554,Lishui,,28.464224,119.927201,152,63,22,18,7,7,27,25,1003,89,0,20140810190000
1248,Jingningxian,,27.977454,119.634837,76,38,11,2,3,10,27,25,1003,89,0,20140810190000
555,Taigu Primary School,,29.858177,121.593738,122,55,34,10,7,8,26,22,1004,78,1,20140810190000
556,Qianhu shuihan,,29.862459,121.5328,151,62,31,8,8,10,26,22,1004,78,1,20140810190000
557,Sanjiang secondary schools,,29.884687,121.562713,142,58,31,12,10,9,26,22,1004,78,1,20140810190000
558,Longsai Hospital,,29.949294,121.720671,152,57,35,15,9,9,26,22,1004,78,1,20140810190000
559,Beilun District EPB,,29.899544,121.827597,154,68,36,19,10,9,26,22,1004,78,1,20140810190000
560,Wanli University,,29.896155,121.541154,139,67,38,13,22,9,26,22,1004,78,1,20140810190000
561,Qianhu water plant,,29.788156,121.652415,109,50,29,15,4,8,26,22,1004,78,1,20140810190000
562,Municipal management station,,29.893743,121.620269,151,62,33,15,5,8,26,22,1004,78,1,20140810190000
1177,Daxie Literary Museum,,29.891281,121.952741,149,67,44,70,50,8,26,22,1004,78,1,20140810190000
1178,Cixi EPB,,30.159852,121.242331,152,59,37,11,13,14,26,22,1004,78,1,20140810190000
1179,Cixi Experimently Primary School,,30.174341,121.262169,152,65,36,12,9,12,26,22,1004,78,1,20140810190000
1180,"Yongsan Park, Yuyao",,30.045532,121.157602,-,-,-,-,-,-,-,-,0,-,-,20140810190000
1181,"Qilupu Water Company, Yuyao",,30.039112,121.133416,-,-,-,-,-,-,-,-,0,-,-,20140810190000
1182,Fenghua EPB,,29.660537,121.414074,124,44,41,7,5,11,26,22,1004,78,1,20140810190000
1183,"Yuelong station, Ninghai",,29.290223,121.439263,157,64,27,10,6,28,26,22,1004,78,1,20140810190000
1184,"Wenfeng Primary School, Xiangshan",,29.470841,121.895054,170,63,34,8,5,9,26,22,1004,78,1,20140810190000
1185,"Chengnan Primary School, Ninghai",,29.282647,121.428839,119,53,34,5,8,9,26,22,1004,78,1,20140810190000
1186,"Xingang Primary School, Xiangshan",,29.199718,121.935879,142,42,39,7,6,10,26,22,1004,78,1,20140810190000
1294,Ningbo,,29.865766,121.548164,152,67,38,15,22,9,26,22,1004,78,1,20140810190000
1187,Fuyang,,30.046157,119.96468,89,37,-,-,-,9,25,20,1004,74,1,20140810190000
1188,Yiwu,,29.304353,120.079794,152,65,31,11,10,11,-,-,0,-,-,20140810190000
1189,Zhuji,,29.711185,120.240748,147,73,23,8,6,23,25,20,1004,74,1,20140810190000
563,"Shanxi Road , Nanjing",,32.06795,118.779216,157,69,12,38,5,8,23,22,1004,94,1,20140810200000
564,"Ruijin Road , Nanjing",,32.029321,118.80817,151,58,5,31,4,12,23,22,1004,94,1,20140810200000
565,"Xuanwu Lake, Nanjing",,32.075423,118.800188,154,64,7,33,3,7,23,22,1004,94,1,20140810200000
566,"Olympic Center, Nanjing",,32.007171,118.742217,147,54,7,6,2,6,23,22,1004,94,1,20140810200000
567,"Xianlin University Town , Nanjing",,32.106958,118.919882,144,62,6,12,1,11,23,22,1004,94,1,20140810200000
568,Nanjing,,32.058179,118.802061,151,57,12,21,4,9,23,22,1004,94,1,20140810200000
569,"Shangfang hill , Suzhou",,31.24502,120.565211,159,65,16,13,4,10,24,22,1004,89,1,20140810200000
570,"Wuzhong District , Suzhou",,31.268105,120.61717,172,69,30,34,5,10,24,22,1004,89,1,20140810200000
571,"Suzhou New District , Suzhou",,31.297277,120.547262,162,65,15,21,12,13,24,22,1004,89,2,20140810200000
572,"Suzhou Industrial Area, Suzhou",,31.307603,120.673257,174,82,26,22,5,14,24,22,1004,89,1,20140810200000
573,"Xiangcheng district, Suzhou",,31.368674,120.645209,170,84,35,18,19,11,24,22,1004,89,1,20140810200000
574,Suzhou,,31.296701,120.589493,179,87,20,39,14,13,24,22,1004,89,1,20140810200000
575,"South suburb , Nantong",,31.957836,120.917218,104,43,23,7,6,5,21,20,1003,94,1,20140810200000
576,"Xinghu park, Nantong",,31.927873,120.944254,89,54,26,4,9,6,21,20,1003,94,1,20140810200000
577,"Zilang school, Nantong",,32.039638,120.814358,122,60,20,16,4,0,21,20,1003,94,1,20140810200000
578,Nantong,,31.978005,120.898555,104,53,28,5,9,6,21,20,1003,94,1,20140810200000
579,Lianyungang,,34.595509,119.226814,152,84,21,27,10,7,8,8,1016,96,0,20140810200000
580,"Hongmen police substation, Lianyungang",,34.588692,119.146693,234,122,32,14,15,7,24,23,1005,91,2,20140810200000
581,"Xugou Nuclear Expert Village , Lianyungang",,34.749957,119.373707,173,85,31,14,8,8,24,23,1005,91,2,20140810200000
582,"Hengrui pharmaceutical company, BDA, Lianyungang",,34.697574,119.353668,163,79,29,19,8,3,24,23,1005,91,2,20140810200000
583,"City Monitoring Station, Lianyungang",,34.586791,119.186929,172,70,16,18,4,6,24,23,1005,91,2,20140810200000
584,"Yellow river new village , Xuzhou",,34.271542,117.177241,89,62,125,14,11,10,24,21,1006,82,0,20140810200000
585,"Tongshan Veterinary Hospital , Xuzhou",,34.307086,117.197766,104,59,20,29,6,7,24,21,1006,82,0,20140810200000
586,"New Town , Xuzhou",,34.213992,117.261718,122,68,15,25,4,13,24,21,1006,82,0,20140810200000
587,"Taoyuan road, Xuzhou",,34.289822,117.249721,129,72,19,22,6,12,24,21,1006,82,0,20140810200000
588,"Agricultural Science Academy , Xuzhou",,34.27655,117.299079,91,86,22,24,19,10,24,21,1006,82,0,20140810200000
589,"Tongshan EPA, Xuzhou",,34.179384,117.171798,89,62,19,10,6,8,24,21,1006,82,0,20140810200000
590,Xuzhou,,34.20346,117.289825,129,72,25,22,11,12,24,21,1006,82,0,20140810200000
592,"Hanjiang Monitoring Station, Yangzhou",,32.374218,119.394484,158,63,23,10,3,8,21,20,0,96,1,20140810200000
593,"No. 4 Hospital, Yangzhou",,32.401394,119.44444,164,86,26,7,7,6,21,20,0,96,1,20140810200000
594,"City Monitoring Station, Yangzhou",,32.406588,119.41591,153,64,11,10,13,6,21,21,0,97,1,20140810200000
595,"University Town , Wuxi",,31.484752,120.273571,159,43,48,9,7,11,24,22,1004,89,1,20140810200000
596,"Shibei High School , Wuxi",,31.619969,120.279584,171,80,16,18,18,6,24,22,1004,89,2,20140810200000
597,"Yuhong Elementary School , Wuxi",,31.561155,120.249588,162,82,23,15,21,12,24,22,1004,89,2,20140810200000
598,Wuxi,,31.488746,120.31575,171,102,47,20,21,19,24,22,1004,89,2,20140810200000
599,Changzhou,,31.808037,119.979205,172,86,6,22,36,13,11,9,0,88,5,20140810200000
600,"Chengjian School, Changzhou",,31.776476,119.937681,156,63,21,19,8,10,22,21,1003,95,1,20140810200000
601,"Changzhou Engineering Institute , Changzhou",,31.806828,119.966724,162,67,23,23,11,8,22,21,1003,95,1,20140810200000
602,"Wujin Monitoring Station, Changzhou",,31.701788,119.939676,162,59,28,14,11,12,22,21,1003,95,1,20140810200000
603,"City Monitoring Station, Changzhou",,31.777201,119.979426,169,80,28,12,10,8,22,21,1003,95,1,20140810200000
604,Zhenjiang,,32.18597,119.431281,170,79,4,39,15,13,9,8,0,93,5,20140810200000
605,"New District Administrative office , Zhenjiang",,32.186174,119.685021,168,101,29,18,6,17,23,22,1004,94,1,20140810200000
606,"Vocational Education Center , Zhenjiang",,32.212973,119.496253,154,79,18,17,4,9,23,22,1004,94,1,20140810200000
607,"Dantu Monitoring Station , Zhenjiang",,32.130026,119.435432,107,59,21,17,8,10,23,22,1004,94,1,20140810200000
608,"City Monitoring Station, Zhenjiang",,32.202178,119.439766,117,57,13,16,5,13,23,22,1004,94,1,20140810200000
609,"Gaogang Adminstrative office , Taizhoushi",,32.300768,119.886757,218,68,21,10,11,13,21,20,0,96,1,20140810200000
610,"Students Innovation Park , Taizhoushi",,32.461672,119.892761,187,84,36,4,9,11,21,20,0,96,1,20140810200000
611,Taizhoushi,,32.453555,119.927852,218,93,36,14,16,14,21,20,0,96,1,20140810200000
612,"Yancheng power station , Yancheng",,33.400859,120.123067,109,53,21,16,4,6,-,-,0,-,-,20140810200000
613,Yancheng,,33.345939,120.168504,144,52,30,5,3,7,11,10,1016,95,4,20140810200000
614,"Wenfeng Middle School , Yancheng",,33.370531,120.134041,89,48,15,14,1,6,-,-,0,-,-,20140810200000
615,"BDA Management Committe, Yancheng",,33.393191,120.22978,63,39,24,12,2,5,-,-,0,-,-,20140810200000
616,"City Monitoring Station, Yancheng",,33.390623,120.164423,122,54,20,18,6,6,21,20,0,96,1,20140810200000
617,Suqian,,33.960666,118.281004,160,87,24,7,5,7,11,10,0,91,6,20140810200000
618,"Suqian College , Suqian",,33.951472,118.298523,157,110,39,26,14,12,21,21,0,95,1,20140810200000
619,"Suqian Middle School , Suqian",,33.95784,118.249505,182,107,16,20,5,10,21,20,0,95,1,20140810200000
620,"Suyu District Environmental Protection Agency , Suqian",,33.94932,118.326569,163,130,21,19,8,15,21,20,0,95,1,20140810200000
621,"City Monitoring Station, Suqian",,33.956982,118.277022,250,137,28,25,11,16,21,20,0,95,1,20140810200000
622,Taizhou,,28.653436,121.425185,154,61,40,4,3,19,25,24,0,95,2,20140810200000
623,Donghu Liyuan,,30.572324,114.377844,59,37,23,7,2,9,24,23,1004,94,1,20140810200000
624,Yuehu Lake,,30.554662,114.256937,68,47,23,19,0,8,24,23,1004,94,1,20140810200000
625,Hankou Huaqiao ,,30.61724,114.287652,107,56,24,20,2,11,24,23,1004,94,1,20140810200000
626,Wuchang Ziyang ,,30.530801,114.309438,72,48,21,17,0,8,24,23,1004,94,1,20140810200000
627,Qingshan Ganghua,,30.622435,114.375599,112,41,23,13,7,9,24,23,1004,94,1,20140810200000
628,Dunkou Xinou,,30.480091,114.162176,87,80,20,22,5,10,24,23,1004,94,1,20140810200000
629,Donghu Gaoxin,,30.48095,114.40724,72,65,14,9,97,9,24,23,1004,94,1,20140810200000
630,Wujianshan,,30.63114,114.135907,99,53,19,11,0,8,24,23,1004,94,1,20140810200000
631,Yuanshun Road,,30.297142,113.858587,104,53,33,5,2,10,24,23,1004,94,1,20140810200000
632,Wuhan,,30.590689,114.310838,112,56,24,7,2,9,24,23,1004,94,1,20140810200000
1190,"Silingsan Factory, Yichang",,30.713288,111.306585,153,74,9,11,1,10,23,21,1005,89,3,20140810200000
633,Yichang,,30.689528,111.292131,159,74,11,11,11,16,23,21,1005,89,3,20140810200000
633,Yichang,,30.689528,111.292131,159,74,11,11,11,16,23,21,1005,89,3,20140810200000
1191,"City Library , Jingzhou",,30.31494,112.260844,117,40,38,4,6,7,24,21,1005,77,2,20140810200000
1192,"City committee communist party school, Jingzhou",,30.35054,112.20743,112,50,36,6,7,11,24,21,1005,77,2,20140810200000
1193,"kerong EPA, Jingzhou",,30.302965,112.29443,112,56,38,8,8,6,24,21,1005,77,2,20140810200000
634,Jingzhou,,30.332608,112.245451,117,56,38,8,8,11,24,21,1005,77,2,20140810200000
634,Jingzhou,,30.332608,112.245451,117,56,38,8,8,11,24,21,1005,77,2,20140810200000
635,Huangshi,,30.19723,115.043908,152,76,11,20,4,18,26,22,1006,91,2,20140810200000
635,Huangshi,,30.19723,115.043908,152,76,11,20,4,18,26,22,1006,91,2,20140810200000
1194,"Chenjiaying, Huangshi",,30.232823,115.067923,102,55,8,5,1,12,26,,1006,91,2,20140810200000
1195,"Chenjiawan , Huangshi",,30.200422,115.082138,139,62,8,4,1,13,26,,1006,91,2,20140810200000
1196,"Xinxialu, Huangshi",,30.17332,114.954357,119,63,10,20,4,11,26,,1006,91,2,20140810200000
1197,"Tie montian, Huangshi",,30.203885,114.906439,152,76,9,17,1,18,26,,1006,91,2,20140810200000
1198,"BDA, Huangshi",,30.207491,115.031739,119,58,11,7,1,11,26,,1006,91,2,20140810200000
636,Shiyan,,32.627208,110.803311,50,24,10,4,1,9,19,21,941,100,1,20140810200000
636,Shiyan,,32.627208,110.803311,50,24,10,4,1,9,19,21,941,100,1,20140810200000
1199,"Wudang Mountain , Shiyan",,32.392921,111.047655,9,11,9,1,-,4,20,,955,94,1,20140810200000
1200,"Riverside Village , Shiyan",,32.647286,110.785335,38,23,10,4,1,-,19,,941,97,1,20140810200000
1201,"Liujiagou , Shiyan",,32.636732,110.731129,42,24,8,3,1,9,19,,941,97,1,20140810200000
1202,"Yunyang County District automatic air station , Shiyan",,32.833065,110.816809,25,17,2,1,2,5,19,,941,97,1,20140810200000
637,Xiangyang,,32.007029,112.128496,57,22,5,1,7,8,24,,1006,82,2,20140810200000
637,Xiangyang,,32.007029,112.128496,57,22,5,1,7,8,24,,1006,82,2,20140810200000
638,Ezhou,,30.389244,114.899884,127,64,11,7,3,19,26,22,1014,98,2,20140810200000
638,Ezhou,,30.389244,114.899884,127,64,11,7,3,19,26,22,1014,98,2,20140810200000
1203,"City government, Ezhou",,30.391836,114.892822,112,46,8,6,2,5,26,,1013,88,2,20140810200000
1204,"Zhaojiaba, Ezhou",,30.368966,114.90365,127,64,7,7,1,11,26,,1013,88,2,20140810200000
1205,"Fankou BDA, Ezhou",,30.410759,114.818225,119,52,11,3,3,19,26,,1013,88,2,20140810200000
639,Jingmen,,31.033208,112.205093,117,32,38,6,20,11,22,21,999,98,2,20140810200000
639,Jingmen,,31.033208,112.205093,117,32,38,6,20,11,22,21,999,98,2,20140810200000
640,Xiaogan,,30.922089,113.922387,152,60,9,2,1,10,23,22,1005,94,1,20140810200000
640,Xiaogan,,30.922089,113.922387,152,60,9,2,1,10,23,22,1005,94,1,20140810200000
1206,"wenhua street, Shenyang , Xiaogan",,30.925856,113.92104,152,60,9,2,1,10,23,22,1005,94,1,20140810200000
1207,"Dongcheng District , Huludao , Xiaogan",,30.917963,113.943904,-,-,-,-,-,-,-,22,0,-,-,20140810200000
641,Huanggang,,30.45124,114.877378,122,52,7,5,1,15,26,23,1013,88,2,20140810200000
641,Huanggang,,30.45124,114.877378,122,52,7,5,1,15,26,23,1013,88,2,20140810200000
1208,"Dazhou Island, Huanggang",,30.446205,114.900323,112,66,7,6,1,15,26,,1013,88,2,20140810200000
1209,"Workers Center , Huanggang",,30.469244,114.912504,-,-,-,-,-,-,-,,0,-,-,20140810200000
642,Xianning,,29.838978,114.327898,144,62,18,3,1,13,24,23,979,97,1,20140810200000
642,Xianning,,29.838978,114.327898,144,62,18,3,1,13,24,23,979,97,1,20140810200000
1210,"Municipal Development and Reform Commission , Xianning",,29.818645,114.328461,124,59,14,-,1,13,24,,979,97,1,20140810200000
1211,"Xianan District Governement, Xianning",,29.51107,114.181864,132,64,10,4,7,14,23,,988,91,1,20140810200000
1212,"Yangtze River Industrial Park , Xianning",,29.883098,114.32909,132,59,18,1,1,13,24,,979,97,1,20140810200000
1213,"Qianshan Park, Xianning",,29.815351,114.328689,144,62,14,3,1,13,24,,979,97,1,20140810200000
644,Enshi,,30.292138,109.484562,167,97,34,11,8,41,21,21,906,98,1,20140810200000
644,Enshi,,30.269587,109.493042,167,97,34,11,8,41,21,21,906,98,1,20140810200000
645,Xiantao,,30.360228,113.460616,152,81,9,2,7,10,24,23,1014,86,1,20140810200000
645,Xiantao,,30.360228,113.460616,152,81,9,2,7,10,24,23,1014,86,1,20140810200000
646,Qianjiang,,30.399387,112.905661,117,52,38,4,6,11,23,21,1013,97,3,20140810200000
646,Qianjiang,,30.399387,112.905661,117,52,38,4,6,11,23,21,1013,97,3,20140810200000
647,Tianmen,,30.661027,113.172549,152,24,9,12,5,10,24,21,1014,85,1,20140810200000
647,Tianmen,,30.661027,113.172549,152,24,9,12,5,10,24,21,1014,85,1,20140810200000
1088,Shennongjia,,31.741307,110.685554,50,18,10,9,1,9,17,21,876,99,1,20140810200000
1088,Shennongjia,,31.741307,110.685554,50,18,10,9,1,9,17,21,876,99,1,20140810200000
1214,"Xiangcheng Yundong Street, Xiangfan",,32.017716,112.16102,55,20,6,1,2,8,23,,1006,87,1,20140810200000
655,"City Environmental Monitoring Station, Baotou",,40.657201,109.886738,61,50,19,13,7,5,,,0,,,20140810200000
656,"Donghe EPB, Baotou",,40.586213,110.002224,93,104,16,26,32,10,,,0,,,20140810200000
657,"Baotou shopping mall, Baotou",,40.508334,109.819085,85,50,23,8,4,10,,,0,,,20140810200000
658,"Huilong logistics, Baotou",,40.633436,109.879821,74,54,21,16,6,6,,,0,,,20140810200000
659,Baotou,,40.658597,109.846051,93,104,23,26,32,10,17,11,0,58,0,20140810200000
660,"Huatai Automobile Mall, Eerduosi",,39.837048,109.972209,59,32,64,5,6,2,17,11,1008,58,0,20140810200000
661,"Olympus Garden, Eerduosi",,39.789171,109.987742,65,46,83,14,7,5,17,11,1008,58,0,20140810200000
662,Eerduosi,,39.609284,109.78704,80,50,95,16,18,7,17,11,1008,58,0,20140810200000
663,"Tianyi Road, Chifeng",,42.275552,118.88507,21,10,64,7,11,8,17,13,1006,70,2,20140810200000
664,"Songshan No.1 Middle School, Chifeng",,42.329307,118.793045,30,30,47,9,3,12,17,13,1006,70,2,20140810200000
665,"Hada Street, Chifeng",,42.280714,118.988235,-,-,-,-,-,-,-,-,0,-,-,20140810200000
666,"Songshan Road, Chifeng",,42.171487,118.89501,42,38,92,6,18,5,17,13,1006,70,2,20140810200000
667,Chifeng,,42.259752,118.893027,42,38,92,9,18,12,17,13,1006,70,2,20140810200000
674,Fuzhou,,26.071406,119.301294,68,36,40,14,2,1,27,25,1003,89,2,20140810200000
675,"Xidong, Xiamen",,24.815345,118.161848,87,40,132,6,2,6,29,27,1002,89,2,20140810200000
676,"Hongwen, Xiamen",,24.473969,118.156281,117,75,70,26,24,10,29,27,1002,89,2,20140810200000
677,"Gulangyu, Xiamen",,24.443168,118.068571,159,80,57,23,27,8,29,27,1002,89,2,20140810200000
678,"Huli, Xiamen",,24.51235,118.099146,129,71,84,28,17,6,29,27,1002,89,2,20140810200000
679,Xiamen,,24.477187,118.094402,153,67,84,29,22,8,29,27,1002,89,2,20140810200000
680,"Qingyuan Montain, Quanzhou",,24.939503,118.598337,65,44,69,5,8,4,29,27,1002,89,2,20140810200000
681,"Tushan Street, Quanzhou",,24.90867,118.586397,80,41,24,2,4,6,29,27,1002,89,2,20140810200000
682,"Wanan, Quanzhou",,24.304154,118.070903,80,32,43,4,2,7,29,27,1002,89,2,20140810200000
683,Quanzhou,,24.87179,118.68001,82,48,69,10,8,8,29,27,1002,89,2,20140810200000
687,"Jiancaoping, Taiyuan",,37.887889,112.528383,102,75,9,27,10,10,18,14,1010,77,1,20140810200000
688,"Jianhe, Taiyuan",,37.910779,112.579258,117,102,6,30,12,16,18,14,1010,77,1,20140810200000
689,"Shanglan, Taiyuan",,38.011589,112.440679,57,44,35,6,9,5,18,14,1010,77,1,20140810200000
690,"Jinyuan, Taiyuan",,37.713164,112.475552,95,63,24,33,20,15,18,14,1009,77,1,20140810200000
691,"Xiaodian, Taiyuan",,37.782137,112.483533,144,86,26,42,40,13,18,14,1010,77,1,20140810200000
692,"Taoyuan, Taiyuan",,37.869752,112.543332,78,59,10,25,13,13,18,14,1009,77,1,20140810200000
693,"Wucheng, Taiyuan",,37.819998,112.576252,154,93,18,33,11,17,18,14,1009,77,1,20140810200000
694,"Nanzhai, Taiyuan",,37.985902,112.555312,107,68,9,23,7,11,18,14,1010,77,1,20140810200000
695,"Jinsheng, Taiyuan",,37.781205,112.494494,152,62,14,28,29,17,18,14,1010,77,1,20140810200000
696,Taiyuan,,37.871115,112.555178,102,75,9,27,13,10,18,14,1010,77,1,20140810200000
697,"Monitoring station, Changzhi",,36.194062,113.10389,162,88,5,28,24,15,23,21,0,88,1,20140810200000
698,"Auditing bureau, Changzhi",,36.212787,113.095221,155,83,8,35,19,14,23,21,0,88,1,20140810200000
699,"Qinghua station, Changzhi",,36.154328,113.116385,127,73,7,24,6,16,23,21,0,88,1,20140810200000
700,"No.8 middle school, Changzhi",,36.185451,113.099481,144,75,4,25,36,14,,,0,,,20140810200000
701,Changzhi,,36.195553,113.12292,162,88,8,35,36,16,17,15,0,88,0,20140810200000
702,"Yungang Hotel, Datong",,40.076997,113.278079,72,46,23,12,14,14,13,9,1008,69,1,20140810200000
703,"college of education, Datong",,40.085608,113.27808,87,25,22,8,10,18,13,9,1008,69,1,20140810200000
704,Datong,,40.078016,113.307143,87,46,31,15,14,18,13,9,1008,69,1,20140810200000
705,"Technical Schools, Linfen",,36.07131,111.509046,271,191,16,38,5,64,15,10,0,68,1,20140810200000
706,"Municipal party committee, Linfen",,36.087425,111.508771,189,145,12,2,7,36,15,10,0,68,1,20140810200000
1073,"City Monitoring Station, Linfen",,36.097676,111.518739,193,92,5,103,63,37,15,10,0,69,1,20140810200000
707,"South Airport, Linfen",,36.041614,111.497968,217,120,4,33,2,39,15,10,0,68,1,20140810200000
708,Linfen,,36.087944,111.525098,271,191,16,103,9,64,15,10,0,68,1,20140810200000
709,"City center, Yangquan",,37.848012,113.578636,109,116,8,38,55,7,19,14,1010,73,2,20140810200000
710,Yangquan,,37.857475,113.586921,163,235,36,45,63,21,19,14,1010,73,2,20140810200000
711,"Water Company, Jincheng",,35.504787,112.857245,192,121,29,29,23,19,17,15,1005,88,0,20140810200000
712,"Baiyun shopping mall, Jincheng",,35.492858,112.841566,104,114,9,33,17,20,17,15,1005,88,0,20140810200000
713,"City EPA, Jincheng",,35.488422,112.858528,158,60,11,19,29,21,17,15,1005,88,0,20140810200000
714,"Institute of Technology, Jincheng",,35.484844,112.878073,89,104,43,16,11,19,17,15,1005,88,0,20140810200000
715,"No.1 middle school, Jincheng",,35.478725,112.838636,158,113,8,18,16,14,17,15,1005,88,0,20140810200000
716,Jincheng,,35.490287,112.85794,192,121,43,33,29,21,17,15,1005,88,0,20140810200000
718,"District Government, Shuozhou",,39.320857,112.430641,102,40,22,21,12,10,20,11,1006,44,3,20140810200000
719,"City EPA, Shuozhou",,39.331495,112.407997,102,62,22,38,20,10,20,11,1006,44,3,20140810200000
720,"No.2 middle school, Shuozhou",,39.377963,112.432877,50,61,16,26,22,8,20,11,1006,44,3,20140810200000
721,Shuozhou,,39.332756,112.439672,104,76,22,26,29,10,20,11,1006,44,3,20140810200000
722,"Jinlun compound, Jinzhong",,37.697891,112.771017,152,75,19,18,19,10,19,13,1009,68,1,20140810200000
723,"Hydraulic Component Factory, Jinzhong",,37.688355,112.725844,152,81,17,23,29,0,18,14,1009,77,1,20140810200000
724,"Nandu compound, Jinzhong",,37.713148,112.732036,153,90,8,28,26,12,19,13,1009,68,1,20140810200000
725,"Yuci district government, Jinzhong",,37.698228,112.714167,155,71,14,16,21,12,19,13,1009,68,1,20140810200000
726,Jinzhong,,37.687705,112.759187,152,81,19,28,29,12,19,14,1010,73,2,20140810200000
727,"Yuncheng Middle School, Yuncheng",,35.012345,111.003215,192,128,16,15,5,40,22,20,1005,85,1,20140810200000
728,"Yudou BDA, Yuncheng",,35.05065,111.029571,189,142,18,12,11,27,22,20,1005,85,1,20140810200000
730,"Regional Technical School, Yuncheng",,35.028727,110.974076,214,137,16,9,8,43,22,20,1005,85,1,20140810200000
731,"Airport new district, Yuncheng",,35.084515,111.05339,179,131,13,0,0,26,22,20,1005,85,1,20140810200000
732,Yuncheng,,35.025675,111.013344,189,128,18,15,11,43,22,20,1005,85,1,20140810200000
733,"Jiyin, Xinzhou",,38.413292,112.742432,152,105,21,24,35,10,23,14,1009,57,2,20140810200000
734,"BDA, Xinzhou",,38.450069,112.736723,152,25,21,5,20,10,18,14,1010,77,1,20140810200000
735,"Convention Center, Xinzhou",,38.492043,112.709772,-,-,-,-,-,-,-,-,0,-,-,20140810200000
736,Xinzhou,,38.417244,112.740742,152,25,21,5,20,10,18,14,1010,77,1,20140810200000
737,"City EPA, Luliang",,37.522189,111.144365,68,33,13,8,9,11,17,17,0,99,2,20140810200000
738,"Soybean factory, Luliang",,37.51689,111.135101,70,50,9,12,20,10,17,17,0,99,2,20140810200000
739,"Water Company, Luliang",,37.53394,111.138834,76,78,7,19,2,9,17,17,0,99,2,20140810200000
740,Luliang,,25.027007,103.668566,76,78,13,19,20,11,17,17,0,99,2,20140810200000
741,"City government, Sanmenxia",,34.776251,111.198781,153,90,2,25,4,14,22,20,1005,85,1,20140810200000
743,"BDA, Sanmenxia",,34.800434,111.204332,181,83,9,15,2,7,22,20,1005,85,1,20140810200000
744,Sanmenxia,,34.771506,111.206129,181,96,16,25,4,17,22,20,1005,85,1,20140810200000
745,"Food Factory, Changchun",,43.919094,125.329521,157,95,5,31,4,7,15,12,1002,82,1,20140810200000
746,"Bus Factory, Changchun",,43.912337,125.293431,152,84,3,33,10,12,15,12,1002,82,1,20140810200000
747,"Institute of Posts and Telecommunications, Changchun",,43.842368,125.285005,134,83,2,37,4,13,15,12,1002,82,1,20140810200000
748,"Laodong Park, Changchun",,43.877293,125.371519,142,70,4,41,5,13,15,12,1002,82,1,20140810200000
749,"Forest area, Changchun",,43.871825,125.331519,122,87,7,40,3,10,15,12,1002,82,1,20140810200000
750,"Jinyuetan, Changchun",,43.79031,125.460561,82,38,21,6,1,6,15,12,1002,82,1,20140810200000
751,"Shuaiwanzi, Changchun",,43.552321,125.639086,82,72,19,12,1,5,15,12,1002,82,1,20140810200000
752,"Economic Development Zone Sanitation Department, Changchun",,43.869221,125.42365,127,84,4,35,4,9,15,12,1002,82,1,20140810200000
753,"High-tech Zone Administrative Committee, Changchun",,43.819064,125.256375,114,71,3,32,2,7,15,12,1002,82,1,20140810200000
754,"Daishan Park, Changchun",,43.852365,125.223399,99,52,4,21,1,7,15,12,1002,82,1,20140810200000
755,Changchun,,43.819415,125.329977,142,83,4,41,5,13,15,12,1002,82,1,20140810200000
756,"Hadawan, Jilin",,43.888081,126.545727,158,107,6,25,5,7,13,10,0,84,1,20140810200000
757,"Fengman, Jilin",,43.768169,126.678802,50,15,30,4,2,5,13,10,0,84,1,20140810200000
758,"Electric Power College, Jilin",,43.827403,126.502281,76,39,20,12,3,6,13,10,0,84,1,20140810200000
759,"Jiangnan Park, Jilin",,43.83531,126.556519,80,51,17,19,5,5,13,10,0,84,1,20140810200000
760,"Dongjuzi, Jilin",,43.838597,126.590068,61,54,18,22,3,2,13,10,0,84,1,20140810200000
763,Jilin,,43.840137,126.555262,158,54,48,25,5,7,13,10,0,84,1,20140810200000
764,"Lingbei, Haerbin",,45.756979,126.548008,85,51,48,38,7,9,16,14,1002,88,1,20140810200000
765,"Songbei Commercial University, Haerbin",,45.818624,126.566963,160,59,51,24,6,6,16,14,1002,88,1,20140810200000
766,"Acheng huining, Haerbin",,45.544286,126.985183,109,67,47,17,3,5,16,14,1002,88,1,20140810200000
767,"Nangang College Street, Haerbin",,45.724121,126.604906,93,56,59,26,4,7,16,14,1002,88,1,20140810200000
768,"Taiping Hongwei Park, Haerbin",,45.775332,126.695101,112,54,50,33,4,8,16,14,1002,88,1,20140810200000
769,"Daowai Chengde Square, Haerbin",,45.768637,126.640955,89,47,50,30,9,5,16,14,1002,88,1,20140810200000
770,"Xiangfang Hongqi Street, Haerbin",,45.733936,126.691083,80,58,51,19,2,8,16,14,1002,88,1,20140810200000
771,"Dongli Heping Road, Haerbin",,45.727765,126.651974,97,56,75,24,9,5,16,14,1002,88,1,20140810200000
772,"Daoli Jianguo Road, Haerbin",,45.749715,126.59891,80,121,67,25,2,8,16,14,1002,88,1,20140810200000
773,"Pingfang Light Factory, Haerbin",,45.611951,126.620898,102,43,46,22,5,6,16,14,1002,88,1,20140810200000
774,"Hulan Normal College, Haerbin",,45.983745,126.616553,85,33,46,12,3,6,16,14,1002,88,1,20140810200000
775,"Provincial Academy of Agricultural Sciences, Haerbin",,45.686141,126.626517,87,54,46,28,6,6,16,14,1002,88,1,20140810200000
776,Haerbin,,45.805757,126.541007,160,59,51,38,7,9,16,14,1002,88,1,20140810200000
777,"Anju Compound, Qiqihaer",,47.365672,123.937016,55,43,47,9,3,4,20,18,1003,85,2,20140810200000
778,"Farming Vehicule Factory, Qiqihaer",,47.326793,123.961427,34,23,72,8,1,6,20,18,1003,85,2,20140810200000
779,"Fuqu EPA, Qiqihaer",,47.1853,123.62322,13,61,169,2,3,6,20,18,1003,85,2,20140810200000
780,"City Center Square, Qiqihaer",,47.343096,123.96192,38,26,6,3,2,4,20,18,1003,85,2,20140810200000
1217,"City Environmental Monitoring Station, Qiqihaer",,47.303639,123.957551,72,57,70,1,4,6,20,18,1003,85,2,20140810200000
781,Qiqihaer,,47.356387,123.924736,55,61,169,9,3,6,20,18,1003,85,2,20140810200000
782,"Saertu District, Daqing",,46.582368,125.152904,63,32,22,11,9,2,19,16,1002,82,0,20140810200000
783,"Datong District, Daqing",,46.036786,124.842115,63,25,46,3,5,3,19,16,1002,82,0,20140810200000
784,"Honggang District, Daqing",,46.418381,124.88973,65,25,48,6,4,4,19,16,1002,82,0,20140810200000
785,"Longfeng District, Daqing",,46.535426,125.107043,53,27,46,7,5,6,19,16,1002,82,0,20140810200000
786,"Ranghulu District, Daqing",,46.635123,124.85648,72,42,87,17,8,5,19,16,1002,82,0,20140810200000
787,Daqing,,46.591414,125.110838,72,42,87,17,9,6,19,16,1002,82,0,20140810200000
788,"Locomotive Factory, Mudanjiang",,44.610589,129.652672,93,55,97,9,6,3,14,13,1002,86,2,20140810200000
789,"No. 1 hospital, Mudanjiang",,44.567775,129.617043,134,16,45,14,15,5,14,13,1002,86,2,20140810200000
1220,"EPA building, Mudanjiang",,44.567777,129.620658,91,60,42,7,4,4,20,13,1005,53,4,20140810200000
1221,"Cultural Square, Mudanjiang",,44.586388,129.623164,147,58,29,16,8,3,20,13,1005,53,4,20140810200000
790,Mudanjiang,,44.553619,129.640246,134,55,97,14,15,5,14,13,1002,86,2,20140810200000
791,"Mingzhu Plaza, Hefei",,31.782847,117.201512,134,31,4,7,3,14,23,22,1005,94,2,20140810200000
792,"Sanli Street, Hefei",,31.874637,117.312573,162,78,0,17,4,15,23,22,1005,94,2,20140810200000
793,"Hupo Compound, Hefei",,31.868583,117.264491,-,-,-,-,-,-,-,-,0,-,-,20140810200000
794,"Dongpu Reservoir, Hefei",,31.90319,117.165584,160,74,-,10,1,10,23,22,1005,94,2,20140810200000
795,"Changjiang middle road, Hefei",,31.855185,117.255484,142,49,4,7,3,13,23,22,1005,94,2,20140810200000
796,"Luyang District, Hefei",,31.941771,117.271504,166,108,4,1,14,9,23,22,1005,94,2,20140810200000
797,"Yaohai District, Hefei",,31.856595,117.341644,198,58,12,6,6,14,23,22,1005,94,2,20140810200000
798,"Baohe District, Hefei",,31.793644,117.307554,160,24,2,2,1,11,23,22,1005,94,2,20140810200000
799,"Lake district, Hefei",,31.736619,117.283501,-,62,19,12,4,8,23,22,1005,94,2,20140810200000
800,"High-tech zone, Hefei",,31.849755,117.129624,117,52,15,3,10,6,23,22,1005,94,2,20140810200000
801,Hefei,,31.819449,117.232753,142,49,4,7,3,14,23,22,1005,94,2,20140810200000
802,"Hudong Road No.4 Elementary School, Maanshan",,31.684121,118.511017,147,60,13,19,8,11,23,22,1004,94,1,20140810200000
803,"Tianping Garment Factory, Maanshan",,31.64197,118.488043,122,56,19,9,4,8,23,22,1004,94,1,20140810200000
804,"City education base, Maanshan",,31.711216,118.648913,85,53,5,3,3,4,23,22,1004,94,1,20140810200000
805,"Cihu No.2 elementary school, Maanshan",,31.748546,118.515729,112,71,20,4,1,11,23,22,1004,94,1,20140810200000
806,"Maanshan steel factory power plant, Maanshan",,31.690864,118.48528,134,86,2,1,4,11,23,22,1004,94,1,20140810200000
807,Maanshan,,31.668461,118.511939,147,71,20,19,8,11,23,22,1004,94,1,20140810200000
808,"Science Innovation Center, Wuhu",,31.417056,118.375406,149,60,6,5,2,8,23,22,1004,94,1,20140810200000
809,"No.4 Water Plant, Wuhu",,31.315914,118.376231,152,62,15,13,7,4,23,22,1004,94,1,20140810200000
810,"Monitoring station, Wuhu",,31.348955,118.358154,127,53,9,4,11,5,23,22,1004,94,1,20140810210000
811,"Wuqierling Factory, Wuhu",,31.382068,118.407639,114,77,19,17,12,8,23,22,1004,94,1,20140810210000
812,Wuhu,,31.351007,118.438322,152,77,19,17,12,8,23,22,1004,94,1,20140810210000
813,"Jiangxi Foreign Affairs Office, Nanchang",,28.681036,115.897845,93,44,28,11,16,7,27,24,1003,79,2,20140810210000
814,"Provincial forestry company, Nanchang",,28.694646,115.892851,124,54,24,7,25,9,27,24,1003,79,2,20140810210000
815,"Institute of Forestry, Nanchang",,28.74099,115.818017,85,56,28,6,8,14,27,24,1003,79,2,20140810210000
816,"Jingdong town government, Nanchang",,28.693649,115.97793,89,53,36,7,8,7,27,24,1003,79,2,20140810210000
817,"Contruction Industry College, Nanchang",,28.683582,115.856915,70,28,28,8,12,8,27,24,1003,79,2,20140810210000
818,"Xianghu, Nanchang",,28.639112,115.896843,122,32,36,10,13,13,27,24,1003,79,2,20140810210000
819,"Martial Arts School, Nanchang",,28.796292,115.747122,85,36,9,4,5,7,27,24,1003,79,2,20140810210000
820,"Petrifaction Company, Nanchang",,28.609697,115.916832,122,52,29,9,11,11,27,24,1003,79,2,20140810210000
821,"Provincial Station, Nanchang",,28.681053,115.935848,97,47,31,9,11,10,27,24,1003,79,2,20140810210000
822,Nanchang,,28.679883,115.863022,124,54,28,8,25,9,27,24,1003,79,2,20140810210000
823,"Lushan Mountain Observatory, Jiujiang",,29.584073,115.998671,63,30,29,2,1,5,20,19,1006,89,1,20140810210000
824,"Shili, Jiujiang",,29.678969,115.992271,85,29,19,5,3,2,20,19,1006,89,1,20140810210000
825,"Maoshantou, Jiujiang",,29.702089,115.963113,74,29,19,4,-,7,20,19,1006,89,1,20140810210000
826,"Xiyuan, Jiujiang",,29.726646,115.993055,68,29,18,8,3,5,20,19,1006,89,1,20140810210000
827,"Wuqierling Factory, Jiujiang",,29.650969,116.022581,74,39,2,6,2,3,20,19,1006,89,1,20140810210000
828,"Water Scientific Research Institute, Jiujiang",,29.690223,116.067992,68,42,17,1,6,5,20,19,1006,89,1,20140810210000
829,"Zonghe Industrial Park, Jiujiang",,29.601135,115.916354,85,39,18,9,6,4,20,19,1006,89,1,20140810210000
830,"Petrochemical General Plant, Jiujiang",,29.75101,116.094516,34,20,17,2,1,5,20,19,1006,89,1,20140810210000
831,Jiujiang,,29.70254,116.007025,85,42,29,9,6,7,20,19,1006,89,1,20140810210000
832,"Tobacco Factory, Zhengzhou",,34.753419,113.687131,178,125,12,27,8,14,23,21,1005,88,1,20140810210000
833,"Textile Machinery Factory, Zhengzhou",,34.773366,113.647067,178,115,12,33,10,24,23,21,1005,88,1,20140810210000
834,"Banking College, Zhengzhou",,34.800856,113.681126,178,145,19,35,11,20,23,21,1005,88,1,20140810210000
835,"Water Supply Company, Zhengzhou",,34.807188,113.571089,191,126,22,31,18,19,23,21,1005,88,1,20140810210000
836,"Economic Development Zone Management Committee, Zhengzhou",,34.717652,113.733182,181,130,15,38,8,12,23,21,1005,88,1,20140810210000
837,"No. 47 middle school, Zhengzhou",,34.772211,113.74009,183,88,29,24,6,9,23,21,1005,88,1,20140810210000
838,"City Monitoring Station, Zhengzhou",,34.748404,113.60514,179,94,28,29,10,14,23,21,1005,88,1,20140810210000
839,"Henan Medical University, Zhengzhou",,34.752637,113.641658,181,122,15,23,10,12,23,21,1005,88,1,20140810210000
840,"Gangli Reservoir, Zhengzhou",,34.952652,113.64248,173,84,10,16,11,13,23,21,1005,88,1,20140810210000
841,Zhengzhou,,34.745417,113.631415,181,122,28,29,10,14,23,21,1005,88,1,20140810210000
842,"Henan University No.1 Hospital, Kaifeng",,34.799302,114.352706,164,69,11,11,11,11,23,21,1005,88,1,20140810210000
843,"Maternity And Child Hospital, Kaifeng",,34.795803,114.386103,154,69,23,10,9,12,23,21,1005,88,1,20140810210000
844,"Cancer Hospital, Kaifeng",,34.775428,114.350292,155,73,28,12,7,9,23,21,1005,88,1,20140810210000
845,"Yellow River Conservancy Institute, Kaifeng",,34.826066,114.324772,-,-,-,-,-,-,-,-,0,-,-,20140810210000
846,"Shijixing Kindergarden, Kaifeng",,34.793606,114.302744,-,-,-,-,-,-,-,-,0,-,-,20140810210000
847,Kaifeng,,34.796346,114.313426,164,73,28,12,11,11,23,21,1005,88,1,20140810210000
852,Jiaozuo,,35.215381,113.248188,187,125,45,20,16,20,23,21,1005,88,1,20140810210000
853,"Cotton Research Institute, Anyang",,36.081435,114.486451,155,62,28,6,5,6,23,21,1004,80,3,20140810210000
854,"Hongmiao Street, Anyang",,36.086733,114.326,181,133,26,18,19,0,23,21,1004,80,3,20140810210000
855,"Yinxing Compound, Anyang",,36.056519,114.36495,187,156,28,20,18,17,23,21,1004,80,3,20140810210000
856,"Tiefo Temple, Anyang",,36.110041,114.309309,159,94,28,17,9,16,23,21,1004,80,3,20140810210000
857,Anyang,,36.097767,114.398846,187,156,35,20,19,17,23,21,1004,80,3,20140810210000
858,"City Monitoring Station, Luoyang",,34.669055,112.439633,153,93,8,11,16,15,,,0,,,20140810210000
859,"BDA Management Committee, Luoyang",,34.622084,112.390759,139,75,18,11,12,19,,,0,,,20140810210000
860,"New municipal office, Luoyang",,34.623745,112.432973,112,86,26,13,21,26,,,0,,,20140810210000
861,"City committee communist party school, Luoyang",,34.650169,112.400212,132,77,9,26,17,18,,,0,,,20140810210000
862,"Henan Forestry College, Luoyang",,34.685566,112.509429,156,79,17,21,12,22,,,0,,,20140810210000
863,"CITIC No.2 Elementary School, Luoyang",,34.668212,112.36907,61,98,13,24,6,17,,,0,,,20140810210000
864,"Yuxi Hotel, Luoyang",,34.685949,112.472611,178,117,11,38,9,27,,,0,,,20140810210000
865,Luoyang,,34.617424,112.46054,156,102,26,25,21,27,22,18,0,76,2,20140810210000
866,"City Planning Design Institute, Pingdingshan",,33.7352,113.297916,168,90,29,18,13,12,23,21,1005,88,1,20140810210000
867,"Xinhua Hotel, Pingdingshan",,33.737754,113.328814,173,119,25,22,16,12,23,21,1005,88,1,20140810210000
868,"Engineering College, Pingdingshan",,33.772474,113.188235,169,96,26,17,10,9,23,21,1005,88,1,20140810210000
869,"High Voltage Switchgear Factory, Pingdingshan",,33.719941,113.312665,171,103,23,20,13,12,23,21,1005,88,1,20140810210000
870,Pingdingshan,,33.764754,113.199082,173,119,29,22,16,12,23,21,1005,88,1,20140810210000
871,"Economic Development Zone EPA, Changsha",,28.239029,113.087873,166,77,23,15,7,7,25,22,1003,83,3,20140810210000
872,"High-tech Zone EPA, Changsha",,28.216766,112.893403,172,72,17,10,28,7,25,22,1003,83,3,20140810210000
873,"Mapoling, Changsha",,28.197926,113.083865,163,72,21,14,8,8,25,22,1003,83,3,20140810210000
874,"Hunan Normal University, Changsha",,28.186202,112.949459,-,-,-,-,-,-,-,-,0,-,-,20140810210000
875,"Yuqua District EPB, Changsha",,28.139661,113.008649,161,77,21,10,8,8,25,22,1003,83,3,20140810210000
