locationid,stationname,chinesename,latitude,longitude,pm25,pm10,o3,no2,so2,co,temperature,dewpoint,pressure,humidity,wind,est_time
1,Dongcheng Dongsi,,39.9304,116.423239,171,88,3,31,17,26,5,-14,1018,24,1,20150104170000
2,"Temple of Heaven, Dongcheng",,39.887403,116.41324,174,75,5,42,20,31,5,-14,1018,24,1,20150104170000
3,West Park officials,,39.930333,116.345162,192,106,3,46,41,40,-1,-12,1017,44,3,20150104170000
4,West Wanshou Nishinomiya,,39.879354,116.358183,170,87,3,66,26,32,5,-14,1018,24,1,20150104170000
5,Chaoyang Olympic Sports Center,,39.983406,116.403253,218,133,5,70,42,22,6,-13,1016,25,2,20150104170000
6,Chaoyang Agricultural Exhibition Hall,,39.938331,116.46715,171,79,4,35,23,24,5,-14,1018,24,1,20150104170000
7,Haidian Wanliu,,39.988245,116.293062,202,110,1,51,32,52,5,-14,1018,24,1,20150104170000
8,The Haidian northern New Area,,40.091313,116.180194,234,129,1,47,41,83,5,-14,1018,24,1,20150104170000
9,Haidian Beijing Botanical Garden,,40.003252,116.213097,233,127,4,60,33,34,-6,-14,1016,54,2,20150104170000
10,Fengtai garden,,39.86423,116.285037,281,157,1,66,44,69,-6,-14,1016,54,2,20150104170000
11,Fengtai Yungang,,39.82535,116.152237,388,194,7,80,56,34,2,-9,1017,44,1,20150104170000
12,Shijingshan city,,39.915286,116.190144,224,112,4,46,30,45,-7,-13,1015,63,4,20150104170000
13,"Fangshan, Liangxiang",,39.743357,116.14225,397,265,6,91,45,32,1,-10,1017,44,1,20150104170000
14,"Huangcunzhen, Daxing",,39.719389,116.410219,299,172,3,96,50,52,6,-13,1016,25,2,20150104170000
15,BDA,,39.796197,116.51197,246,196,4,62,36,54,5,-14,1018,24,1,20150104170000
16,Tongzhou New Town,,39.887113,116.6689,358,180,8,62,64,50,1,-10,1018,44,1,20150104170000
17,Shunyi New Town ,,40.128111,116.660908,255,155,13,50,54,40,1,-10,1018,44,1,20150104170000
18,Changping Town,,40.218245,116.236084,320,177,11,67,66,35,2,-9,1017,44,1,20150104170000
19,"Mentougou, Longquan Town",,39.938397,116.112323,147,56,7,29,18,32,8,-14,1016,20,3,20150104170000
20,Pinggu town,,40.144433,117.106563,188,93,8,45,45,37,6,-13,1016,25,2,20150104170000
21,Huairou town,,40.329104,116.63387,154,69,3,23,16,16,2,-14,1018,30,2,20150104170000
22,The town of Miyun,,40.371186,116.838053,169,78,13,25,39,14,8,-14,1016,20,3,20150104170000
23,Yanqing town,,40.454217,115.978106,231,115,8,23,21,32,-6,-14,1016,54,2,20150104170000
24,Changping Dingling,,40.293269,116.226108,184,100,6,31,42,21,-1,-12,1018,44,3,20150104170000
25,Badaling Northwest,,40.36623,115.994146,198,107,9,53,37,12,1,-10,1017,44,1,20150104170000
26,Miyun Reservoir,,40.500157,116.91701,129,60,20,8,12,8,8,-14,1016,20,3,20150104170000
27,"Donggaocun Zhen, Pinggu",,40.10142,117.126556,178,96,9,40,52,23,8,-14,1016,20,3,20150104170000
28,"Yongledianzhen, Tongzhou",,39.713192,116.78905,348,177,2,64,41,33,-7,-13,1015,63,1,20150104170000
29,"Yufazhen, Daxing",,39.521203,116.306026,384,192,2,43,25,43,-7,-13,1015,63,2,20150104170000
30,"Liulihezhen, Fangshan",,39.581169,116.006089,197,-,8,60,38,54,6,-13,1016,25,2,20150104170000
31,"Qianmen E St, Dongcheng",,39.900402,116.401242,186,84,4,47,22,23,8,-14,1016,20,3,20150104170000
32,Yongdingmen Inner St,,39.877401,116.400238,196,133,2,46,25,35,5,-14,1018,24,1,20150104170000
33,Xizhimen N St,,39.955352,116.355187,316,173,3,65,60,44,-7,-13,1015,63,2,20150104170000
34,South Ring Road,,39.857377,116.37421,240,133,1,77,47,39,6,-13,1016,25,2,20150104170000
35,East Fourth Ring Road,,39.940273,116.489075,460,388,1,57,38,62,-7,-13,1015,63,2,20150104170000
36,Beijing,,39.955906,116.474246,340,183,4,69,40,39,-7,-13,1015,63,1,20150104170000
37,Putuo,,31.232979,121.415378,161,71,22,42,14,9,6,2,1018,76,2,20150104170000
38,Yangpu Sipiao,,31.263795,121.540311,161,64,23,35,13,13,4,3,1018,93,1,20150104170000
39,Shanghai Normal College Primary Division,,31.199031,121.487719,167,70,17,44,13,13,4,2,1017,87,1,20150104170000
40,Dianshan Lake,,31.091338,120.982293,197,116,22,82,20,15,14,-4,1017,29,2,20150104170000
41,Hongkou Liangcheng,,31.298906,121.47155,195,146,4,63,25,20,11,2,1019,54,2,20150104170000
42,Jingan,,31.224251,121.429637,169,72,20,38,20,10,3,1,1017,87,0,20150104170000
43,Shanghai Normal University,,31.163531,121.416643,164,70,21,68,20,15,15,-5,1017,25,3,20150104170000
44,Chuansha,,31.188626,121.707342,211,138,6,43,39,13,11,2,1019,54,2,20150104170000
45,Zhangjiang,,31.204896,121.581215,207,114,30,76,30,12,11,1,1017,50,2,20150104170000
46,Lingshan Road,,31.226286,121.537317,199,104,13,67,34,15,18,-4,1017,22,2,20150104170000
1080,City average,,31.228451,121.478227,165,77,14,41,14,10,7,3,1018,76,2,20150104170000
47,Shanghai,,31.202842,121.453493,185,111,12,86,29,13,10,2,1016,58,3,20150104170000
48,Guangzhou,,23.138517,113.263701,160,77,17,44,15,6,18,14,1015,77,0,20150104170000
49,"Huadu town, Guangzhou",,23.389121,113.220062,192,110,49,46,28,31,11,8,1018,82,0,20150104170000
50,"Luogang Zhenlong, Guangzhou",,23.308027,113.567032,192,132,101,28,7,19,13,9,1019,77,2,20150104170000
51,"LuHu, Guangzhou",,23.151743,113.281842,152,70,50,64,7,14,18,13,1014,73,0,20150104170000
52,"Tianhu, Guangzhou",,23.647433,113.629715,122,56,99,22,7,8,19,12,1014,64,0,20150104170000
53,"Zhudong, Guangzhou",,23.418406,113.078552,237,141,107,55,32,29,12,9,1019,82,0,20150104170000
54,"Modiesha station, Guangzhou",,23.103814,113.338238,122,73,30,36,12,8,21,12,1014,56,1,20150104170000
55,Zhuhai,,22.2677,113.581765,102,51,34,14,4,8,16,13,1018,82,4,20150104170000
1075,"Huicai technical school, Foshan",,23.039667,113.105492,127,68,102,55,21,12,13,9,1019,77,1,20150104170000
56,"Sanshuiyun donghai, Foshan",,23.185788,112.865368,197,120,46,87,32,15,13,9,1019,77,1,20150104170000
57,"Nanhai Bureau of Meteorology, Foshan",,23.046836,113.145764,127,54,66,37,13,13,18,14,1015,77,3,20150104170000
58,"Sanshui Monitoring Station, Foshan",,23.163551,112.890843,192,110,43,72,27,30,13,9,1019,77,1,20150104170000
1087,Foshan,,23.018995,113.126899,161,83,48,53,13,16,11,8,1018,82,1,20150104170000
59,"Ronggui street committee, Shunde",,22.762729,113.258356,157,90,48,50,10,14,13,9,1019,77,2,20150104170000
60,Shunde,,22.80246,113.298701,155,70,102,34,24,12,21,9,1016,46,1,20150104170000
61,"Donghu, Jiangmen",,22.590411,113.087351,152,71,100,24,6,7,18,16,1015,88,4,20150104170000
62,"Taoyuan Atmosphere Premier Station, Jiangmen",,22.72489,112.93404,127,64,40,20,13,14,16,13,1018,82,4,20150104170000
63,Jiangmen,,22.576047,113.087351,155,58,36,41,10,9,15,13,1017,88,5,20150104170000
64,"Kengkouzi station, Zhaoqing",,23.158865,112.570287,170,100,41,20,12,13,12,9,1019,82,2,20150104170000
65,"Mugangzi station, Zhaoqing",,23.067961,112.431934,171,126,65,53,12,18,12,9,1019,82,2,20150104170000
67,Zhaoqing,,23.044571,112.470346,169,99,29,23,10,9,10,8,1018,87,1,20150104170000
68,"Jinguo Bay, Huizhou",,22.937223,114.385567,89,41,91,8,5,6,14,8,1019,67,3,20150104170000
1091,"Xiabu, Huizhou",,23.077493,114.410275,89,56,79,9,5,11,14,9,1019,72,3,20150104170000
69,"Xijiao, Huizhou",,23.338178,114.112867,152,54,22,8,2,11,14,9,1019,72,3,20150104170000
70,"Jiangbei, Huizhou",,23.111706,114.415274,85,60,95,26,4,10,18,15,1015,83,3,20150104170000
71,"Huiyang chuanhu, Huizhou",,22.814485,114.329292,68,54,37,11,3,10,20,13,1014,64,2,20150104170000
72,"Daya bay management committee, Huizhou",,22.739283,114.53631,82,36,66,10,6,6,14,8,1019,67,3,20150104170000
73,Huizhou,,23.109349,114.421164,112,56,55,24,9,10,14,10,1018,77,3,20150104170000
74,"Guancheng No.2 water plant, Dongguan",,23.057294,113.753254,181,106,187,54,9,13,14,9,1019,72,3,20150104170000
75,"Dongcheng Shijing, Dongguan",,23.010039,113.799529,159,63,207,49,9,9,18,15,1015,83,2,20150104170000
76,"Nancheng Xiping, Dongguan",,22.963051,113.743494,181,123,205,69,13,12,14,8,1019,67,3,20150104170000
77,"Nancheng Yuanling, Dongguan",,23.025058,113.751308,157,69,175,22,9,14,14,9,1019,72,3,20150104170000
78,Dongguan,,23.017813,113.756958,157,69,175,22,9,14,14,9,1019,72,3,20150104170000
79,"Zimaling, Zhongshan",,22.505112,113.407183,85,46,28,4,7,11,17,15,1015,88,4,20150104170000
80,"Yangtze River tourist area, Zhongshan",,22.48589,113.439054,85,36,37,12,4,11,16,13,1018,82,4,20150104170000
81,"Huabai Park, Zhongshan",,22.51839,113.374362,63,53,32,23,7,14,16,13,1018,82,4,20150104170000
82,Zhongshan,,22.513997,113.398277,95,27,18,13,6,10,15,13,1017,88,5,20150104170000
83,"No.8 middle school, Shaoguan",,24.767777,113.583537,129,69,40,38,17,15,9,6,1020,71,1,20150104170000
83,"No.8 middle school, Shaoguan",,24.767777,113.583537,129,69,40,38,17,15,9,6,1020,71,1,20150104170000
84,"Forest area, Shaoguan",,24.796107,113.612131,144,55,43,19,26,10,9,6,1020,71,1,20150104170000
84,"Forest area, Shaoguan",,24.796106,113.612131,144,55,43,19,26,10,9,6,1020,71,1,20150104170000
86,"Shaoguan University, Shaoguan",,24.790864,113.646599,72,34,38,20,7,19,9,6,1020,71,1,20150104170000
86,"Shaoguan University, Shaoguan",,24.790864,113.646598,72,34,38,20,7,19,9,6,1020,71,1,20150104170000
88,"Qujiang Monitoring Station, Shaoguan",,24.683042,113.60157,176,118,-,79,45,-,17,8,1016,46,1,20150104170000
88,"Qujiang Monitoring Station, Shaoguan",,24.683042,113.60157,176,118,-,79,45,-,17,8,1016,46,1,20150104170000
89,Shaoguan,,24.807342,113.602712,139,56,33,16,23,11,6,5,1020,87,3,20150104170000
90,"Chaonanzi Station, Shantou",,23.251174,116.406606,153,60,62,17,15,13,18,11,1015,64,1,20150104170000
90,"Chaonanzi Station, Shantou",,23.251213,116.406762,153,60,62,17,15,13,18,11,1015,64,1,20150104170000
91,Shantou,,23.350642,116.686306,165,86,14,31,39,14,11,10,1019,94,1,20150104170000
92,"City Environmental Monitoring Station, Zhanjiang",,21.220431,110.397317,61,55,74,7,5,16,16,15,1017,95,2,20150104170000
93,"EPB Dormitory, Zhanjiang",,21.197376,110.406487,87,41,88,6,3,11,16,15,1017,95,2,20150104170000
94,"Xiashan Swimming Park, Zhanjiang",,21.200431,110.415655,114,61,48,3,9,17,19,16,1015,84,5,20150104170000
95,"Zhanjiang Theatre, Zhanjiang",,21.268177,110.366445,129,53,43,8,9,6,16,16,1016,95,4,20150104170000
96,"Mazhang EPA, Zhanjiang",,21.265486,110.335993,76,39,33,6,7,16,16,15,1017,95,2,20150104170000
97,"Potou District EPB, Zhanjiang",,21.247604,110.454508,70,45,41,6,1,6,16,15,1017,95,2,20150104170000
98,Zhanjiang,,21.26832,110.363883,107,48,61,6,4,7,17,16,1014,94,4,20150104170000
99,"Maogang sub-office EPB, Maoming",,21.466435,111.033462,82,43,83,2,1,3,19,17,0,91,4,20150104170000
100,"Petrochemical No. 7 elementaty school, Maoming",,21.648905,110.937861,137,55,90,7,7,8,17,15,0,85,3,20150104170000
101,"Jiankang road, Maoming",,21.662211,110.909482,132,56,49,10,7,8,17,15,0,85,3,20150104170000
102,"Gaoling, Maoming",,21.690558,110.871146,97,54,43,13,10,7,19,17,0,91,4,20150104170000
1094,Maoming,,21.660223,110.929968,157,63,37,20,13,8,17,15,0,88,3,20150104170000
103,"Jiaying University, Meizhou",,24.325415,116.12816,142,78,28,21,8,11,10,9,1019,94,0,20150104170000
104,"Mexian new town, Meizhou",,24.269283,116.084546,107,56,29,21,6,16,10,9,1019,94,0,20150104170000
105,"Environmental Monitoring Center, Meizhou",,24.262778,116.129621,152,83,24,22,4,11,10,9,1019,94,0,20150104170000
1095,Meizhou,,24.285988,116.127065,144,61,6,16,8,9,11,10,1019,94,1,20150104170000
106,"City EPA, Shanwei",,22.772349,115.370227,147,62,44,13,5,9,13,10,1020,77,2,20150104170000
107,"City government, Shanwei",,22.787161,115.375536,122,57,56,15,9,10,19,11,1015,48,2,20150104170000
108,"Xincheng Middle School, Shanwei",,22.789851,115.367124,122,54,36,9,5,9,13,10,1020,77,2,20150104170000
1099,Shanwei,,22.783576,115.38022,152,58,27,12,6,9,14,9,1018,69,1,20150104170000
109,"No.3 elementary school, Heyuan",,23.75435,114.703514,178,114,86,49,9,23,11,7,1020,74,1,20150104170000
109,"No.3 elementary school, Heyuan",,23.755946,114.699091,178,114,86,49,9,23,11,7,1020,74,1,20150104170000
111,"City water company, Heyuan",,23.688709,114.954652,173,101,99,44,8,15,11,7,1020,74,1,20150104170000
111,"City water company, Heyuan",,23.754246,114.682459,173,101,99,44,8,15,11,7,1020,74,1,20150104170000
113,"Heyuan high school, Heyuan",,23.720037,114.699563,167,90,95,44,39,10,11,7,1020,74,1,20150104170000
113,"Heyuan high school, Heyuan",,23.720666,114.693879,167,90,95,44,39,10,11,7,1020,74,1,20150104170000
115,Heyuan,,23.740888,114.705147,132,56,94,10,5,8,21,9,1016,34,2,20150104170000
116,"Yuanyang Lake, Yangjiang",,21.855869,111.983676,112,56,48,13,3,10,19,15,1014,71,1,20150104170000
1100,Yangjiang,,21.855227,111.987308,119,66,36,22,3,10,13,10,1018,73,3,20150104170000
118,"Town governement, Qingyuan",,23.708005,113.026215,197,128,47,31,15,25,11,8,1018,82,0,20150104170000
119,"Fupin district, Qingyuan",,23.624781,113.067713,109,65,72,39,25,10,22,11,1014,50,2,20150104170000
121,"Environment protection office, Qingyuan",,23.685931,113.053239,202,122,75,38,15,17,13,9,1019,77,2,20150104170000
121,"Environment protection office, Qingyuan",,23.691109,113.047948,202,122,75,38,15,17,13,9,1019,77,2,20150104170000
123,"Fengcheng Subdistrict, Qingyuan",,23.695447,113.068189,199,128,91,37,19,22,13,9,1019,77,2,20150104170000
124,Qingyuan,,23.679304,113.061513,170,75,80,47,18,10,22,11,1014,50,2,20150104170000
125,"Xiyuan Road, Chaozhou",,23.668654,116.638272,154,69,76,9,3,12,10,9,1019,94,0,20150104170000
126,"Archives Bureau, Chaozhou",,23.667881,116.649104,124,57,112,12,10,13,21,11,1015,53,1,20150104170000
127,"Municipal Corporation, Chaozhou",,23.65035,116.621859,166,89,81,27,17,15,15,12,1016,82,1,20150104170000
1101,Chaozhou,,23.654204,116.626969,157,67,26,19,12,13,10,9,1019,94,0,20150104170000
128,"Donghu Park, Jieyang",,23.532877,116.374427,173,58,135,33,19,14,14,11,1016,82,1,20150104170000
129,"Yuhu Middle School, Jieyang",,23.52682,116.414123,144,78,76,16,18,9,21,11,1015,53,1,20150104170000
130,"Experimental Primary School, Jieyang",,23.571473,116.364137,160,61,68,21,19,6,21,11,1015,53,1,20150104170000
1102,Jieyang,,23.547596,116.37754,152,65,140,10,16,10,21,10,1016,49,2,20150104170000
131,"City Environmental Monitoring Station, Yunfu",,22.936779,112.042248,122,55,52,20,8,14,18,13,1014,73,0,20150104170000
132,"The new city government headquarters, Yunfu",,22.914275,112.044475,76,50,48,15,4,10,18,13,1014,73,0,20150104170000
133,"Muyang police sub-station, Yunfu",,22.951267,112.05923,63,53,62,18,13,11,18,13,1014,73,0,20150104170000
1103,Yunfu,,22.912436,112.049811,78,56,53,9,4,9,12,8,1019,77,2,20150104170000
134,Yantian,,22.587949,114.266899,87,55,25,8,8,14,20,13,1014,64,2,20150104170000
135,Kwai Chung,,22.572837,113.867166,144,97,46,72,17,12,18,15,1015,83,3,20150104170000
135,Kwai Chung,,22.354168,114.134558,144,97,46,72,17,12,18,15,1015,83,3,20150104170000
137,Nanyou,,22.513802,113.928051,97,42,25,10,3,7,18,10,1017,59,3,20150104170000
138,Meisha,,22.59611,114.318345,78,27,37,6,1,10,14,9,1017,72,2,20150104170000
139,Xi xiang,,22.717524,114.252304,97,58,117,13,3,7,18,15,1015,83,3,20150104170000
140,Liyuan,,22.54732,114.101205,72,53,31,14,5,9,19,13,1014,68,2,20150104170000
1072,Kwai Chung,,22.627947,114.428875,97,68,46,22,4,11,18,15,1015,83,3,20150104170000
1072,Kwai Chung,,22.354168,114.134558,97,68,46,22,4,11,18,15,1015,83,3,20150104170000
141,OCT,,22.539549,113.992458,104,60,16,55,6,14,19,13,1014,68,2,20150104170000
142,Honghu,,22.559647,114.121976,70,59,42,19,2,7,19,13,1014,68,2,20150104170000
143,Mission Hills,,22.694131,114.050496,87,40,129,13,5,8,20,13,1015,64,2,20150104170000
144,Shenzhen,,22.540382,114.062982,149,57,213,19,7,8,14,9,1019,72,3,20150104170000
145,Chengdu,,30.622581,104.069564,224,133,14,41,6,13,5,3,1015,87,0,20150104170000
146,"Jinquan lianghe, Chengdu",,30.710359,103.974209,189,118,19,28,1,12,5,2,1018,81,0,20150104170000
147,"Shilidian, Chengdu",,30.684718,104.17845,234,160,16,23,5,12,7,5,1013,87,1,20150104170000
148,"Sanwayao, Chengdu",,30.568159,104.081524,208,139,2,28,11,20,7,3,1014,76,1,20150104170000
149,"Shahepu, Chengdu",,30.633685,104.120536,234,153,5,36,7,18,8,3,1011,71,1,20150104170000
150,"Liang Lane, Chengdu",,30.682601,104.076522,253,161,13,45,13,18,9,3,1009,66,1,20150104170000
151,"Caotang Temple, Chengdu",,30.651891,104.0284,216,159,17,41,16,18,8,2,1009,66,2,20150104170000
152,"Lingyansi, Chengdu",,31.025729,103.615022,207,146,23,16,7,8,7,4,1012,81,2,20150104170000
153,"Fuleshan, Mianyang",,31.472493,104.7806,179,104,7,6,6,18,4,4,1016,92,1,20150104170000
154,"High-tech Zone Water Company, Mianyang",,31.463309,104.674293,185,109,11,22,5,14,7,5,1013,80,2,20150104170000
155,"No.3 water company, Mianyang",,31.505002,104.731054,199,131,5,22,8,12,6,5,1016,83,1,20150104170000
156,Mianyang,,31.465174,104.681731,192,118,5,17,9,17,4,4,1016,92,1,20150104170000
157,"Dongshan Park, Deyang",,31.118648,104.424587,196,116,5,20,9,11,6,4,1014,87,0,20150104170000
158,"Xixiaoqu, Deyang",,31.131159,104.390972,217,130,4,30,6,16,7,4,1012,81,2,20150104170000
159,"City Procuratorate, Deyang",,31.114554,104.407986,168,112,11,23,4,13,5,4,1014,93,0,20150104170000
160,"Refractory Factory, Deyang",,31.108606,104.356506,189,107,18,4,12,9,9,3,1009,66,1,20150104170000
161,Deyang,,31.124715,104.400703,190,118,17,33,5,12,5,2,1018,81,0,20150104170000
162,"Nongnongping, Panzhihua",,26.566698,101.695438,132,74,34,26,27,46,23,5,0,20,3,20150104170000
163,"Hemenkou, Panzhihua",,26.589072,101.578312,154,87,33,35,53,30,23,5,0,20,3,20150104170000
164,"Bingcaogang, Panzhihua",,26.58143,101.718473,177,113,2,43,27,23,4,3,0,88,0,20150104170000
165,"Renhe, Panzhihua",,26.498166,101.746887,82,58,19,15,2,15,6,4,0,85,0,20150104170000
166,"Jinjina, Panzhihua",,26.553226,101.84862,70,68,10,22,38,17,23,5,0,20,3,20150104170000
167,Panzhihua,,26.578779,101.720211,234,229,8,67,104,47,15,7,0,52,1,20150104170000
168,"Shima Middle School, Yibin",,28.815979,104.599199,251,164,11,22,16,15,8,6,1012,87,1,20150104170000
169,"Municipal party committee, Yibin",,28.762654,104.624834,261,120,5,23,17,20,8,6,1010,79,0,20150104170000
170,"No. 4 middle school, Yibin",,28.783257,104.608407,272,165,10,18,10,13,8,6,1012,87,1,20150104170000
171,"City government, Yibin",,28.760477,104.644079,262,170,8,18,11,17,8,6,1012,87,1,20150104170000
172,"Huangjinzui, Yibin",,28.712319,104.578389,200,149,10,29,19,17,9,5,1011,71,0,20150104170000
173,"Shaping Middle School, Yibin",,28.795569,104.681393,230,126,21,16,12,11,8,6,1012,87,1,20150104170000
174,Yibin,,28.748384,104.645766,288,182,11,27,20,20,8,6,1016,83,0,20150104170000
175,"Datang Hill, Zigong",,29.359969,104.757388,252,193,20,6,7,23,11,5,0,65,2,20150104170000
176,"Yanma Road, Zigong",,29.355752,104.724036,275,165,26,5,7,15,14,4,0,53,2,20150104170000
177,"Tanmulin Street, Zigong",,29.353555,104.777397,203,126,24,8,9,12,11,5,0,65,2,20150104170000
178,"Chunhua Road, Zigong",,29.33825,104.771895,244,134,20,22,24,18,14,4,0,53,2,20150104170000
179,Zigong,,29.33617,104.781138,251,167,20,17,13,22,6,2,0,78,1,20150104170000
180,"Jiushi Hill, Luzhou",,28.955347,105.434207,211,137,32,12,14,8,6,1,0,70,1,20150104170000
181,"Xiaoshishang Port, Luzhou",,28.899583,105.447192,246,171,16,22,17,13,12,4,0,58,2,20150104170000
182,"Lantianxian Bridge, Luzhou",,28.852766,105.4358,212,166,21,14,22,5,6,1,0,70,1,20150104170000
183,"City Environment Monitoring Station, Luzhou",,28.895898,105.435802,276,176,11,29,28,8,12,4,0,58,2,20150104170000
184,Luzhou,,28.868782,105.445938,264,172,35,16,21,13,7,2,0,70,1,20150104170000
185,"City Committee, Nanchong",,30.799993,106.082906,198,122,20,10,10,13,8,7,1011,93,0,20150104170000
186,"Refinery Factory, Nanchong",,30.819412,106.10712,200,122,7,4,3,12,8,7,1010,94,1,20150104170000
187,"Gaoping District Monitoring Station, Nanchong",,30.783291,106.110417,190,112,9,28,2,14,8,7,1011,93,0,20150104170000
188,"Jialing District EPB, Nanchong",,30.761255,106.06818,195,115,11,16,12,18,8,7,1010,94,1,20150104170000
189,"City Environmental Monitoring Station, Nanchong",,30.836519,106.11272,190,93,18,9,7,16,7,7,1011,97,1,20150104170000
190,Nanchong,,30.835511,106.114717,256,177,22,35,57,21,7,7,1019,99,1,20150104170000
1249,"City Monitoring Station, Neijiang",,29.592673,105.036234,219,120,17,19,16,9,12,5,0,60,2,20150104170000
1250,"Dongxing District Government , Neijiang",,29.592148,105.074966,234,136,12,15,9,7,12,5,0,60,2,20150104170000
1251,"No 2 middle school, Neijiang",,29.579135,105.068548,251,148,31,9,6,20,12,5,0,60,2,20150104170000
1252,Neijiang,,29.577653,105.06166,251,148,31,12,8,20,12,5,0,60,2,20150104170000
1253,"City Monitoring Station, Suining",,30.517431,105.564623,203,145,22,20,4,6,11,4,0,61,3,20150104170000
1254,"Administrative center , Suining",,30.530907,105.593309,207,129,13,19,7,9,10,4,0,65,3,20150104170000
1255,Suining,,30.530053,105.596307,224,153,29,19,12,11,9,4,0,67,3,20150104170000
1256,"City Monitoring Station, Leshan",,29.560651,103.759211,261,174,13,32,20,22,8,4,0,76,3,20150104170000
1257,"Leshan Giant Buddha Scenic Area , Leshan",,29.543938,103.772706,221,145,11,25,12,19,8,4,0,76,3,20150104170000
1258,Leshan,,29.54935,103.767777,245,146,5,28,12,20,5,2,0,81,1,20150104170000
1259,"Heilongtan , Meishan",,30.047726,103.900649,218,131,11,22,2,7,8,3,1010,71,2,20150104170000
1260,"Bureau of Meteorology, Meishan",,30.084591,103.843715,232,153,21,38,17,14,8,3,1010,71,2,20150104170000
1261,"Xuguang Community , Meishan",,30.066277,103.8516,231,164,19,37,15,15,8,3,1010,71,2,20150104170000
1262,"City Monitoring Station, Meishan",,30.059205,103.836229,232,159,17,34,15,16,8,3,1010,71,2,20150104170000
1263,Meishan,,30.072618,103.85064,232,164,19,37,15,16,8,3,1010,71,2,20150104170000
1264,"Ziyang middle school, Ziyang",,30.147763,104.638024,206,129,22,14,35,16,7,3,0,76,1,20150104170000
1265,Ziyang,,30.126054,104.63004,221,123,34,18,44,17,12,5,0,60,2,20150104170000
1377,"Dazhou Technical College, Dazhou",,31.277414,107.531672,328,192,14,25,5,18,9,,1014,87,1,20150104170000
1378,"City Environmental Monitoring Station, Dazhou",,31.212692,107.529474,307,186,22,37,14,24,9,,1014,87,1,20150104170000
1379,"Civic Center, Dazhou",,31.203669,107.465774,468,493,26,38,20,33,9,,1014,87,1,20150104170000
191,Shenyang US Consulate,,41.785668,123.432865,-,-,,-,-,,-,-,0,-,-,20150104170000
192,"Huishan, Shenyang",,41.835421,123.647773,95,39,26,7,8,11,-1,-10,1018,51,3,20150104170000
193,"Hunnan, Shenyang",,41.758263,123.540809,328,206,20,38,50,10,-7,-12,1017,68,2,20150104170000
194,"Zhangshi, Shenyang",,41.771679,123.289859,178,116,7,41,59,16,-1,-10,1018,51,3,20150104170000
195,"Artillery College, Shenyang",,41.835749,123.547799,95,76,25,21,18,6,-5,-12,1018,59,1,20150104170000
196,"Beiling, Shenyang",,41.849633,123.434146,139,57,6,15,44,15,1,-7,1018,56,1,20150104170000
197,"Wenyi Road, Shenyang",,41.767444,123.416144,129,69,18,36,52,10,-5,-12,1018,59,1,20150104170000
198,"Xiaoheyan, Shenyang",,41.779828,123.484015,134,62,13,32,50,13,-1,-10,1018,51,3,20150104170000
199,"Taiyuan Street, Shenyang",,41.799646,123.406146,220,161,4,30,63,13,-10,-12,1016,86,1,20150104170000
200,"Ermao, Shenyang",,41.783011,123.366679,142,67,19,45,74,10,-1,-10,1018,51,3,20150104170000
201,"Liaoning University, Shenyang",,41.830704,123.361071,93,55,20,20,21,5,-1,-10,1018,51,3,20150104170000
202,Shenyang,,41.808126,123.437611,226,161,4,30,63,13,-10,-12,1016,86,1,20150104170000
1104,"wenhua street, Shenyang , Shenyang",,41.774139,123.441839,144,85,12,40,38,11,-7,-12,1018,68,0,20150104170000
1105,"Tanglin Road , Shenyang , Shenyang",,41.823665,123.562317,78,70,17,18,25,9,-3,-9,1012,64,3,20150104170000
203,"Ganjingzi, Dalian",,38.9747,121.616893,205,152,4,48,48,11,0,-3,1014,80,2,20150104170000
204,"Zhoushuizi, Dalian",,38.951928,121.569981,229,156,11,26,24,25,2,1,1018,93,3,20150104170000
205,"Xinghai No 3 station, Dalian",,38.885779,121.568864,273,170,4,43,67,25,6,-1,1018,61,3,20150104170000
206,"Qingniwa Bridge, Dalian",,38.91274,121.638018,206,136,9,23,53,24,2,1,1018,93,3,20150104170000
207,"Fujiazhuang, Dalian",,38.864647,121.629947,188,121,21,50,11,27,5,0,1017,70,3,20150104170000
208,"Qixianling, Dalian",,38.856978,121.523169,166,83,15,17,39,9,3,-5,1014,56,3,20150104170000
209,"Lushun, Dalian",,38.808946,121.264063,198,152,6,37,28,12,1,-4,1014,70,1,20150104170000
210,"Jinzhou, Dalian",,39.132192,121.753259,215,141,11,19,12,17,2,1,1018,93,3,20150104170000
211,"BDA, Dalian",,39.05213,121.782022,346,292,4,94,70,38,5,-1,1018,65,3,20150104170000
212,"D&D Port, Dalian",,39.064087,121.981874,168,93,11,17,40,12,3,-5,1014,56,3,20150104170000
213,Dalian,,38.91478,121.619625,190,120,7,17,23,19,1,0,1018,93,2,20150104170000
214,"Bearing Factory, Dandong",,40.068929,124.345703,268,198,16,30,32,23,-4,-5,1019,85,1,20150104170000
215,"Financial school, Dandong",,40.158723,124.432593,162,76,12,29,45,14,-4,-7,1016,68,2,20150104170000
216,"Yuanbaoshan water, Dandong",,40.149431,124.391698,164,89,16,22,36,19,-4,-7,1016,68,2,20150104170000
217,"Experimental Primary School, Dandong",,39.887343,124.158056,241,174,16,37,59,25,-4,-5,1019,85,1,20150104170000
218,Dandong,,40.002046,124.360479,311,263,21,33,49,33,-6,-8,1020,88,1,20150104170000
1106,"minzhu bridge, Dandong , Dandong",,40.112974,124.373604,241,174,8,37,59,24,-4,-5,1019,85,1,20150104170000
1107,"yuanbaoshan, Dandong , Dandong",,40.146298,124.399081,194,137,13,33,56,19,0,-6,1019,53,0,20150104170000
1108,"linjiang houjie, Dandong , Dandong",,40.152757,124.431745,227,142,11,36,38,15,0,-6,1019,53,0,20150104170000
219,"BDA, Panjin",,41.157144,122.06645,182,141,4,27,23,38,-4,-16,0,39,3,20150104170000
220,"Xinglongtai, Panjin",,41.140948,122.111343,172,95,11,27,43,27,-4,-13,0,48,2,20150104170000
221,"Dingxiang, Panjin",,41.16139,121.928781,164,78,24,15,11,12,-4,-13,0,48,2,20150104170000
222,Panjin,,41.122089,122.076206,202,137,9,32,14,31,-4,-18,0,31,3,20150104170000
223,"No.3 water company, Yingkou",,40.682052,122.385352,188,110,22,52,67,26,-1,-9,1018,43,1,20150104170000
224,"Yingkou University, Yingkou",,40.683689,122.388285,195,115,21,49,79,27,-1,-9,1018,43,1,20150104170000
225,"Botanical garden, Yingkou",,40.711674,122.281568,274,157,22,49,60,36,0,-8,1018,42,2,20150104170000
226,Yingkou,,40.668578,122.24059,178,84,17,37,32,14,0,-3,1014,71,4,20150104170000
1109,"jinghu west street, Yingkou , Yingkou",,40.653831,122.221943,160,76,11,39,27,14,-1,-4,1015,81,1,20150104170000
1110,"Daqing Road , Yingkou , Yingkou",,40.709181,122.28243,274,157,15,49,60,30,0,-8,1018,42,2,20150104170000
227,"Xishanpo, Huludao",,40.724078,120.921974,323,279,16,43,82,12,,,0,,,20150104170000
228,"Huagong hospital, Huludao",,40.755662,120.848435,168,84,16,33,68,26,,,0,,,20150104170000
229,"New district park, Huludao",,40.723415,120.853801,93,89,13,12,63,33,,,0,,,20150104170000
230,"Lianshan district governement, Huludao",,40.775488,120.872292,195,219,7,44,51,36,,,0,,,20150104170000
231,Huludao,,40.712501,120.842107,181,144,3,36,51,62,,,0,,,20150104170000
1111,"Dongcheng District , Huludao , Huludao",,40.775362,120.871706,173,191,9,32,82,19,,,0,,,20150104170000
1112,"huagong street, Huludao , Huludao",,40.758901,120.842935,203,161,12,27,68,29,,,0,,,20150104170000
232,Anshan,,41.110466,123.000147,191,132,24,22,24,13,-4,-9,1013,69,2,20150104170000
233,"Qianshan Park, Anshan",,41.033486,123.143897,107,55,24,14,9,14,-1,-10,1018,51,3,20150104170000
234,"Tiexi, Anshan",,41.121636,122.97506,181,119,13,30,52,27,-8,-13,1017,68,1,20150104170000
235,"Taiping Station, Anshan",,41.153322,123.052433,187,116,12,21,34,23,-1,-10,1018,51,3,20150104170000
236,"Central Station, Anshan",,41.106731,123.002736,-,-,-,-,-,-,-,-,0,-,-,20150104170000
237,"Shengou Temple, Anshan",,41.137157,123.031901,336,258,5,34,55,28,-9,-10,1017,93,1,20150104170000
1113,"Qianshan , Anshan , Anshan",,41.014521,123.122538,57,28,17,8,5,12,-7,-12,1018,68,0,20150104170000
1114,"Tiexi Sandao jie, Anshan",,41.103264,122.978613,182,124,6,35,53,38,-5,-12,1018,59,1,20150104170000
1115,"Taiyang, Anshan",,41.094946,123.019037,376,339,3,41,73,33,-1,-5,1018,75,0,20150104170000
238,Fushun,,41.883028,123.962984,202,137,19,36,41,23,-8,-13,1017,68,1,20150104170000
239,"Shenfu new town, Fushun",,41.804638,123.631684,167,96,10,28,27,12,-9,-11,1014,86,1,20150104170000
240,"Reservoir, Fushun",,41.8464,123.802857,114,56,26,11,15,15,-3,-9,1012,64,3,20150104170000
241,"Train Station, Fushun",,41.89726,124.017604,159,84,20,33,39,24,-1,-10,1018,51,3,20150104170000
242,"Dongzhou, Fushun",,41.855578,124.044738,206,108,18,38,24,17,-5,-12,1018,59,1,20150104170000
243,"Xinhua, Fushun",,41.888598,123.932932,236,160,18,38,39,21,-7,-12,1017,68,2,20150104170000
244,"Wanghua, Fushun",,41.888825,123.093723,202,137,19,35,41,21,-8,-13,1017,68,1,20150104170000
1367,"Dongzhou district, Fushun , Fushun",,41.864885,124.044353,194,122,11,33,26,19,-7,-12,1018,68,0,20150104170000
1368,"Wanghua district, Fushun , Fushun",,41.849112,123.815882,198,118,2,24,26,20,-10,-12,1016,86,1,20150104170000
245,Benxi,,41.296267,123.772371,182,82,68,47,53,54,-7,-12,1018,68,0,20150104170000
246,"Weining, Benxi",,41.349663,123.826071,181,80,68,39,3,50,-8,-13,1017,68,1,20150104170000
247,"Occupational disease hospital, Benxi",,41.305432,123.74645,132,58,22,28,18,27,-7,-12,1017,68,2,20150104170000
248,"Dongming, Benxi",,41.292369,123.765058,180,84,5,101,63,24,1,-11,1018,41,2,20150104170000
249,"Caitun, Benxi",,41.301591,123.746039,134,63,11,21,50,19,-7,-12,1018,68,0,20150104170000
250,"Xihu, Benxi",,41.331332,123.773537,188,135,22,28,49,19,-7,-12,1018,68,0,20150104170000
251,"Dayu, Benxi",,41.308091,123.818442,78,38,20,12,16,25,-1,-10,1018,51,3,20150104170000
1116,"Xinlitun , Benxi , Benxi",,41.264104,123.811523,97,50,7,28,19,31,-7,-12,1018,68,0,20150104170000
252,Jinzhou,,41.097169,121.132647,212,158,8,42,62,52,-5,-10,1014,53,1,20150104170000
253,"Beihu Park, Jinzhou",,41.141447,121.137339,212,114,14,48,93,17,-1,-11,1018,35,3,20150104170000
254,"Monitoring station, Jinzhou",,41.113441,121.140911,137,53,18,32,63,12,5,-13,1018,14,0,20150104170000
1369,"Baigu Water Plant, Jinzhou",,41.123847,121.206296,205,58,22,40,47,12,2,-12,1018,24,3,20150104170000
255,"Nanshan, Jinzhou",,41.570689,122.046753,241,150,18,42,59,20,2,-12,1018,24,3,20150104170000
1118,"BDA, Jinzhou",,40.853915,121.061756,200,132,17,48,60,18,2,-12,1018,24,3,20150104170000
1119,"tianan street, Jinzhou , Jinzhou",,41.124468,121.126119,245,56,13,44,73,14,-1,-11,1018,35,3,20150104170000
1120,"baigu street, Jinzhou, Jinzhou",,41.12214,121.21027,239,137,16,36,52,16,2,-12,1018,24,3,20150104170000
1121,Chaoyang,,41.576022,120.456053,199,145,9,23,42,47,0,-16,1011,17,3,20150104170000
1389,"Longcheng Agricultural Park, Chaoyang",,41.617348,120.399685,154,76,15,9,19,36,8,-16,1016,8,1,20150104170000
256,"Flour Mill, Chaoyang",,41.567024,120.430447,142,85,19,13,29,43,8,-16,1016,8,1,20150104170000
1122,"Agricultural Area, Chaoyang",,43.93968,125.247371,180,91,5,12,25,37,-11,-17,1016,46,1,20150104170000
1123,Tieling,,42.225197,123.732174,197,113,32,26,43,23,-8,-13,1018,68,2,20150104170000
259,"Jinsha River, Tieling",,42.224895,123.732812,137,65,27,7,9,10,0,-12,1018,41,3,20150104170000
1391,"Benzhan, Tieling",,42.288504,123.85474,169,94,25,31,11,5,0,-12,1018,41,3,20150104170000
260,"Waterpark, Tieling",,42.297031,123.880748,230,138,19,26,50,10,-5,-12,1018,59,1,20150104170000
261,"Steel Factory, Tieling",,42.24215,123.804596,153,86,18,12,18,14,0,-12,1018,41,3,20150104170000
1124,"Huigong Street West , Tieling , Tieling",,42.311115,123.845614,190,107,4,15,26,17,-1,-5,1018,75,0,20150104170000
1125,Liaoyang,,41.269312,123.24268,177,91,11,23,14,25,-9,-11,1014,86,1,20150104170000
262,"Steel Pipe Factory, Liaoyang",,41.274154,123.135012,170,132,19,21,61,22,0,-12,1018,41,3,20150104170000
263,"Yuanlin Compound, Liaoyang",,41.286152,123.18415,160,98,18,15,48,22,0,-12,1018,41,3,20150104170000
1392,"No. 201 blood bank, Liaoyang",,41.257488,123.155844,174,102,12,23,41,9,0,-12,1018,41,3,20150104170000
264,"Chemical Factory, Liaoyang",,41.2025,123.218071,170,122,24,18,38,17,0,-12,1018,41,3,20150104170000
1126,"Riverside Road , Liaoyang , Liaoyang",,41.176884,123.419859,165,80,8,23,22,35,-1,-10,1018,51,3,20150104170000
1127,Fuxin,,42.02373,121.675733,155,136,12,25,53,14,-5,-15,0,46,3,20150104170000
1393,"Yulong Xinchengzi Station, Fuxin",,42.050687,121.664588,63,91,16,18,56,31,-2,-14,0,39,2,20150104170000
265,"Environment protection office, Fuxin",阜新环保局,42.00535,121.631585,129,155,,32,68,,0,-15,0,30,2,20150104170000
266,"Agricultural Area, Fuxin",,42.071291,121.696445,171,120,14,22,58,23,-6,-14,0,51,3,20150104170000
267,"Industrial Area, Fuxin",,42.041052,121.715554,228,150,11,34,62,16,-6,-14,0,51,3,20150104170000
1128,"Yulong Metro , Fuxin , Fuxin",,42.035091,121.666531,165,179,13,24,58,12,-6,-14,0,51,3,20150104170000
1129,"Dongyuan , Fuxin , Fuxin",,42.029119,121.681553,97,68,13,32,44,35,-5,-15,0,46,3,20150104170000
268,"City Monitoring Station, Jinan",,36.662614,117.054645,232,188,21,91,67,0,10,-5,1015,21,1,20150104170000
269,"Shandong Institute of Economics, Jinan",,36.63819,117.074975,208,129,-,105,57,-,14,-5,1015,14,2,20150104170000
270,"Quancheng Plaza, Jinan",,36.661711,117.027043,191,141,-,68,59,-,14,-5,1015,14,2,20150104170000
271,"Kegansuo, Jinan",,36.611582,116.99384,233,187,30,57,51,28,10,-5,1015,21,1,20150104170000
272,"Agriculture Science Institute, Jinan",,36.663115,116.95063,256,363,27,93,61,0,9,-6,1016,24,2,20150104170000
273,"Lanxiang technical school, Jinan",,36.700421,116.95342,-,-,-,-,-,-,-,-,0,-,-,20150104170000
274,"Chemical factory, Jinan",,36.687463,116.994406,-,-,-,-,-,-,-,-,0,-,-,20150104170000
275,"Provincial Seed Warehouse, Jinan",,36.685706,117.066348,239,276,13,111,73,0,10,-5,1015,21,1,20150104170000
276,"Shandong Architecture University, Jinan",,36.681732,117.191868,177,126,16,59,70,18,14,-5,1015,14,2,20150104170000
277,"Baosheng cable company, Jinan",,36.724638,117.130855,-,-,-,-,-,-,-,-,0,-,-,20150104170000
278,"Paomaling, Jinan",,36.47869,117.219027,-,-,-,-,-,-,-,-,0,-,-,20150104170000
279,"Changqing District Communist Party School, Jinan",,36.548797,116.770859,-,-,-,-,-,-,-,-,0,-,-,20150104170000
280,"BDA, Jinan",,36.685835,117.130851,241,203,23,79,53,34,10,-5,1015,21,1,20150104170000
281,Jinan,,36.651426,117.126625,204,151,25,56,57,0,6,-8,1016,23,3,20150104170000
282,"Shinan district No. 1, Qingdao",,36.065534,120.40839,206,151,14,25,39,25,9,-5,1017,37,4,20150104170000
283,"Shibei district No. 1, Qingdao",,36.069919,120.341264,240,160,3,46,43,26,12,-8,1017,24,1,20150104170000
284,"Shibei district No. 2, Qingdao",,36.104146,120.36637,199,152,-,49,52,-,9,-5,1017,37,4,20150104170000
285,"Huangdao District No. 1, Qingdao",,35.958935,120.191041,261,218,10,43,54,17,12,-8,1017,24,1,20150104170000
286,"Huangdao District No. 2, Qingdao",,35.970487,120.160339,267,176,7,76,31,38,12,-8,1017,24,1,20150104170000
287,"Laoshan District No. 1, Qingdao",,36.085881,120.451839,220,133,-,64,55,-,9,-5,1017,37,4,20150104170000
288,"Laoshan District No. 2, Qingdao",,36.091075,120.490388,198,144,11,32,42,30,11,-6,1017,30,2,20150104170000
289,"Licang District No. 1, Qingdao",,36.184872,120.38533,288,347,9,75,37,36,9,-5,1017,37,4,20150104170000
290,"Licang District No. 2, Qingdao",,36.154369,120.432287,249,178,-,55,49,-,9,-5,1017,37,4,20150104170000
291,"Chengyang District No. 1, Qingdao",,36.308502,120.40008,85,6,23,9,17,5,-1,-12,1030,44,9,20150104170000
292,"Chengyang District No. 2, Qingdao",,36.308429,120.465806,-,-,-,-,-,-,-,-,0,-,-,20150104170000
293,Qingdao,,36.067358,120.387773,199,145,13,27,41,25,11,-6,1017,30,2,20150104170000
294,"Zichuan Meteo. Stations, Zibo",,36.637916,117.960222,68,69,32,13,13,12,11,3,0,55,4,20150104170000
295,"Dongfeng Chemical factory, Zibo",,36.838576,118.050785,200,170,21,75,60,24,5,-6,0,42,3,20150104170000
296,"Boshan shuangshan, Zibo",,36.497278,117.853581,-,-,-,-,-,-,-,-,0,-,-,20150104170000
297,"Linzi Putian Park, Zibo",,36.820171,118.315022,-,-,-,-,-,-,-,-,0,-,-,20150104170000
298,"Qilu Petrochemical, Zibo",,36.765907,118.254967,202,129,-,58,66,-,7,-5,0,36,3,20150104170000
299,"Zhoucun sanjin Group, Zibo",,36.8044,117.85694,291,259,9,58,79,31,10,-6,0,29,2,20150104170000
300,"Vocational College, Zibo",,36.825208,117.926305,200,120,-,47,67,-,7,-5,0,36,3,20150104170000
301,"BDA, Zibo",,36.905214,118.021824,-,-,-,-,-,-,-,-,0,-,-,20150104170000
302,Zibo,,36.813618,118.060948,264,188,2,53,108,24,0,-8,0,50,3,20150104170000
303,"Shizhong District Government, Zaozhuang",,34.850397,117.569545,305,418,24,33,52,16,12,0,1015,31,2,20150104170000
304,"Sewage treatment plant, Zaozhuang",,34.818951,117.595345,229,185,8,33,61,35,9,-4,1018,26,1,20150104170000
305,"Xuecheng EPA, Zaozhuang",,34.790214,117.272455,279,192,27,28,44,0,12,0,1015,31,2,20150104170000
306,"Yicheng District government, Zaozhuang",,34.772806,117.57647,245,248,19,43,38,24,12,0,1015,31,2,20150104170000
307,"Taierzhuang EPA, Zaozhuang",,34.579462,117.741067,-,-,-,-,-,-,-,-,0,-,-,20150104170000
308,"Shanting EPA, Zaozhuang",,35.070373,117.457691,247,176,40,53,36,10,12,0,1015,31,2,20150104170000
309,"City EPA, Zaozhuang",,34.809466,117.320608,205,164,-,33,62,-,13,-2,1015,23,3,20150104170000
310,"High-tech zone, Zaozhuang",,34.821779,117.363495,190,130,-,28,58,-,13,-2,1015,23,3,20150104170000
311,Zaozhuang,,34.809693,117.329634,307,278,15,25,47,24,1,-5,1018,56,0,20150104170000
312,"City EPA, Dongying",,37.432052,118.672871,213,152,11,42,61,24,2,-6,0,54,5,20150104170000
313,"Vocational College, Dongying",,37.438653,118.630567,241,168,-,46,83,-,6,-3,0,48,3,20150104170000
314,"Xianhe Oil Production Plant, Dongying",,37.442419,118.510222,278,233,7,49,75,32,7,-3,0,43,1,20150104170000
315,"Gengjin village, Dongying",,37.445072,118.55839,260,171,23,36,59,0,5,-2,0,54,5,20150104170000
316,"City environmental company, Dongying",,37.466599,118.508012,250,157,4,44,51,21,1,-6,0,53,2,20150104170000
317,"Hekou  district, Dongying",,37.883786,118.522171,278,200,-,40,56,-,7,-3,0,45,2,20150104170000
318,"BDA, Dongying",,37.435162,118.701827,283,182,9,58,63,31,7,-3,0,45,2,20150104170000
319,Dongying,,37.435429,118.680434,220,162,12,43,64,23,2,-6,0,53,5,20150104170000
320,"Bearing Factory, Yantai",,37.544126,121.376956,319,168,13,62,58,0,,,0,,,20150104170000
321,"Xijiao Chemical Station, Yantai",,37.547148,121.323695,169,72,31,16,18,0,,,0,,,20150104170000
322,"Fushan Monitoring Stations, Yantai",,37.472245,121.260116,239,116,4,44,54,31,,,0,,,20150104170000
323,"Mouping EPA, Yantai",,37.376681,121.586509,210,186,11,43,56,42,,,0,,,20150104170000
324,"Laishan EPA, Yantai",,37.478422,121.44829,-,-,-,-,-,-,,,0,,,20150104170000
325,"Laishan Shengquan Industrial Park, Yantai",,37.4271,121.408386,229,192,6,38,51,21,,,0,,,20150104170000
326,"China Agricultural University, Yantai",,37.423568,121.511838,250,189,-,46,52,-,,,0,,,20150104170000
327,"BDA EPA, Yantai",,37.560827,121.257954,68,49,17,4,6,4,,,0,,,20150104170000
329,"Dajijia, Yantai",,37.673849,121.071465,280,170,-,47,58,-,,,0,,,20150104170000
330,Yantai,,37.464793,121.453142,177,80,15,26,32,0,,,0,,,20150104170000
331,"BDA, Weifang",,36.720022,119.054064,218,163,-,48,66,-,,,0,,,20150104170000
332,"Business School, Weifang",,36.682442,119.105909,196,147,7,34,68,19,,,0,,,20150104170000
333,"Hanting District, Weifang",,36.773484,119.199705,-,-,-,-,-,-,,,0,,,20150104170000
334,"Gongda Company, Weifang",,36.657635,119.167266,294,253,31,42,52,17,,,0,,,20150104170000
335,"City EPA, Weifang",,36.701272,119.16838,-,-,-,-,-,-,,,0,,,20150104170000
336,"City Arbitration Committee, Weifang",,36.702422,119.145927,193,143,-,39,63,-,,,0,,,20150104170000
337,"Xinhui Group, Weifang",,36.641581,119.11679,194,165,12,33,62,25,,,0,,,20150104170000
338,"Jincheng Middle School, Weifang",,36.773611,119.115539,209,161,13,36,81,26,,,0,,,20150104170000
339,Weifang,,36.707217,119.167638,222,159,21,45,57,19,,,0,,,20150104170000
340,"City Monitoring Station, Jining",,35.408443,116.623917,179,108,-,41,60,-,14,-3,1016,21,2,20150104170000
1090,"Shengdi Hollidays Resort, Jining",,35.424746,116.699093,177,115,-,45,73,-,14,-3,1016,21,2,20150104170000
341,"Sewage treatment plant, Jining",,35.364286,116.609177,-,-,-,-,-,-,-,-,0,-,-,20150104170000
342,"Electrochemical Factory, Jining",,35.390473,116.552956,193,168,25,51,63,0,6,-4,1016,35,2,20150104170000
343,"Rencheng BDA, Jining",,35.390484,116.662995,170,127,-,38,64,-,14,-3,1016,21,2,20150104170000
344,"Agricultural School, Jining",,35.44235,116.601682,172,295,8,27,61,23,8,-3,1018,33,1,20150104170000
345,"BDA Huojucheng, Jining",,35.436377,116.642953,173,138,-,27,61,-,14,-3,1016,21,2,20150104170000
346,Jining,,35.414473,116.59239,239,153,22,40,70,19,-1,-6,1017,57,0,20150104170000
347,"Taishan monitoring station, Taian",,36.194362,117.159648,198,169,15,57,58,13,3,-18,0,9,8,20150104170000
348,"Shandong Electric Power School, Taian",,36.176071,117.12413,255,196,44,70,60,21,3,-18,0,9,8,20150104170000
349,"Population Education school, Taian",,36.194417,117.104131,200,146,22,28,54,15,1,-3,0,62,9,20150104170000
350,"Houfeng company, Taian",,36.204863,117.19015,-,-,-,-,-,-,-,-,0,-,-,20150104170000
351,"Nongda new campus, Taian",,36.170179,117.165191,219,216,4,33,63,40,8,-18,0,6,1,20150104170000
352,"Transportation technical school, Taian",,36.202126,117.047068,183,134,-,27,51,-,5,-20,0,5,4,20150104170000
353,"ICT Technology, Taian",,36.116621,117.107458,242,199,3,33,61,28,8,-18,0,6,1,20150104170000
354,Taian,,36.200502,117.093682,294,245,13,51,53,22,2,-14,0,16,14,20150104170000
355,"City Environmental Monitoring Station, Weihai",,37.513939,122.067058,229,190,21,39,51,14,7,0,0,60,3,20150104170000
356,"Woodworking Factory, Weihai",,37.325455,122.160777,-,-,-,-,-,-,-,-,0,-,-,20150104170000
357,"Lantian Hotel, Weihai",,37.514641,122.146276,217,182,13,37,52,13,7,0,0,60,3,20150104170000
358,"Zhang village government, Weihai",,37.485561,122.049436,-,-,-,-,-,-,-,-,0,-,-,20150104170000
359,"Gao District Bank, Weihai",,37.534919,122.056294,249,185,-,38,54,-,6,0,0,61,1,20150104170000
360,"Huxia technical school, Weihai",,37.427951,122.130811,254,183,24,53,40,13,5,0,0,66,2,20150104170000
361,Weihai,,37.5141,122.125477,159,82,32,16,17,7,4,-3,0,57,5,20150104170000
362,"City governement square, Rizhao",,35.4075,119.526008,189,116,30,31,30,8,10,-4,1018,26,2,20150104170000
363,"Port Authority, Rizhao",,35.381297,119.55396,195,130,22,24,22,0,10,-4,1018,26,2,20150104170000
364,"City Monitoring Station, Rizhao",,35.388683,119.496405,235,180,5,33,47,36,9,-5,1019,26,1,20150104170000
365,"Professor Garden, Rizhao",,35.462161,119.574193,-,-,-,-,-,-,-,-,0,-,-,20150104170000
366,"Vocational and Technical College, Rizhao",,35.441939,119.538187,184,114,10,17,45,19,9,-5,1019,26,1,20150104170000
367,"Lanshan EPA branch, Rizhao",,35.293405,119.345716,199,139,7,21,45,30,9,-5,1019,26,1,20150104170000
368,"Jinma Industrial Park, Rizhao",,35.373339,119.514108,173,117,-,31,44,-,10,-4,1018,26,2,20150104170000
369,Rizhao,,35.416089,119.532316,183,117,11,24,35,29,10,-4,1018,26,2,20150104170000
370,"Vegetable oil factory, Laiwu",,36.205028,117.700917,245,128,29,71,84,24,10,-8,1017,17,2,20150104170000
371,"Nursing home, Laiwu",,36.266067,117.652769,242,187,8,39,71,33,5,-6,1019,33,1,20150104170000
372,"Xinyi middle school, Laiwu",,36.245086,117.739025,-,-,-,-,-,-,-,-,0,-,-,20150104170000
373,"Risheng International School, Laiwu",,36.208125,117.730959,-,-,-,-,-,-,-,-,0,-,-,20150104170000
374,"Gangcheng EPA, Laiwu",,36.066836,117.871823,-,-,-,-,-,-,-,-,0,-,-,20150104170000
375,"City EPA, Laiwu",,36.228913,117.694797,190,146,8,41,76,34,5,-6,1019,33,1,20150104170000
376,Laiwu,,36.213688,117.682612,184,110,16,20,39,33,12,-8,1017,13,2,20150104170000
377,"Lunan Pharmaceutical Factory, Linyi",,35.061671,118.299527,251,188,24,59,46,16,4,-3,0,57,3,20150104170000
378,"Yihe compound, Linyi",,35.056752,118.34739,286,160,18,48,35,28,5,-3,0,50,3,20150104170000
379,"Linyi University, Linyi",,35.114777,118.293414,221,177,-,51,35,-,7,-2,0,47,3,20150104170000
380,City EPA,Nanfang,35.104871,118.353518,207,168,-,38,36,-,9,-2,0,42,3,20150104170000
381,"Xinguang woolen factory, Linyi",,34.981004,118.282,254,208,29,63,54,33,4,-3,0,57,3,20150104170000
382,"Hongfu Baijiu Factory, Linyi",,34.998788,118.257275,225,350,10,42,46,62,12,-3,0,32,2,20150104170000
384,"Hedong insurance company, Linyi",,35.089354,118.40812,369,253,16,52,27,42,0,-6,0,63,2,20150104170000
385,"Jianghua vehicule center, Linyi",,35.010082,118.435749,188,183,1,36,39,44,10,-3,0,37,2,20150104170000
386,Linyi,,35.10428,118.362202,224,151,23,44,40,16,5,-3,0,50,3,20150104170000
387,"Heima group, Dezhou",,37.466063,116.314134,304,243,19,65,56,0,8,-4,1015,32,2,20150104170000
388,"Monitoring station, Dezhou",,37.433107,116.377312,-,-,-,-,-,-,-,-,0,-,-,20150104170000
389,"Supervision Station, Dezhou",,37.449689,116.324709,296,263,17,55,54,0,8,-4,1015,32,2,20150104170000
390,"Huayu technical school, Dezhou",,37.462809,116.357559,249,150,8,48,64,21,7,-5,1018,32,1,20150104170000
391,"Shuangyi group, Dezhou",,37.478848,116.316362,277,187,-,44,77,-,11,-4,1016,23,1,20150104170000
392,Dezhou,,37.434959,116.363366,251,145,10,47,36,12,1,-7,1016,44,1,20150104170000
393,"Dongchang District Government, Liaocheng",,36.444473,115.971733,195,139,19,30,40,0,5,-6,1016,31,2,20150104170000
394,"Light Machinery Factory No. 2, Liaocheng",,36.456788,116.002383,193,141,29,37,43,0,12,-4,1015,21,3,20150104170000
395,"City committee communist party school, Liaocheng",,36.479537,115.989288,213,174,16,74,47,19,10,-3,1015,26,1,20150104170000
396,"Customs, Liaocheng",,36.431933,115.956974,-,-,-,-,-,-,-,-,0,-,-,20150104170000
397,"Hongshun Garden, Liaocheng",,36.471124,115.960319,195,147,-,27,42,-,12,-4,1015,21,3,20150104170000
398,"BDA, Liaocheng",,36.459407,116.043621,199,125,-,28,33,-,12,-4,1015,21,3,20150104170000
399,Liaocheng,,36.456792,115.991051,195,139,19,30,40,0,5,-6,1016,31,2,20150104170000
400,"City EPA, Binzhou",,37.38024,118.026895,222,145,15,43,64,34,-4,-8,1016,64,0,20150104170000
401,"Beizhong new school, Binzhou",,37.38374,117.988996,284,160,22,57,83,0,8,-4,1016,28,1,20150104170000
402,"No.2 water factory, Binzhou",,37.36155,118.002648,242,163,9,52,67,26,11,-4,1016,22,2,20150104170000
403,"Keling Chemical factory, Binzhou",,37.396138,117.943609,-,-,-,-,-,-,-,-,0,-,-,20150104170000
404,"Yinhe logistics company, Binzhou",,37.356122,117.943326,273,173,10,58,64,35,11,-4,1016,22,2,20150104170000
405,"Bilin compond, Binzhou",,37.36815,117.978964,196,150,14,48,66,36,11,-4,1016,22,2,20150104170000
406,Binzhou,,37.382639,117.976606,257,158,24,44,49,32,0,-7,1016,46,1,20150104170000
407,"Bureau of Meteorology, Heze",,35.248625,115.428775,200,153,26,29,53,23,9,-4,0,37,3,20150104170000
408,"Sewage treatment plant, Heze",,35.222517,115.531511,244,225,-,31,51,-,11,-5,0,30,2,20150104170000
409,"Municipal CPPCC, Heze",,35.237125,115.480591,304,236,32,44,51,23,8,-3,0,44,3,20150104170000
410,"Huarun Pharmaceutical Company, Heze",,35.261463,115.524873,224,150,-,21,33,-,11,-4,0,33,2,20150104170000
411,"Heze University, Heze",,35.269706,115.460934,-,-,-,-,-,-,-,-,0,-,-,20150104170000
412,Heze,,35.233354,115.486503,208,150,23,22,38,24,10,-4,0,36,2,20150104170000
413,"Shiji Park, Shijiazhuang",,38.03155,114.547873,438,422,2,98,78,68,1,-7,1016,56,2,20150104170000
414,"Xinan College, Shijiazhuang",,38.012764,114.473163,408,431,5,59,64,62,1,-7,1016,56,2,20150104170000
415,"Chemical College, Shijiazhuang",,38.055503,114.569816,447,443,4,98,78,80,1,-7,1016,56,2,20150104170000
416,"Worker hospital, Shijiazhuang",,38.051784,114.461209,456,471,2,101,73,63,1,-7,1016,56,2,20150104170000
417,"Northwest Water Company, Shijiazhuang",,38.140638,114.508038,486,485,4,85,80,72,1,-7,1016,56,2,20150104170000
418,"High-tech zone, Shijiazhuang",,38.040482,114.610775,454,528,4,101,70,55,2,-9,1015,44,1,20150104170000
419,"Fenglong Montain, Shijiazhuang",,37.910829,114.360264,238,149,35,56,68,18,2,-9,1016,44,2,20150104170000
1130,"Zhengding Unicom, Shijiazhuang",,38.159458,114.59879,537,723,3,92,68,88,-7,-12,1017,68,2,20150104170000
1131,"Luancheng Communications, Shijiazhuang",,37.906534,114.638785,545,496,4,99,157,68,1,-7,1016,56,2,20150104170000
1132,"Gaocheng Experimental School, Shijiazhuang",,38.039518,114.867812,621,804,3,58,79,88,-1,-9,1017,55,1,20150104170000
1133,"Wuji EPA, Shijiazhuang",,38.17862,114.997012,707,917,6,73,105,96,-7,-12,1017,68,2,20150104170000
1134,"Shenze Power Supply Bureau, Shijiazhuang",,38.197674,115.219126,512,669,4,63,81,79,-7,-12,1017,68,2,20150104170000
1135,"Zhaoxian EPA, Shijiazhuang",,37.77171,114.775957,535,565,2,57,90,81,-7,-12,1017,68,2,20150104170000
1136,"Gaoyi County City Hall, Shijiazhuang",,37.623535,114.612729,427,409,3,53,97,66,-7,-12,1017,68,2,20150104170000
1137,"Zanhuang County City Hall, Shijiazhuang",,37.672898,114.398269,436,486,3,49,122,39,-1,-9,1017,55,1,20150104170000
561,Qianhu water plant,,29.774416,121.648136,213,67,30,26,13,9,20,-5,1016,18,3,20150104170000
1138,"Jingxing Bureau of Meteorology, Shijiazhuang",,38.038788,114.158406,505,579,2,73,97,56,1,-7,1016,56,2,20150104170000
1139,"Pingshan Ye River, Shijiazhuang",,38.266657,114.210275,515,602,5,41,59,60,1,-7,1016,56,2,20150104170000
420,Shijiazhuang,,38.042926,114.520834,500,569,4,91,87,69,6,-8,1015,36,2,20150104170000
421,"No. 12 middle school, Tangshan",,39.659306,118.190271,,,,,,,-,-,0,-,-,20150104170000
422,"Ceramics Company, Tangshan",,39.669255,118.225185,224,156,17,49,64,33,1,-2,1016,81,4,20150104170000
423,"Commodities Bureau, Tangshan",,39.642301,118.191265,189,128,13,30,53,28,0,-4,1017,75,1,20150104170000
424,"Leidazhanzi Station, Tangshan",,39.644375,118.150383,190,125,7,39,50,57,5,-10,1016,33,3,20150104170000
425,"Supply and marketing cooperatives, Tangshan",,39.632334,118.17232,192,131,14,43,74,38,1,-2,1016,81,4,20150104170000
1140,"Guye District City Hall, Tangshan",,39.741379,118.460246,171,86,10,36,27,59,5,-10,1016,33,3,20150104170000
1141,"Kaiping Stations, Tangshan",,39.675246,118.275149,194,121,9,41,52,46,0,-9,1017,51,1,20150104170000
1142,"Fengnan District City Hall, Tangshan",,39.5834,118.097454,201,136,8,16,53,59,0,-9,1017,51,1,20150104170000
1143,"Fengrun City Hall, Tangshan",,39.840355,118.175338,13,169,4,34,43,42,-6,-9,1017,80,1,20150104170000
1144,"Qianxi EPA, Tangshan",,40.153339,118.317265,252,165,3,39,86,56,-6,-9,1017,80,1,20150104170000
1145,"Caofeidian Xinli  Primary School, Tangshan",,39.291232,118.462182,303,190,4,63,59,37,-5,-10,1016,68,1,20150104170000
1146,"Zunhua EPA, Tangshan",,40.206249,117.997315,303,258,7,68,56,53,5,-10,1016,33,3,20150104170000
1147,"Qianan No.1 middle school, Tangshan",,40.004248,118.717055,197,134,3,34,42,77,-6,-9,1017,80,1,20150104170000
1266,"Luannan County , Tangshan",,39.511132,118.686928,177,95,11,34,37,52,5,-10,1016,33,3,20150104170000
1267,"Yutian County , Tangshan",,39.908249,117.751417,198,163,5,56,53,67,5,-10,1016,33,3,20150104170000
426,Tangshan,,39.632175,118.186472,304,196,8,40,11,33,-5,-10,1016,68,1,20150104170000
427,"City Monitoring Station, Qinhuangdao",,39.958109,119.607773,163,94,13,31,45,25,,,0,,,20150104170000
428,"Beidaihe, Qinhuangdao",,39.829209,119.53194,171,111,5,32,44,37,,,0,,,20150104170000
429,"Shanhai Pass, Qinhuangdao",,40.019298,119.767898,274,283,15,54,76,60,,,0,,,20150104170000
430,"Contruction Plazz, Qinhuangdao",,39.943187,119.542912,190,178,1,42,65,40,,,0,,,20150104170000
431,"City government, Qinhuangdao",,39.93711,119.612769,232,212,11,36,40,56,,,0,,,20150104170000
1148,"Qinglong EPA, Qinhuangdao",,40.419223,118.958002,224,136,3,16,26,26,,,0,,,20150104170000
1149,"Changli EPA, Qinhuangdao",,39.714369,119.173237,168,118,13,44,50,15,,,0,,,20150104170000
1268,"Lulong County Bureau of Meteorology , Qinhuangdao",,39.901091,118.904857,338,199,5,34,54,61,,,0,,,20150104170000
432,Qinhuangdao,,39.936485,119.606263,245,164,2,36,35,39,,,0,,,20150104170000
433,"CongTai Park, Handan",,36.620197,114.501891,403,433,7,38,59,38,,,0,,,20150104170000
434,"City EPA, Handan",,36.618145,114.518822,-,-,-,-,-,-,,,0,,,20150104170000
435,"East Sewage Factory, Handan",,36.616064,114.548714,367,256,7,44,50,33,,,0,,,20150104170000
436,"Mine Hospital, Handan",,36.578149,114.509854,365,310,8,53,36,37,,,0,,,20150104170000
1150,"Fengfeng mine Inland Revenue Department, Handan",,36.423085,114.245994,452,482,3,69,123,84,,,0,,,20150104170000
1151,"Shexian EPA, Handan",,36.589084,113.692341,487,502,9,101,153,77,,,0,,,20150104170000
1152,"Ci County Vocational Education Center, Handan",,36.380247,114.390119,528,652,5,103,72,44,,,0,,,20150104170000
1153,"Yongnian government guesthouse, Handan",,36.783297,114.502905,493,553,2,100,85,63,,,0,,,20150104170000
1154,"Wuan BDA, Handan",,36.686223,114.269009,554,815,2,101,114,94,,,0,,,20150104170000
1085,Handan,,36.625683,114.544812,414,460,3,47,83,50,,,0,,,20150104170000
437,"Road and Bridge Corporation, Xingtai",,37.096415,114.538799,486,630,5,97,88,41,6,-8,1015,23,2,20150104170000
438,"Dahuo fontain, Xingtai",,37.097563,114.488001,449,413,4,93,65,50,8,-8,1015,18,2,20150104170000
439,"Xingtai Normal College, Xingtai",,37.053404,114.531819,500,605,3,80,77,67,8,-8,1015,18,2,20150104170000
440,"Environment protection office, Xingtai",,37.06253,114.490985,467,569,9,46,84,132,0,-10,1016,32,2,20150104170000
1155,"Cultural centers within the mound, Xingtai",,37.293569,114.524873,317,303,5,35,57,56,0,-11,1017,27,1,20150104170000
383,Xingtai,,37.071066,114.510749,460,582,5,58,79,47,8,-8,1015,18,2,20150104170000
441,"City Monitoring Station, Baoding",,38.871737,115.527103,461,552,28,49,95,61,4,-10,1016,22,1,20150104170000
442,"Surface water Company, Baoding",,38.842891,115.467326,399,797,9,84,69,69,6,-11,1016,16,1,20150104170000
443,"Huadian II, Baoding",,38.896748,115.528102,426,128,38,63,81,39,6,-11,1016,16,1,20150104170000
444,"Reception Center, Baoding",,38.911905,115.477301,458,540,13,75,64,59,-4,-13,1016,34,0,20150104170000
445,"Film Factory, Baoding",,38.876949,115.448383,271,584,8,86,52,74,6,-11,1016,16,1,20150104170000
446,"Natatorium, Baoding",,38.863815,115.499212,466,590,8,90,57,72,6,-11,1016,16,1,20150104170000
1156,"Qingyuan City Hall, Baoding",,38.771758,115.502189,-,-,-,-,-,-,-,-,0,-,-,20150104170000
1157,"Xushui EPA, Baoding",,39.025781,115.668023,584,787,2,90,103,58,1,-9,1016,33,2,20150104170000
1158,"Zhuozhou Monitoring Stations, Baoding",,39.493241,116.040187,229,145,2,2,85,71,1,-10,1018,29,2,20150104170000
1159,"Gaobeidian EPA, Baoding",,39.3329,115.885891,546,669,9,101,102,51,1,-9,1016,33,2,20150104170000
447,Baoding,,38.874791,115.471124,488,681,8,101,58,33,1,-9,1016,33,2,20150104170000
448,"Century Compound, Zhangjiakou",,40.770279,114.909106,122,71,11,35,51,10,-8,-18,1022,31,0,20150104170000
449,"North Pumping Station, Zhangjiakou",,40.874362,114.910119,87,136,25,33,71,23,3,-16,1016,12,0,20150104170000
450,"Hardware Warehouse, Zhangjiakou",,40.81232,114.887119,167,106,19,27,35,26,3,-16,1016,12,0,20150104170000
451,"Tanji Chang, Zhangjiakou",,40.796301,114.89811,209,108,22,39,67,17,0,-16,1018,15,0,20150104170000
1160,"Xiahuayuan EPA, Zhangjiakou",,40.509345,115.302442,182,119,13,39,63,17,3,-16,1016,12,0,20150104170000
1161,"Huaian EPA, Zhangjiakou",,40.68157,114.398646,119,65,7,17,12,13,-8,-18,1022,31,0,20150104170000
1162,"Huailai Fuqian Primary School, Zhangjiakou",,40.422204,115.530285,171,109,6,28,57,19,-8,-18,1022,31,0,20150104170000
1269,"Zhangbei EPA , Zhangjiakou",,41.166775,114.732369,85,52,18,8,13,7,5,-17,1017,8,2,20150104170000
1270,"Kangbao County Environmental Protection Agency , Zhangjiakou",,41.837866,114.591246,76,48,18,4,6,9,5,-17,1017,8,2,20150104170000
1271,"Guyuan County welfare , Zhangjiakou",,41.669984,115.687401,119,50,13,13,8,11,-8,-18,1022,31,0,20150104170000
1272,"Shangyi County Environmental Protection Bureau , Zhangjiakou",,41.086638,113.984688,122,63,20,12,18,14,3,-16,1016,12,0,20150104180000
1273,"Yuxian Secondary School , Zhangjiakou",,39.84699,114.601986,226,149,4,28,96,63,-8,-18,1022,31,0,20150104180000
1274,"Yang County Vocational Education Center , Zhangjiakou",,40.106343,114.134732,174,109,12,31,66,14,-8,-18,1022,31,0,20150104180000
1275,"Wan county Environmental Protection Agency , Zhangjiakou",,40.770459,114.75033,124,73,15,15,19,6,-8,-18,1022,31,0,20150104180000
1276,"Zhuolu County Environmental Protection Agency , Zhangjiakou",,40.374273,115.221393,243,154,2,33,63,24,-8,-18,1022,31,0,20150104180000
452,Zhangjiakou,,40.825744,114.893659,182,129,20,22,60,19,0,-16,1018,15,0,20150104180000
453,"Railway, Chengde",,40.917557,117.972331,172,165,14,41,52,21,2,-14,1018,17,1,20150104180000
454,"Cultural Center, Chengde",,40.974625,117.824437,191,136,3,29,29,32,-12,-17,1022,57,1,20150104180000
455,"Bank of China, Chengde",,40.985582,117.958304,175,126,4,32,35,24,-12,-17,1022,57,1,20150104180000
456,"BDA, Chengde",,40.937567,117.969325,192,133,7,28,51,35,-12,-17,1022,57,1,20150104180000
457,"Ligong, Chengde",,41.012579,117.94428,184,81,4,22,21,17,-12,-17,1022,57,1,20150104180000
1163,"Chengde County EPA, Chengde",,40.776643,118.17646,172,112,5,27,33,23,-12,-17,1022,57,1,20150104180000
1164,"Xinglong County City Hall, Chengde",,40.424301,117.513488,159,75,2,28,19,34,-10,-16,1019,50,0,20150104180000
1165,"Luanping EPA, Chengde",,40.950792,117.350715,175,85,4,28,15,25,-12,-17,1022,57,1,20150104180000
1166,"Fengning County City Hall, Chengde",,41.216739,116.658037,277,166,15,38,64,17,2,-14,1018,17,1,20150104180000
1277,"Longhua EPA , Chengde",,41.311956,117.739605,187,103,5,23,19,18,-12,-17,1022,57,1,20150104180000
458,Chengde,,40.955652,117.968737,190,129,7,29,37,35,-12,-17,1020,52,1,20150104180000
459,"Municipal EPB, Cangzhou",,38.323507,116.876746,205,175,10,47,52,35,-6,-9,1016,80,1,20150104180000
460,"Cangxian Urban Construction Bureau, Cangzhou",,38.299495,116.890734,336,323,11,44,69,48,-5,-10,1016,68,1,20150104180000
461,"TV Broadcast Station, Cangzhou",,38.325525,116.863761,401,394,4,44,90,55,-6,-9,1017,80,1,20150104180000
1167,"Qing County City Hall, Cangzhou",,38.589643,116.815876,422,392,1,66,72,61,-6,-9,1017,80,1,20150104180000
1168,"Poyoushi City Hall, Cangzhou",,38.089516,116.590575,155,259,1,33,64,35,-6,-9,1017,80,1,20150104180000
1169,"Huanghua Finance Bureau Training Center, Cangzhou",,38.377793,117.343356,448,555,5,65,136,34,-6,-9,1017,80,1,20150104180000
462,Cangzhou,,38.305035,116.844625,334,283,10,57,73,40,0,-4,1017,75,1,20150104180000
463,"Environmental Monitoring Supervision Center, Langfang",,39.558157,116.720995,286,176,8,38,24,37,1,-2,1016,81,4,20150104180000
464,"TCM Medical Material Company, Langfang",,39.519096,116.689914,288,170,4,37,48,24,-5,-10,1016,68,1,20150104180000
465,"BDA, Langfang",,39.576175,116.779041,321,164,4,57,5,39,6,-10,1016,31,3,20150104180000
466,"North China Institute of Aerospace, Langfang",,39.53517,116.743027,345,229,5,59,43,30,2,-8,1016,48,2,20150104180000
1170,"Guan Party School, Langfang",,39.446185,116.311026,436,452,3,76,51,65,-6,-9,1017,80,1,20150104180000
1171,"Xianghe EPA, Langfang",,39.76725,117.015252,381,312,5,84,59,51,5,-10,1016,33,3,20150104180000
1172,"Wenan County EPA, Langfang",,38.880927,116.47001,415,420,15,94,74,65,0,-9,1017,51,1,20150104180000
1173,"Three Rivers Department of Transportation, Langfang",,39.989419,117.091528,266,189,9,68,63,47,5,-10,1016,33,3,20150104180000
1278,"Yongqing EPA , Langfang",,39.329071,116.510917,448,478,7,101,70,48,0,-8,1017,55,1,20150104180000
1279,"Dacheng EPA, Langfang",,38.712628,116.665751,546,571,12,69,59,62,-5,-9,1016,74,1,20150104180000
467,Langfang,,39.539148,116.689668,288,170,4,37,48,24,-5,-10,1016,68,1,20150104180000
468,"Hengshui City EPB, Hengshui",,37.739679,115.695929,322,303,4,40,51,36,2,-6,0,52,2,20150104180000
469,"Environmental Monitoring Station, Hengshui",,37.738593,115.648837,304,329,5,45,46,37,0,-6,0,63,1,20150104180000
470,"Electrical Machine North Factory, Hengshui",,37.758686,115.70094,323,305,4,29,56,38,2,-6,0,52,2,20150104180000
1174,"Anping EPA, Hengshui",,38.238559,115.537988,522,549,2,68,73,38,2,-6,0,52,2,20150104180000
1175,"Jizhou EPA, Hengshui",,37.548552,115.58679,273,195,2,41,50,24,2,-6,0,52,2,20150104180000
1280,"Zaoqiang EPA, Hengshui",,37.520698,115.714936,360,307,41,40,72,33,2,-6,0,52,2,20150104180000
1281,"Wuyi EPA, Hengshui",,37.801554,115.898697,318,260,4,38,3,30,2,-6,0,52,2,20150104180000
1282,"Wuqiang EPA , Hengshui",,38.03557,115.959767,444,492,3,51,2,32,7,-5,0,40,2,20150104180000
1283,"Raoyang EPA , Hengshui",,38.230652,115.741041,488,581,3,67,16,55,7,-5,0,39,2,20150104180000
1284,"Gucheng County , Hengshui",,37.347569,115.966707,276,169,6,32,55,25,2,-6,0,52,2,20150104180000
666,"Songshan Road, Chifeng",,42.171487,118.89501,177,113,13,9,37,22,-8,-19,1018,25,1,20150104180000
471,Hengshui,,37.739562,115.676066,320,349,23,52,56,27,4,-5,0,45,2,20150104180000
1176,"Xinji City Hall, Xinji",,37.949711,115.230084,646,818,2,61,93,85,2,-6,0,52,2,20150104180000
472,"Fukang road, Tianjin",,39.098136,117.157621,404,270,6,96,66,58,1,-8,1016,52,2,20150104180000
473,"Nankou road, Tianjin",,39.174022,117.199688,404,455,8,102,72,61,0,-8,1017,55,1,20150104180000
474,"Qinjian street, Tianjin",,39.166588,117.15104,414,335,9,78,69,52,-1,-6,1018,69,1,20150104180000
475,"Nanjing Road, Tianjin",,39.120958,117.195112,372,418,8,93,100,62,1,-1,1017,87,3,20150104180000
476,"Dazhigu No.8 road, Tianjin",,39.111811,117.25147,386,367,10,69,63,39,-3,-9,1015,64,1,20150104180000
477,"Qianjin street, Tianjin",,39.09371,117.207981,378,220,8,75,58,37,-5,-8,1016,80,1,20150104180000
478,"Huaihe street, Tianjin",,39.227167,117.191293,349,382,7,57,40,53,1,-1,1017,87,3,20150104180000
479,"Xiangshan street, Tianjin",,39.134752,117.275125,421,315,8,48,51,54,1,-1,1017,87,3,20150104180000
480,"Yuejin Road, Tianjin",,39.088177,117.320884,317,364,4,90,39,61,1,-1,1017,87,3,20150104180000
482,"No.4 street, Tianjin",,39.035228,117.713424,370,307,5,101,60,54,6,-10,1016,31,3,20150104180000
483,"Yongming road, Tianjin",,38.840392,117.463805,461,474,11,69,64,39,-6,-9,1016,80,1,20150104180000
484,"Xinhua street, Tianjin",,39.138671,117.010083,122,349,4,103,78,53,0,-4,1017,75,1,20150104180000
485,"Jingu Road, Tianjin",,38.985659,117.381254,420,360,6,68,58,43,-5,-8,1016,80,1,20150104180000
486,"Tanggu Yingkou street, Tianjin",,39.021768,117.656454,375,305,4,81,73,42,-6,-9,1016,80,1,20150104180000
487,"Hexi Yijing road, Tianjin",,39.248392,117.798043,368,216,4,55,59,28,-3,-9,1015,64,1,20150104180000
488,"Jianshe Road, Tianjin",,39.720075,117.310588,257,194,3,56,52,68,-5,-10,1016,68,1,20150104180000
489,"Quanzhou South road, Tianjin",,39.373857,117.050329,290,171,3,51,51,41,-5,-8,1016,80,1,20150104180000
490,"Donghuan road, Tianjin",,40.043144,117.451062,295,213,2,48,57,51,4,-11,1018,33,2,20150104180000
491,"Tuanpowa, Tianjin",,38.920418,117.16299,442,413,7,86,33,66,1,-8,1016,52,2,20150104180000
493,"Beiwei No.2 road, Tianjin",,38.943857,116.920624,582,630,4,93,76,89,2,-9,1018,44,0,20150104180000
494,"Haitai fazhan No.2 road, Tianjin",,39.079608,117.096583,400,236,2,58,57,52,-5,-8,1016,80,1,20150104180000
495,"Hangtian road, Tianjin",,39.152244,117.381309,346,315,12,89,39,61,0,-4,1017,75,1,20150104180000
496,"Hanbei road, Tianjin",,39.159768,117.770477,393,339,3,68,55,56,4,-11,1018,33,2,20150104180000
497,"Baobai highway, Tianjin",,39.51757,117.349635,215,177,6,49,32,50,0,-4,1017,75,1,20150104180000
498,Tianjin,,39.085164,117.207281,406,293,9,101,82,52,2,-8,1016,48,2,20150104180000
499,"Wolong bridge, Hangzhou",,30.24371,120.132762,175,93,40,44,29,9,8,0,1016,57,2,20150104180000
500,"Hemu primary school, Hangzhou",,30.309669,120.124507,204,147,20,51,10,21,5,-1,1019,65,2,20150104180000
501,"Zhejiang Agricultural University, Hangzhou",,30.265601,120.197583,215,172,48,8,22,11,5,-1,1019,65,2,20150104180000
502,"Xiasha, Hangzhou",,30.303516,120.352618,160,81,33,53,18,7,9,-1,1016,50,2,20150104180000
503,"Yunqi, Hangzhou",,30.178555,120.093142,153,69,4,24,4,7,4,-1,1019,70,2,20150104180000
504,"Xixi, Hangzhou",,30.272425,120.068144,164,87,18,33,7,11,5,-2,1018,61,2,20150104180000
505,"Chengxiang town, Hangzhou",,30.179493,120.274184,169,87,7,40,23,11,3,-3,1018,65,1,20150104180000
506,"Qiandao lake, Hangzhou",,29.638139,119.031092,97,41,29,8,6,4,18,-3,1016,24,4,20150104180000
507,"Linping town, Hangzhou",,30.415948,120.305059,129,56,22,21,12,16,18,-3,1016,24,4,20150104180000
508,"Fuyang monitoring station, Hangzhou",,30.048419,119.963469,157,80,33,29,14,12,18,-3,1016,24,4,20150104180000
509,"No.2 Middle School, Hangzhou",,30.044303,119.956356,281,278,24,50,19,17,8,-1,1016,53,2,20150104180000
510,"City Hall, Hangzhou",,30.234185,119.723503,134,60,77,11,14,12,4,-4,1017,56,2,20150104180000
511,"No. 4 middle school, Hangzhou",,30.229428,119.699591,139,67,1,31,6,11,5,-1,1019,65,2,20150104180000
512,Hangzhou,,30.271756,120.159765,194,123,30,68,26,15,13,-4,1016,31,2,20150104180000
513,"City Station, Wenzhou",,28.009715,120.679129,139,61,23,33,12,9,15,8,0,63,2,20150104180000
514,"Ouhai, Wenzhou",,28.001846,120.641982,134,63,23,33,15,10,15,8,0,63,2,20150104180000
515,"Longwan, Wenzhou",,27.968122,120.768393,169,103,25,44,15,17,5,3,0,85,1,20150104180000
516,"Nanpu, Wenzhou",,27.981763,120.683685,152,71,19,32,17,12,15,8,0,63,2,20150104180000
517,Wenzhou,,27.990985,120.703425,158,92,34,62,23,12,10,8,0,88,1,20150104180000
518,"Monitoring station, Jiaxing",,30.75437,120.767373,171,102,30,23,9,10,3,1,1017,87,0,20150104180000
519,"Jiaxing University, Jiaxing",,30.745099,120.735004,186,108,26,41,27,11,3,1,1017,87,0,20150104180000
520,"Qinghe Primary School, Jiaxing",,30.775685,120.747969,180,82,26,45,18,14,3,1,1017,87,0,20150104180000
521,Jiaxing,,30.751627,120.762862,154,71,24,44,36,11,18,-4,1017,22,2,20150104180000
522,"Chengbei water plant, Huzhou",,30.891155,120.096593,199,0,9,53,20,15,3,2,1017,93,0,20150104180000
523,"Jishan new village, Huzhou",,30.859939,120.120168,228,0,3,57,22,14,3,2,1017,93,0,20150104180000
524,"Town west water plant, Huzhou",,30.862371,120.084577,207,125,16,64,32,16,6,2,1018,76,2,20150104180000
525,Huzhou,,30.892304,120.091694,188,115,18,54,25,15,17,-3,1016,26,3,20150104180000
526,"Donghu middle school, Shaoxing",,29.990447,120.647547,154,78,23,22,30,7,19,-4,1017,21,2,20150104180000
527,"City EPA station, Shaoxing",,30.001695,120.584318,165,85,13,45,33,12,3,-3,1018,65,1,20150104180000
528,"Chengdong BDA committee, Shaoxing",,29.986643,120.613578,151,65,17,21,12,8,4,-3,1018,61,2,20150104180000
529,"Paojiang station, Shaoxing",,30.07574,120.62154,161,85,13,32,27,9,3,-3,1018,65,1,20150104180000
530,"Shaoxing technical school, Shaoxing",,29.930983,120.577131,147,60,13,17,9,4,3,-3,1018,65,1,20150104180000
531,"Library, Shaoxing",,29.706266,120.253183,184,98,22,28,10,18,4,-3,1018,61,2,20150104180000
532,"Transporation management station, Shaoxing",,29.726405,120.221602,160,76,27,16,18,41,18,-3,1016,24,4,20150104180000
533,"Dongpu Town Governement, Shaoxing",,30.049601,120.539893,207,134,26,58,26,10,9,0,1016,54,2,20150104180000
534,Shaoxing,,29.993122,120.590182,157,93,18,39,29,10,19,-4,1017,21,2,20150104180000
535,"City Monitoring Station, Jinhua",,29.100031,119.690373,155,75,49,39,28,11,11,0,0,44,2,20150104180000
536,"No.15 middle school, Jinhua",,29.074022,119.652121,157,67,20,27,16,17,5,-3,0,54,1,20150104180000
537,"No.4 middle school, Jinhua",,29.110109,119.653654,171,101,9,36,53,22,9,-1,0,46,1,20150104180000
538,"Beiyuan, Jinhua",,29.332898,120.083351,187,136,24,61,50,15,9,0,0,50,2,20150104180000
539,"Jiangdong, Jinhua",,29.302486,120.095291,190,143,45,64,34,21,9,0,0,50,2,20150104180000
540,Jinhua,,29.076083,119.65215,153,76,33,28,16,13,12,1,0,45,1,20150104180000
541,"EPA building, Quzhou",,28.937291,118.876081,129,76,26,22,23,14,18,1,1016,21,2,20150104180000
542,"Experimental school, Quzhou",,28.961502,118.880916,129,67,61,42,15,16,4,-1,1020,66,1,20150104180000
543,"Quzhou University, Quzhou",,28.971452,118.860052,149,69,38,26,11,16,5,-1,1020,55,1,20150104180000
544,Quzhou,,28.966994,118.864252,174,100,14,26,32,13,12,1,1019,33,2,20150104180000
545,"Putuo east port, Zhoushan",,29.951412,122.317679,112,55,29,22,10,14,20,-5,1016,18,3,20150104180000
546,"Dinghai tanfeng, Zhoushan",,30.018014,122.126566,97,52,21,32,11,8,20,-5,1016,18,3,20150104180000
547,Zhoushan,,29.983049,122.210763,157,85,31,27,6,7,18,-2,1017,26,3,20150104180000
548,"Taizhou EPA building, Taizhou",,28.651216,121.42331,152,86,34,19,6,7,6,4,0,87,2,20150104180000
549,"Luqiao Tian Yang Wang, Taizhou",,28.574364,121.381194,142,83,30,22,4,11,6,4,0,87,2,20150104180000
550,"Huangyan EPA building, Taizhou",,28.656151,121.285064,127,89,32,27,5,7,6,4,0,87,2,20150104180000
551,"Yu Zhuang Qian, Lishui",,28.419638,119.883884,163,75,47,35,8,7,6,0,1022,53,0,20150104180000
552,"Monitoring station building, Lishui",,28.444379,119.923103,177,121,36,47,24,26,18,2,1016,24,0,20150104180000
553,"Liandu primary school, Lishui",,28.450912,119.939332,129,102,43,44,6,11,18,2,1016,24,0,20150104180000
554,Lishui,,28.464224,119.927201,173,103,37,40,22,34,10,3,1016,53,0,20150104180000
1248,Jingningxian,,27.977454,119.634837,162,110,15,43,8,15,,,,,,20150104180000
555,Taigu Primary School,,29.864178,121.60022,159,71,22,28,18,11,1,-1,1018,87,1,20150104180000
556,Qianhu shuihan,,29.862459,121.5328,163,88,7,37,20,13,1,-1,1018,87,0,20150104180000
557,Sanjiang secondary schools,,29.891563,121.568427,149,72,24,53,13,14,8,0,1017,57,1,20150104180000
558,Longsai Hospital,,29.957301,121.726734,157,70,30,65,15,11,8,0,1017,57,1,20150104180000
559,Beilun District EPB,,29.911633,121.850773,153,69,8,35,5,13,2,0,1018,87,1,20150104180000
560,Wanli University,,29.821314,121.574364,157,80,30,52,16,7,11,-1,1017,44,2,20150104180000
667,Chifeng,,42.259752,118.893027,181,110,21,20,55,39,-5,-19,1017,20,2,20150104180000
562,Municipal management station,,29.899182,121.626691,174,106,17,44,8,16,1,-1,1018,87,0,20150104180000
1177,Daxie Literary Museum,,29.9027,121.986447,122,53,12,60,20,5,9,0,1017,54,1,20150104180000
1178,Cixi EPB,,30.165807,121.248991,186,103,34,48,26,15,9,0,1017,54,1,20150104180000
1179,Cixi Experimently Primary School,,30.179808,121.268672,179,96,40,38,25,12,9,0,1017,54,1,20150104180000
1180,"Yongsan Park, Yuyao",,30.050842,121.162477,163,65,24,25,18,13,1,-1,1018,87,0,20150104180000
1181,"Qilupu Water Company, Yuyao",,30.039112,121.133416,177,102,38,27,25,14,9,0,1017,54,1,20150104180000
1182,Fenghua EPB,,29.666557,121.42069,159,71,22,30,22,12,1,0,1018,93,1,20150104180000
1183,"Yuelong station, Ninghai",,29.296505,121.445872,174,91,33,35,14,7,9,0,1017,54,1,20150104180000
1184,"Wenfeng Primary School, Xiangshan",,29.470908,121.889544,165,94,25,42,5,8,11,-1,1017,44,2,20150104180000
1185,"Chengnan Primary School, Ninghai",,29.293812,121.43666,160,77,31,22,9,9,8,0,1017,57,1,20150104180000
1186,"Xingang Primary School, Xiangshan",,29.203878,121.952514,187,72,-,25,6,-,15,-2,1017,31,2,20150104180000
1356,Haishu City Monitoring Center,,29.86835,121.539341,165,94,14,69,13,9,8,0,1017,57,1,20150104180000
1357,Fenghua Xikou government,,29.693164,121.29331,159,77,24,45,8,11,8,0,1017,57,1,20150104180000
1294,Ningbo,,29.865766,121.548164,166,91,38,32,11,12,3,0,1018,81,1,20150104180000
1187,Fuyang,,30.046157,119.96468,178,128,33,31,10,12,4,-2,1019,65,0,20150104180000
1188,Yiwu,,29.304353,120.079794,190,139,47,39,29,23,7,2,0,65,2,20150104180000
1189,Zhuji,,29.711185,120.240748,188,118,49,45,18,25,6,-1,1015,61,0,20150104180000
563,"Shanxi Road , Nanjing",,32.06795,118.779216,-,-,-,-,-,-,-,-,0,-,-,20150104180000
564,"Ruijin Road , Nanjing",,32.029321,118.80817,191,111,14,59,29,0,13,-1,1015,38,4,20150104180000
565,"Xuanwu Lake, Nanjing",,32.075423,118.800188,165,95,24,41,26,0,13,-1,1015,38,4,20150104180000
566,"Olympic Center, Nanjing",,32.007171,118.742217,198,134,29,32,9,0,5,0,1014,70,2,20150104180000
567,"Xianlin University Town , Nanjing",,32.106958,118.919882,164,94,21,31,25,0,18,-1,1015,28,3,20150104180000
568,Nanjing,,32.058179,118.802061,171,117,35,46,30,0,4,-1,1015,70,1,20150104180000
569,"Shangfang hill , Suzhou",,31.24502,120.565211,205,149,26,71,18,0,12,1,1017,47,3,20150104180000
570,"Wuzhong District , Suzhou",,31.268105,120.61717,195,131,30,87,38,0,18,-4,1017,22,2,20150104180000
571,"Suzhou New District , Suzhou",,31.297277,120.547262,218,129,21,69,33,0,10,3,1016,62,2,20150104180000
572,"Suzhou Industrial Area, Suzhou",,31.307603,120.673257,178,103,36,63,32,0,16,-2,1016,29,4,20150104180000
573,"Xiangcheng district, Suzhou",,31.368674,120.645209,179,85,19,54,18,0,8,0,1019,57,3,20150104180000
574,Suzhou,,31.296701,120.589493,251,148,30,89,32,0,10,1,1017,54,3,20150104180000
575,"South suburb , Nantong",,31.957836,120.917218,272,147,28,51,47,0,9,0,0,52,4,20150104180000
576,"Xinghu park, Nantong",,31.927873,120.944254,305,179,27,50,43,0,9,0,0,52,4,20150104180000
577,"Zilang school, Nantong",,32.039638,120.814358,227,157,21,58,52,0,9,0,0,52,4,20150104180000
578,Nantong,,31.978005,120.898555,-,-,-,-,-,-,-,-,0,-,-,20150104180000
579,Lianyungang,连云港,34.595509,119.226814,152,84,21,27,10,7,8,8,1016,96,0,20150104180000
580,"Hongmen police substation, Lianyungang",,34.588692,119.146693,380,216,26,34,52,0,4,3,1017,87,1,20150104180000
581,"Xugou Nuclear Expert Village , Lianyungang",,34.749957,119.373707,309,239,15,43,23,0,6,4,1017,75,3,20150104180000
582,"Hengrui pharmaceutical company, BDA, Lianyungang",,34.697574,119.353668,407,175,37,31,21,0,6,4,1017,75,3,20150104180000
583,"City Monitoring Station, Lianyungang",,34.586791,119.186929,334,187,23,27,39,0,4,3,1017,87,1,20150104180000
584,"Yellow river new village , Xuzhou",,34.271542,117.177241,206,170,28,70,67,0,1,-5,1018,56,0,20150104180000
585,"Tongshan Veterinary Hospital , Xuzhou",,34.307086,117.197766,219,147,20,58,39,0,12,0,1015,31,2,20150104180000
586,"New Town , Xuzhou",,34.213992,117.261718,217,176,29,44,25,0,12,0,1015,31,2,20150104180000
587,"Taoyuan road, Xuzhou",,34.289822,117.249721,198,149,28,22,33,0,12,0,1015,31,2,20150104180000
588,"Agricultural Science Academy , Xuzhou",,34.27655,117.299079,227,163,32,55,29,0,12,0,1015,31,2,20150104180000
589,"Tongshan EPA, Xuzhou",,34.179384,117.171798,222,145,32,14,30,0,9,-2,1015,32,3,20150104180000
590,Xuzhou,,34.20346,117.289825,-,-,-,-,-,-,-,-,0,-,-,20150104180000
591,Yangzhou,扬州,32.39233,119.418446,159,69,10,19,10,5,11,9,0,90,6,20150104180000
592,"Hanjiang Monitoring Station, Yangzhou",,32.374218,119.394484,193,178,23,28,29,0,9,0,0,49,4,20150104180000
593,"No. 4 Hospital, Yangzhou",,32.401394,119.44444,241,238,35,46,55,0,8,0,0,51,5,20150104180000
594,"City Monitoring Station, Yangzhou",,32.406588,119.41591,208,184,27,57,56,0,8,0,0,51,5,20150104180000
595,"University Town , Wuxi",,31.484752,120.273571,202,144,22,60,30,0,10,4,1016,66,2,20150104180000
596,"Shibei High School , Wuxi",,31.619969,120.279584,186,139,32,72,41,0,14,-4,1017,29,2,20150104180000
597,"Yuhong Elementary School , Wuxi",,31.561155,120.249588,189,130,29,61,45,0,11,1,1017,50,3,20150104180000
598,Wuxi,,31.488746,120.31575,215,157,42,71,52,0,10,2,1016,58,3,20150104180000
599,Changzhou,常州,31.808037,119.979205,172,86,6,22,36,13,11,9,0,88,5,20150104180000
600,"Chengjian School, Changzhou",,31.776476,119.937681,222,147,29,71,58,0,10,0,0,49,4,20150104180000
601,"Changzhou Engineering Institute , Changzhou",,31.806828,119.966724,206,133,28,42,41,0,6,-5,0,44,1,20150104180000
602,"Wujin Monitoring Station, Changzhou",,31.701788,119.939676,-,-,-,-,-,-,-,-,0,-,-,20150104180000
603,"City Monitoring Station, Changzhou",,31.777201,119.979426,222,130,27,51,42,0,6,-5,0,44,1,20150104180000
604,Zhenjiang,镇江,32.18597,119.431281,170,79,4,39,15,13,9,8,0,93,5,20150104180000
605,"New District Administrative office , Zhenjiang",,32.186174,119.685021,-,-,-,-,-,-,-,-,0,-,-,20150104180000
606,"Vocational Education Center , Zhenjiang",,32.212973,119.496253,-,-,-,-,-,-,-,-,0,-,-,20150104180000
607,"Dantu Monitoring Station , Zhenjiang",,32.130026,119.435432,198,164,32,83,55,0,8,0,1015,57,2,20150104180000
608,"City Monitoring Station, Zhenjiang",,32.202178,119.439766,227,153,37,78,53,0,5,1,1015,76,1,20150104180000
609,"Gaogang Adminstrative office , Taizhoushi",,32.300768,119.886757,216,145,28,14,35,0,13,-1,0,35,3,20150104180000
610,"Students Innovation Park , Taizhoushi",,32.461672,119.892761,192,84,19,29,51,0,5,-6,0,40,2,20150104180000
611,Taizhoushi,,32.453555,119.927852,-,-,-,-,-,-,-,-,0,-,-,20150104180000
612,"Yancheng power station , Yancheng",,33.400859,120.123067,325,164,44,36,28,0,,,0,,,20150104180000
613,Yancheng,盐城,33.345939,120.168504,144,52,30,5,3,7,11,10,1016,95,4,20150104180000
614,"Wenfeng Middle School , Yancheng",,33.370531,120.134041,271,172,106,23,47,0,,,0,,,20150104180000
615,"BDA Management Committe, Yancheng",,33.393191,120.22978,198,106,37,24,17,0,,,0,,,20150104180000
616,"City Monitoring Station, Yancheng",,33.390623,120.164423,326,181,33,35,39,0,,,0,,,20150104180000
617,Suqian,宿迁市,33.960666,118.281004,160,87,24,7,5,7,11,10,0,91,6,20150104180000
618,"Suqian College , Suqian",,33.951472,118.298523,199,152,35,13,17,0,7,0,0,55,5,20150104180000
619,"Suqian Middle School , Suqian",,33.95784,118.249505,182,132,11,31,23,0,8,-1,0,50,4,20150104180000
620,"Suyu District Environmental Protection Agency , Suqian",,33.94932,118.326569,199,111,39,34,27,0,8,-1,0,50,4,20150104180000
621,"City Monitoring Station, Suqian",,33.956982,118.277022,210,144,12,33,61,0,4,-7,0,40,3,20150104180000
622,Taizhou,,28.653436,121.425185,142,78,38,15,4,6,6,4,0,85,2,20150104180000
623,Donghu Liyuan,,30.572324,114.377844,184,113,23,39,34,16,16,3,1011,42,3,20150104180000
624,Yuehu Lake,,30.554662,114.256937,187,127,8,69,28,17,16,3,1011,42,3,20150104180000
625,Hankou Huaqiao ,,30.61724,114.287652,192,152,10,71,44,18,16,3,1011,42,3,20150104180000
626,Wuchang Ziyang ,,30.530801,114.309438,176,118,4,49,32,20,18,3,1012,37,4,20150104180000
627,Qingshan Ganghua,,30.622435,114.375599,194,147,10,59,51,19,16,3,1011,42,3,20150104180000
628,Dunkou Xinou,,30.480091,114.162176,194,169,6,46,48,15,6,0,1015,66,4,20150104180000
629,Donghu Gaoxin,,30.48095,114.40724,177,100,20,24,15,16,19,3,1012,35,5,20150104180000
630,Wujianshan,,30.63114,114.135907,200,135,6,66,44,29,13,4,1011,54,4,20150104180000
631,Yuanshun Road,,30.297142,113.858587,193,133,34,51,35,10,14,3,1011,48,5,20150104180000
632,Wuhan,,30.590689,114.310838,185,141,5,61,56,18,13,4,1011,54,4,20150104180000
1190,"Silingsan Factory, Yichang",,30.713288,111.306585,2,1,13,0,0,15,11,3,1011,48,1,20150104180000
1190,"Silingsan Factory, Yichang",,30.713288,111.306585,2,1,13,0,0,15,11,3,1011,48,1,20150104180000
633,Yichang,,30.689528,111.292131,2,1,8,0,0,9,5,0,1014,63,1,20150104180000
1191,"City Library , Jingzhou",,30.31494,112.260844,1,1,32,0,0,19,13,7,1010,56,1,20150104180000
1191,"City Library , Jingzhou",,30.31494,112.260844,1,1,32,0,0,19,13,7,1010,56,1,20150104180000
1192,"City committee communist party school, Jingzhou",,30.349004,112.212531,1,1,34,0,0,4,6,2,1014,70,1,20150104180000
1192,"City committee communist party school, Jingzhou",,30.35054,112.20743,1,1,34,0,0,4,6,2,1014,70,1,20150104180000
1193,"kerong EPA, Jingzhou",,30.302965,112.29443,1,1,38,0,0,15,13,7,1010,56,1,20150104180000
1193,"kerong EPA, Jingzhou",,30.302965,112.29443,1,1,38,0,0,15,13,7,1010,56,1,20150104180000
634,Jingzhou,,30.332608,112.245451,1,1,5,0,0,2,6,2,1014,70,1,20150104180000
634,Jingzhou,,30.332608,112.245451,1,1,5,0,0,2,6,2,1014,70,1,20150104180000
635,Huangshi,,30.19723,115.043908,185,121,6,33,47,23,13,,1019,85,2,20150104180000
635,Huangshi,,30.19723,115.043908,185,121,6,33,47,23,13,,1019,85,2,20150104180000
1194,"Chenjiaying, Huangshi",,30.232823,115.067923,169,108,7,41,57,18,5,,1021,93,2,20150104180000
1195,"Chenjiawan , Huangshi",,30.200422,115.082138,170,104,4,32,36,29,5,,1021,93,2,20150104180000
1196,"Xinxialu, Huangshi",,30.17332,114.954357,185,104,42,31,39,15,10,,1016,89,3,20150104180000
1197,"Tie montian, Huangshi",,30.203885,114.906439,198,109,20,26,5,16,10,,1016,89,3,20150104180000
1198,"BDA, Huangshi",,30.207491,115.031739,177,110,16,39,46,22,10,,1016,89,3,20150104180000
636,Shiyan,,32.627208,110.803311,171,105,5,26,33,7,-3,,0,78,2,20150104180000
636,Shiyan,,32.627208,110.803311,171,105,5,26,33,7,-3,,0,78,2,20150104180000
1199,"Wudang Mountain , Shiyan",,32.392921,111.047655,151,54,18,3,9,6,-3,,0,81,1,20150104180000
1200,"Riverside Village , Shiyan",,32.647286,110.785335,179,87,15,36,37,6,3,,0,87,1,20150104180000
1201,"Liujiagou , Shiyan",,32.636732,110.731129,152,58,28,37,27,-,3,,0,87,1,20150104180000
637,Xiangyang,,32.007029,112.128496,254,132,8,32,19,10,-1,,1017,82,1,20150104180000
637,Xiangyang,,32.007029,112.128496,254,132,8,32,19,10,-1,,1017,82,1,20150104180000
638,Ezhou,,30.389244,114.899884,175,103,8,31,45,21,7,,1027,100,5,20150104180000
638,Ezhou,,30.389244,114.899884,175,103,8,31,45,21,7,,1027,100,5,20150104180000
1203,"City government, Ezhou",,30.391836,114.892822,171,88,25,22,44,15,12,,1023,86,5,20150104180000
1204,"Zhaojiaba, Ezhou",,30.368966,114.90365,180,106,35,26,40,18,12,,1023,86,5,20150104180000
1205,"Fankou BDA, Ezhou",,30.410759,114.818225,198,132,23,49,75,26,12,,1023,86,5,20150104180000
639,Jingmen,,31.033208,112.205093,198,156,7,26,25,16,-1,,1008,79,1,20150104180000
639,Jingmen,,31.033208,112.205093,198,156,7,26,25,16,-1,,1008,79,1,20150104180000
1372,"Zhuyuan primary school, Jingmen",,31.046123,112.207214,199,278,2,23,11,15,-1,,1008,79,1,20150104180000
1394,"duodao, Jingmen",,30.986962,112.202729,281,195,22,49,38,15,6,,1006,87,1,20150104180000
1373,"City government, Jingmen",,31.035297,112.198897,244,184,19,45,51,15,6,,1006,87,1,20150104180000
640,Xiaogan,,30.922089,113.922387,238,167,14,42,32,28,12,,1022,76,2,20150104180000
640,Xiaogan,,30.922089,113.922387,238,167,14,42,32,28,12,,1022,76,2,20150104180000
1206,"wenhua street, Shenyang , Xiaogan",,30.925856,113.92104,269,206,16,39,30,32,13,,1022,70,2,20150104180000
1207,"Dongcheng District , Huludao , Xiaogan",,30.917963,113.943904,247,184,17,51,29,26,13,,1022,70,2,20150104180000
641,Huanggang,,30.45124,114.877378,169,96,12,16,21,12,7,,1027,100,5,20150104180000
641,Huanggang,,30.45124,114.877378,169,96,12,16,21,12,7,,1027,100,5,20150104180000
1208,"Dazhou Island, Huanggang",,30.446205,114.900323,160,97,36,24,19,15,12,,1023,86,5,20150104180000
1209,"Workers Center , Huanggang",,30.469244,114.912504,182,108,41,23,28,12,12,,1023,86,5,20150104180000
642,Xianning,,29.838978,114.327898,167,97,7,18,8,19,1,,991,80,1,20150104180000
642,Xianning,,29.838978,114.327898,167,97,7,18,8,19,1,,991,80,1,20150104180000
1210,"Municipal Development and Reform Commission , Xianning",,29.818645,114.328461,167,96,19,61,12,12,7,,988,71,1,20150104180000
1211,"Xianan District Governement, Xianning",,29.51107,114.181864,163,87,4,24,7,29,4,,999,76,1,20150104180000
1212,"Yangtze River Industrial Park , Xianning",,29.883098,114.32909,173,129,37,52,12,11,7,,988,71,1,20150104180000
1213,"Qianshan Park, Xianning",,29.815351,114.328689,153,71,17,16,11,6,16,,990,43,1,20150104180000
643,Suizhou,,31.688342,113.388675,204,153,6,21,36,31,16,,1008,55,3,20150104180000
643,Suizhou,,31.688342,113.388675,204,153,6,21,36,31,16,,1008,55,3,20150104180000
1338,"City committee communist party school, Suizhou",,31.725316,113.3648,194,136,27,77,74,18,9,,1007,81,2,20150104180000
1339,"Forestry Bureau, Suizhou",,31.690065,113.383157,209,106,37,26,28,44,9,,1007,81,2,20150104180000
644,Enshi,,30.292138,109.484562,224,162,3,23,29,18,3,,,91,1,20150104180000
644,Enshi,,30.269587,109.493042,224,162,3,23,29,18,3,,,91,1,20150104180000
1374,"State Power Company, Enshi",,30.296275,109.508711,214,178,3,39,43,12,7,,,92,1,20150104180000
645,Xiantao,,30.360228,113.460616,155,116,6,22,24,9,3,,1027,78,3,20150104180000
645,Xiantao,,30.360228,113.460616,155,116,6,22,24,9,3,,1027,78,3,20150104180000
646,Qianjiang,,30.399387,112.905661,195,131,4,35,7,19,19,,1024,71,3,20150104180000
646,Qianjiang,,30.399387,112.905661,195,131,4,35,7,19,19,,1024,71,3,20150104180000
1388,"Qianjiang City Station, Qianjiang",,30.384684,112.945841,192,120,9,34,5,19,13,,1021,70,3,20150104180000
647,Tianmen,,30.661027,113.172549,163,81,17,20,15,8,18,,1022,59,4,20150104180000
647,Tianmen,,30.661027,113.172549,163,81,17,20,15,8,18,,1022,59,4,20150104180000
1088,Shennongjia,,31.741307,110.685554,132,53,10,17,9,4,-2,,,90,2,20150104180000
1088,Shennongjia,,31.741307,110.685554,132,53,10,17,9,4,-2,,,90,2,20150104180000
1214,"Xiangcheng Yundong Street, Xiangfan",,32.017716,112.16102,320,175,8,48,33,12,5,,1013,83,1,20150104180000
1359,"Fancheng Xinhua Road , Xiangfan",,32.0544,112.145224,301,185,7,49,28,19,5,,1013,83,1,20150104180000
655,"City Environmental Monitoring Station, Baotou",,40.657201,109.886738,206,191,10,38,69,37,,,0,,,20150104180000
656,"Donghe EPB, Baotou",,40.586213,110.002224,244,362,14,46,77,44,,,0,,,20150104180000
657,"Baotou shopping mall, Baotou",,40.508334,109.819085,206,150,7,36,81,35,,,0,,,20150104180000
658,"Huilong logistics, Baotou",,40.633436,109.879821,174,126,7,31,54,35,,,0,,,20150104180000
659,Baotou,,40.658597,109.846051,241,290,29,61,76,44,,,0,,,20150104180000
660,"Huatai Automobile Mall, Eerduosi",,39.837048,109.972209,163,109,26,22,20,11,1,-16,1016,15,2,20150104180000
661,"Olympus Garden, Eerduosi",,39.789171,109.987742,158,107,16,43,44,9,-2,-18,1021,15,1,20150104180000
662,Eerduosi,,39.609284,109.78704,170,136,24,44,51,26,4,-17,1013,10,1,20150104180000
663,"Tianyi Road, Chifeng",,42.275552,118.88507,215,188,18,32,91,33,1,-16,1017,14,1,20150104180000
664,"Songshan No.1 Middle School, Chifeng",,42.329307,118.793045,307,272,9,58,125,40,1,-16,1017,14,1,20150104180000
665,"Hada Street, Chifeng",,42.280714,118.988235,206,170,11,27,111,40,1,-16,1017,14,1,20150104180000
674,Fuzhou,,26.071406,119.301294,124,70,32,47,8,8,12,10,1017,88,2,20150104180000
675,"Xidong, Xiamen",,24.815345,118.161848,85,41,26,1,5,5,14,9,1020,72,2,20150104180000
676,"Hongwen, Xiamen",,24.473969,118.156281,117,40,37,14,2,6,15,11,1017,77,2,20150104180000
677,"Gulangyu, Xiamen",,24.443168,118.068571,151,65,38,53,5,6,12,11,1016,94,1,20150104180000
678,"Huli, Xiamen",,24.51235,118.099146,107,50,29,34,5,7,17,9,1016,59,4,20150104180000
679,Xiamen,,24.477187,118.094402,161,72,29,43,12,7,9,9,1019,100,1,20150104180000
680,"Qingyuan Montain, Quanzhou",,24.939503,118.598337,70,50,37,4,2,6,15,11,1017,77,2,20150104180000
681,"Tushan Street, Quanzhou",,24.90867,118.586397,139,60,42,17,8,8,9,9,1019,100,1,20150104180000
682,"Wanan, Quanzhou",,24.304154,118.070903,99,40,34,17,3,6,11,10,1020,94,2,20150104180000
683,Quanzhou,,24.87179,118.68001,139,64,45,27,8,11,11,10,1020,94,2,20150104180000
687,"Jiancaoping, Taiyuan",,37.887889,112.528383,171,98,9,28,60,23,4,-14,1011,26,1,20150104180000
688,"Jianhe, Taiyuan",,37.910779,112.579258,166,93,7,25,53,32,5,-14,1011,24,1,20150104180000
689,"Shanglan, Taiyuan",,38.011589,112.440679,178,83,7,49,70,23,5,-14,1011,24,1,20150104180000
690,"Jinyuan, Taiyuan",,37.713164,112.475552,278,168,9,22,97,41,-8,-16,1015,53,0,20150104180000
691,"Xiaodian, Taiyuan",,37.782137,112.483533,172,93,11,25,79,35,4,-14,1011,26,1,20150104180000
692,"Taoyuan, Taiyuan",,37.869752,112.543332,158,83,4,30,55,30,2,-14,1012,30,1,20150104180000
693,"Wucheng, Taiyuan",,37.819998,112.576252,193,121,3,17,110,42,-8,-16,1015,53,0,20150104180000
694,"Nanzhai, Taiyuan",,37.985902,112.555312,171,92,9,26,59,21,5,-14,1011,24,1,20150104180000
695,"Jinsheng, Taiyuan",,37.781205,112.494494,163,87,8,23,73,23,4,-16,1012,22,1,20150104180000
696,Taiyuan,,37.871115,112.555178,169,98,4,39,65,29,5,-14,1011,24,1,20150104180000
697,"Monitoring station, Changzhi",,36.194062,113.10389,170,88,12,25,64,31,,,0,,,20150104180000
698,"Auditing bureau, Changzhi",,36.212787,113.095221,179,85,24,69,33,47,,,0,,,20150104180000
699,"Qinghua station, Changzhi",,36.154328,113.116385,170,85,14,33,20,41,,,0,,,20150104180000
700,"No.8 middle school, Changzhi",,36.185451,113.099481,191,101,22,43,63,33,,,0,,,20150104180000
701,Changzhi,,36.195553,113.12292,224,150,24,66,48,76,,,0,,,20150104180000
702,"Yungang Hotel, Datong",,40.076997,113.278079,178,118,35,19,41,26,-2,-17,1020,18,0,20150104180000
703,"college of education, Datong",,40.085608,113.27808,162,75,13,18,55,38,-6,-19,1020,21,5,20150104180000
704,Datong,,40.078016,113.307143,316,406,21,33,75,32,-2,-17,1020,18,0,20150104180000
705,"Technical Schools, Linfen",,36.07131,111.509046,208,131,28,23,67,44,0,-24,0,15,3,20150104180000
706,"Municipal party committee, Linfen",,36.087425,111.508771,187,88,13,25,35,57,0,-24,0,15,3,20150104180000
1073,"City Monitoring Station, Linfen",,36.097676,111.518739,195,94,4,25,49,55,0,-24,0,15,3,20150104180000
707,"South Airport, Linfen",,36.041614,111.497968,162,79,10,53,64,37,0,-21,0,18,3,20150104180000
708,Linfen,,36.087944,111.525098,195,112,28,30,60,61,-1,-20,0,22,4,20150104180000
709,"City center, Yangquan",,37.848012,113.578636,200,136,22,42,72,24,4,-14,1011,26,1,20150104180000
710,Yangquan,,37.857475,113.586921,247,166,18,49,88,47,9,-18,1010,13,4,20150104180000
711,"Water Company, Jincheng",,35.504787,112.857245,213,142,10,14,69,57,-2,-12,1018,32,1,20150104180000
712,"Baiyun shopping mall, Jincheng",,35.492858,112.841566,192,110,20,22,34,22,7,-4,1016,33,3,20150104180000
713,"City EPA, Jincheng",,35.488422,112.858528,189,104,4,11,43,11,7,-4,1016,33,3,20150104180000
714,"Institute of Technology, Jincheng",,35.484844,112.878073,197,118,28,13,44,17,7,-4,1016,33,3,20150104180000
715,"No.1 middle school, Jincheng",,35.478725,112.838636,275,191,7,15,108,25,-2,-12,1018,32,1,20150104180000
716,Jincheng,,35.490287,112.85794,209,130,32,24,42,21,7,-4,1016,33,3,20150104180000
718,"District Government, Shuozhou",,39.320857,112.430641,344,76,17,44,134,15,1,-16,1019,15,1,20150104180000
719,"City EPA, Shuozhou",,39.331495,112.407997,181,195,9,27,98,50,1,-16,1019,15,1,20150104180000
720,"No.2 middle school, Shuozhou",,39.377963,112.432877,107,80,27,31,92,15,-7,-18,1021,27,1,20150104180000
721,Shuozhou,,39.332756,112.439672,160,94,14,30,97,28,-9,-19,1020,28,1,20150104180000
722,"Jinlun compound, Jinzhong",,37.697891,112.771017,159,94,10,15,37,18,2,-16,1012,26,1,20150104180000
723,"Hydraulic Component Factory, Jinzhong",,37.688355,112.725844,189,138,5,29,75,30,2,-16,1012,26,1,20150104180000
724,"Nandu compound, Jinzhong",,37.713148,112.732036,173,114,9,26,61,25,2,-16,1012,26,1,20150104180000
725,"Yuci district government, Jinzhong",,37.698228,112.714167,185,126,4,23,49,24,2,-16,1012,26,1,20150104180000
726,Jinzhong,,37.687705,112.759187,164,94,9,25,68,30,3,-15,1012,26,1,20150104180000
727,"Yuncheng Middle School, Yuncheng",,35.012345,111.003215,232,154,21,31,62,57,6,-8,1014,25,1,20150104180000
728,"Yudou BDA, Yuncheng",,35.05065,111.029571,273,238,22,20,57,48,-4,-10,1018,51,1,20150104180000
729,"Yuncheng college, Yuncheng",,35.038753,111.051992,229,156,15,21,24,35,6,-8,1014,25,1,20150104180000
730,"Regional Technical School, Yuncheng",,35.028727,110.974076,307,175,25,14,56,51,4,-6,1016,34,1,20150104180000
731,"Airport new district, Yuncheng",,35.084515,111.05339,290,232,33,38,55,59,6,-8,1014,25,1,20150104180000
732,Yuncheng,,35.025675,111.013344,396,302,28,23,57,72,-4,-10,1018,51,1,20150104180000
733,"Jiyin, Xinzhou",,38.413292,112.742432,399,442,10,53,116,44,2,-16,1012,26,1,20150104180000
734,"BDA, Xinzhou",,38.450069,112.736723,414,364,9,44,115,44,2,-16,1012,26,1,20150104180000
735,"Convention Center, Xinzhou",,38.492043,112.709772,355,275,17,42,88,36,4,-14,1011,26,1,20150104180000
736,Xinzhou,,38.417244,112.740742,402,467,11,53,115,42,3,-16,1012,24,1,20150104180000
737,"City EPA, Luliang",,37.522189,111.144365,183,97,6,15,48,45,4,-14,1016,13,1,20150104180000
738,"Soybean factory, Luliang",,37.51689,111.135101,522,88,12,21,163,40,4,-12,1017,18,1,20150104180000
739,"Water Company, Luliang",,37.53394,111.138834,169,92,,24,71,,2,-15,1018,15,3,20150104180000
740,Luliang,,37.519091,111.150681,167,93,11,16,101,38,-8,-16,1020,39,2,20150104180000
741,"City government, Sanmenxia",,34.776251,111.198781,253,168,10,65,73,40,3,-6,1017,39,1,20150104180000
743,"BDA, Sanmenxia",,34.800434,111.204332,257,188,14,58,71,31,3,-6,1017,39,1,20150104180000
744,Sanmenxia,,34.771506,111.206129,266,157,14,65,81,42,6,-8,1014,25,1,20150104180000
745,"Food Factory, Changchun",,43.919094,125.329521,187,112,15,33,58,20,-12,-16,1015,73,4,20150104180000
746,"Bus Factory, Changchun",,43.912337,125.293431,159,61,26,28,64,10,-5,-13,1009,54,7,20150104180000
747,"Institute of Posts and Telecommunications, Changchun",,43.842368,125.285005,189,120,17,38,50,10,-8,-14,1017,63,2,20150104180000
748,"Laodong Park, Changchun",,43.877293,125.371519,211,119,14,38,48,17,-12,-16,1015,73,4,20150104180000
749,"Forest area, Changchun",,43.871825,125.331519,188,108,13,29,44,16,-12,-16,1015,73,4,20150104180000
750,"Jinyuetan, Changchun",,43.79031,125.460561,179,91,36,15,20,13,-12,-16,1015,73,4,20150104180000
751,"Shuaiwanzi, Changchun",,43.552321,125.639086,216,98,30,12,28,6,-11,-16,1018,67,1,20150104180000
752,"Economic Development Zone Sanitation Department, Changchun",,43.869221,125.42365,230,170,25,32,24,16,-12,-16,1015,73,4,20150104180000
753,"High-tech Zone Administrative Committee, Changchun",,43.819064,125.256375,221,109,39,25,24,15,-14,-17,1016,79,2,20150104180000
754,"Daishan Park, Changchun",,43.852365,125.223399,197,100,42,37,20,15,-12,-16,1015,73,4,20150104180000
755,Changchun,,43.819415,125.329977,189,120,17,38,50,10,-8,-14,1017,63,2,20150104180000
756,"Hadawan, Jilin",,43.888081,126.545727,282,166,14,42,12,32,-11,-12,0,94,3,20150104180000
757,"Fengman, Jilin",,43.768169,126.678802,191,115,30,27,28,18,-10,-11,0,92,3,20150104180000
758,"Electric Power College, Jilin",,43.827403,126.502281,260,155,25,35,24,22,-10,-11,0,92,3,20150104180000
759,"Jiangnan Park, Jilin",,43.83531,126.556519,292,180,21,38,39,19,-10,-11,0,92,3,20150104180000
760,"Dongjuzi, Jilin",,43.838597,126.590068,224,139,25,37,27,19,-10,-11,0,92,3,20150104180000
763,Jilin,,43.840137,126.555262,295,203,29,38,22,16,-10,-11,0,92,3,20150104180000
764,"Lingbei, Haerbin",,45.756979,126.548008,152,68,17,19,53,2,-14,-15,1010,92,2,20150104180000
765,"Songbei Commercial University, Haerbin",,45.818624,126.566963,165,71,18,22,41,10,-15,-16,1011,92,4,20150104180000
766,"Acheng huining, Haerbin",,45.544286,126.985183,132,64,17,10,-,4,-14,-16,1011,85,3,20150104180000
767,"Nangang College Street, Haerbin",,45.724121,126.604906,204,112,25,26,51,8,-15,-17,1012,85,3,20150104180000
768,"Taiping Hongwei Park, Haerbin",,45.775332,126.695101,246,144,14,38,94,14,-15,-16,1013,92,2,20150104180000
769,"Daowai Chengde Square, Haerbin",,45.768637,126.640955,171,113,9,43,71,8,-15,-16,1011,92,4,20150104180000
770,"Xiangfang Hongqi Street, Haerbin",,45.733936,126.691083,164,82,14,25,55,8,-15,-16,1011,92,4,20150104180000
771,"Dongli Heping Road, Haerbin",,45.727765,126.651974,165,103,13,37,61,6,-15,-16,1011,92,4,20150104180000
772,"Daoli Jianguo Road, Haerbin",,45.749715,126.59891,247,126,16,61,80,19,-12,-15,1018,79,3,20150104180000
773,"Pingfang Light Factory, Haerbin",,45.611951,126.620898,268,144,2,37,35,19,-12,-15,1018,79,3,20150104180000
774,"Hulan Normal College, Haerbin",,45.983745,126.616553,177,71,21,42,20,7,-15,-16,1011,92,4,20150104180000
775,"Provincial Academy of Agricultural Sciences, Haerbin",,45.686141,126.626517,163,80,11,28,58,5,-14,-16,1011,85,3,20150104180000
776,Haerbin,,45.805757,126.541007,155,68,19,21,44,10,-14,-16,1011,85,3,20150104180000
777,"Anju Compound, Qiqihaer",,47.365672,123.937016,188,117,24,28,65,11,-12,-17,1018,50,2,20150104180000
778,"Farming Vehicule Factory, Qiqihaer",,47.326793,123.961427,171,71,12,23,39,14,-12,-17,1018,50,2,20150104180000
779,"Fuqu EPA, Qiqihaer",,47.1853,123.62322,226,159,19,17,1,25,-12,-17,1018,50,2,20150104180000
780,"City Center Square, Qiqihaer",,47.343096,123.96192,180,85,14,29,59,17,-12,-17,1018,50,2,20150104180000
1217,"City Environmental Monitoring Station, Qiqihaer",,47.303639,123.957551,190,103,14,17,42,14,-12,-17,1018,50,2,20150104180000
781,Qiqihaer,,47.356387,123.924736,187,109,14,41,61,17,-12,-17,1018,50,2,20150104180000
782,"Saertu District, Daqing",,46.582368,125.152904,217,124,20,4,28,14,-16,-18,1020,77,2,20150104180000
783,"Datong District, Daqing",,46.036786,124.842115,276,147,17,13,37,16,-16,-18,1020,77,2,20150104180000
784,"Honggang District, Daqing",,46.418381,124.88973,187,86,21,34,26,13,-12,-15,1018,67,3,20150104180000
785,"Longfeng District, Daqing",,46.535426,125.107043,230,121,15,36,29,12,-16,-18,1020,77,2,20150104180000
786,"Ranghulu District, Daqing",,46.635123,124.85648,193,112,24,38,29,14,-16,-18,1020,77,2,20150104180000
787,Daqing,,46.591414,125.110838,203,101,20,27,26,20,-17,-20,1013,69,2,20150104180000
788,"Locomotive Factory, Mudanjiang",,44.610589,129.652672,162,70,18,27,34,17,-13,-18,1015,56,0,20150104180000
789,"No. 1 hospital, Mudanjiang",,44.567775,129.617043,184,103,12,22,29,37,-11,-13,1019,83,1,20150104180000
1220,"EPA building, Mudanjiang",,44.567777,129.620658,243,184,10,19,28,20,-9,-12,1020,76,1,20150104180000
1221,"Cultural Square, Mudanjiang",,44.586388,129.623164,226,141,5,30,44,26,-9,-12,1020,76,1,20150104180000
790,Mudanjiang,,44.553619,129.640246,161,94,36,22,39,21,-14,-18,1015,63,1,20150104180000
791,"Mingzhu Plaza, Hefei",,31.782847,117.201512,173,91,14,39,24,11,6,-2,1016,57,2,20150104180000
792,"Sanli Street, Hefei",,31.874637,117.312573,157,65,33,51,18,14,10,1,1013,54,5,20150104180000
793,"Hupo Compound, Hefei",,31.868583,117.264491,185,110,38,33,7,18,9,0,1013,54,5,20150104180000
794,"Dongpu Reservoir, Hefei",,31.90319,117.165584,189,135,42,35,19,9,10,1,1013,54,5,20150104180000
795,"Changjiang middle road, Hefei",,31.855185,117.255484,182,111,4,18,12,12,4,-3,1016,61,2,20150104180000
796,"Luyang District, Hefei",,31.941771,117.271504,162,70,26,1,18,12,9,0,1013,54,5,20150104180000
797,"Yaohai District, Hefei",,31.856595,117.341644,177,140,18,22,9,15,4,-3,1016,61,2,20150104190000
798,"Baohe District, Hefei",,31.793644,117.307554,114,64,6,17,9,7,2,-2,1016,75,2,20150104190000
799,"Lake district, Hefei",,31.736619,117.283501,137,106,6,11,17,9,12,1,1013,47,5,20150104190000
800,"High-tech zone, Hefei",,31.849755,117.129624,91,81,31,9,22,7,16,0,1014,34,4,20150104190000
801,Hefei,,31.819449,117.232753,189,133,4,19,16,15,2,-2,1016,75,2,20150104190000
802,"Hudong Road No.4 Elementary School, Maanshan",,31.684121,118.511017,164,80,20,42,20,15,5,1,1015,76,1,20150104190000
803,"Tianping Garment Factory, Maanshan",,31.64197,118.488043,177,86,33,42,22,33,13,-1,1015,38,4,20150104190000
804,"City education base, Maanshan",,31.711216,118.648913,164,78,10,4,7,10,5,1,1015,76,1,20150104190000
805,"Cihu No.2 elementary school, Maanshan",,31.748546,118.515729,189,155,23,44,58,24,8,0,1015,57,2,20150104190000
806,"Maanshan steel factory power plant, Maanshan",,31.690864,118.48528,160,100,17,31,33,17,0,-2,1017,87,1,20150104190000
807,Maanshan,,31.668461,118.511939,169,80,20,44,18,14,4,-1,1015,70,1,20150104190000
808,"Science Innovation Center, Wuhu",,31.417056,118.375406,169,73,13,26,6,16,5,0,1014,70,2,20150104190000
809,"No.4 Water Plant, Wuhu",,31.315914,118.376231,167,95,35,17,18,19,5,1,1015,76,1,20150104190000
810,"Monitoring station, Wuhu",,31.348955,118.358154,171,97,20,15,7,11,5,0,1014,70,2,20150104190000
811,"Wuqierling Factory, Wuhu",,31.382068,118.407639,153,57,18,14,10,6,18,-1,1015,28,3,20150104190000
812,Wuhu,,31.351007,118.438322,171,86,36,29,13,20,0,-1,1017,93,1,20150104190000
1395,"Laonian University, Chuzhou",,32.313279,118.314788,258,166,14,12,5,15,17,,1015,27,3,20150104190000
1396,"Monitoring station, Chuzhou",,32.30409,118.321199,193,152,31,15,12,10,17,,1015,27,3,20150104190000
1331,Chuzhou,,32.299549,118.322508,244,171,31,22,14,17,17,,1015,27,3,20150104190000
813,"Jiangxi Foreign Affairs Office, Nanchang",,28.678027,115.903436,197,129,23,68,20,20,10,-1,1019,34,0,20150104190000
814,"Provincial forestry company, Nanchang",,28.69065,115.898546,164,77,18,19,19,14,18,4,1013,26,1,20150104190000
815,"Institute of Forestry, Nanchang",,28.731518,115.82478,152,67,28,26,19,11,14,4,1013,38,1,20150104190000
816,"Jingdong town government, Nanchang",,28.680659,115.972736,193,114,33,43,16,11,12,4,1013,51,0,20150104190000
817,"Contruction Industry College, Nanchang",,28.684018,115.865891,171,110,27,53,20,17,14,4,1013,38,1,20150104190000
818,"Xianghu, Nanchang",,28.637831,115.9033,278,230,38,48,14,48,12,4,1013,51,0,20150104190000
819,"Martial Arts School, Nanchang",,28.794538,115.752876,152,53,34,12,10,5,14,4,1013,38,1,20150104190000
820,"Petrifaction Company, Nanchang",,28.608634,115.912999,251,154,31,48,33,13,14,4,1013,38,1,20150104190000
821,"Provincial Station, Nanchang",,28.677155,115.941896,199,157,36,51,17,24,12,4,1013,51,0,20150104190000
822,Nanchang,,28.679883,115.863022,180,107,32,64,51,22,18,4,1013,26,1,20150104190000
823,"Lushan Mountain Observatory, Jiujiang",,29.5751,115.998926,127,65,72,3,11,4,9,0,1015,38,6,20150104190000
824,"Shili, Jiujiang",,29.668119,115.992381,185,126,35,43,45,31,9,0,1015,38,6,20150104190000
