locationid,stationname,chinesename,latitude,longitude,pm25,pm10,o3,no2,so2,co,temperature,dewpoint,pressure,humidity,wind,est_time
1,Dongcheng Dongsi,,39.9304,116.423239,52,10,33,12,6,5,4,-22,1027,14,7,20150106170000
2,"Temple of Heaven, Dongcheng",,39.887403,116.41324,70,15,31,17,9,5,4,-22,1027,14,7,20150106170000
3,West Park officials,,39.930333,116.345162,57,5,25,21,14,5,0,-22,1029,18,3,20150106170000
4,West Wanshou Nishinomiya,,39.879354,116.358183,50,18,27,11,6,5,4,-21,1028,15,6,20150106170000
5,Chaoyang Olympic Sports Center,,39.983406,116.403253,135,73,23,31,9,7,2,-21,1025,17,3,20150106170000
6,Chaoyang Agricultural Exhibition Hall,,39.938331,116.46715,41,13,35,11,6,5,4,-22,1027,14,7,20150106170000
7,Haidian Wanliu,,39.988245,116.293062,75,16,17,20,9,6,4,-22,1027,14,7,20150106170000
8,The Haidian northern New Area,,40.091313,116.180194,47,24,12,7,6,5,5,-21,1025,14,5,20150106170000
9,Haidian Beijing Botanical Garden,,40.003252,116.213097,26,7,34,1,2,1,-3,-22,1030,22,5,20150106170000
10,Fengtai garden,,39.86423,116.285037,54,24,6,28,12,5,-3,-21,1030,24,2,20150106170000
11,Fengtai Yungang,,39.82535,116.152237,27,31,29,12,3,3,-1,-24,1029,16,8,20150106170000
12,Shijingshan city,,39.915286,116.190144,21,11,29,12,4,2,-5,-22,1029,26,2,20150106170000
13,"Fangshan, Liangxiang",,39.743357,116.14225,186,110,13,36,38,11,-2,-18,1026,29,2,20150106170000
14,"Huangcunzhen, Daxing",,39.719389,116.410219,144,68,18,32,16,7,2,-21,1025,17,3,20150106170000
15,BDA,,39.796197,116.51197,87,34,23,11,13,6,5,-21,1025,14,5,20150106170000
16,Tongzhou New Town,,39.887113,116.6689,38,10,23,10,4,5,-1,-24,1029,16,7,20150106170000
17,Shunyi New Town ,,40.128111,116.660908,197,99,27,37,28,18,-5,-16,1026,43,1,20150106170000
18,Changping Town,,40.218245,116.236084,57,20,31,15,9,3,-5,-24,1029,22,6,20150106170000
19,"Mentougou, Longquan Town",,39.938397,116.112323,103,57,23,12,10,4,5,-21,1025,14,5,20150106170000
20,Pinggu town,,40.144433,117.106563,81,40,25,19,9,4,2,-21,1025,17,3,20150106170000
21,Huairou town,,40.329104,116.63387,70,31,30,11,7,6,4,-21,1028,15,6,20150106170000
22,The town of Miyun,,40.371186,116.838053,13,9,25,7,14,4,5,-21,1025,14,5,20150106170000
23,Yanqing town,,40.454217,115.978106,90,20,25,22,5,5,-4,-23,1030,22,4,20150106170000
24,Changping Dingling,,40.293269,116.226108,34,13,31,2,8,5,4,-21,1028,15,6,20150106170000
25,Badaling Northwest,,40.36623,115.994146,70,29,20,8,10,4,-2,-18,1026,29,2,20150106170000
26,Miyun Reservoir,,40.500157,116.91701,42,10,28,1,2,2,5,-21,1025,14,5,20150106170000
27,"Donggaocun Zhen, Pinggu",,40.10142,117.126556,30,11,24,4,4,4,5,-21,1025,14,5,20150106170000
28,"Yongledianzhen, Tongzhou",,39.713192,116.78905,51,19,10,22,8,5,-4,-24,1030,20,7,20150106170000
29,"Yufazhen, Daxing",,39.521203,116.306026,47,29,22,6,7,4,-3,-24,1030,19,7,20150106170000
30,"Liulihezhen, Fangshan",,39.581169,116.006089,162,70,26,17,19,7,2,-21,1025,17,3,20150106170000
31,"Qianmen E St, Dongcheng",,39.900402,116.401242,134,55,17,21,12,6,5,-21,1025,14,5,20150106170000
32,Yongdingmen Inner St,,39.877401,116.400238,78,26,10,19,11,6,4,-22,1027,14,7,20150106170000
33,Xizhimen N St,,39.955352,116.355187,33,10,24,13,11,4,-3,-24,1030,19,7,20150106170000
34,South Ring Road,,39.857377,116.37421,156,79,5,42,22,11,2,-21,1025,17,3,20150106170000
35,East Fourth Ring Road,,39.940273,116.489075,28,12,21,11,11,3,-3,-24,1030,19,7,20150106170000
36,Beijing,,39.955906,116.474246,59,15,30,11,11,3,-4,-24,1030,20,7,20150106170000
37,Putuo,,31.232979,121.415378,230,155,29,57,35,14,12,5,1016,62,6,20150106170000
38,Yangpu Sipiao,,31.263795,121.540311,229,121,35,16,9,17,9,7,1018,87,8,20150106170000
39,Shanghai Normal College Primary Division,,31.199031,121.487719,224,119,25,20,10,20,9,5,1020,76,8,20150106170000
40,Dianshan Lake,,31.091338,120.982293,78,41,24,12,7,4,3,1,1025,87,4,20150106170000
41,Hongkou Liangcheng,,31.298906,121.47155,117,42,31,45,9,14,7,2,1023,71,8,20150106170000
42,Jingan,,31.224251,121.429637,268,142,38,17,29,17,9,7,1018,87,8,20150106170000
43,Shanghai Normal University,,31.163531,121.416643,70,57,25,23,5,5,3,1,1025,87,4,20150106170000
44,Chuansha,,31.188626,121.707342,80,50,38,6,6,10,7,0,1023,61,8,20150106170000
45,Zhangjiang,,31.204896,121.581215,25,40,28,8,6,4,3,0,1026,81,7,20150106170000
46,Lingshan Road,,31.226286,121.537317,70,67,34,10,10,9,6,0,1022,66,8,20150106170000
1080,City average,,31.228451,121.478227,193,111,5,47,26,13,13,5,1015,58,7,20150106170000
47,Shanghai,,31.202842,121.453493,189,130,9,73,21,11,15,8,1014,63,4,20150106170000
48,Guangzhou,,23.138517,113.263701,158,74,24,39,10,10,21,18,1014,83,1,20150106170000
49,"Huadu town, Guangzhou",,23.389121,113.220062,210,124,14,25,12,32,19,18,1014,94,0,20150106170000
50,"Luogang Zhenlong, Guangzhou",,23.308027,113.567032,161,104,39,38,8,12,19,18,1014,94,1,20150106170000
51,"LuHu, Guangzhou",,23.151743,113.281842,157,74,16,35,8,17,17,13,1016,77,7,20150106170000
52,"Tianhu, Guangzhou",,23.647433,113.629715,175,77,38,26,8,10,20,17,1015,83,6,20150106170000
53,"Zhudong, Guangzhou",,23.418406,113.078552,193,91,14,20,12,31,19,19,1014,100,1,20150106170000
54,"Modiesha station, Guangzhou",,23.103814,113.338238,178,111,19,92,8,10,22,18,1014,78,5,20150106170000
55,Zhuhai,,22.2677,113.581765,122,53,27,10,4,9,18,17,1014,94,3,20150106170000
1075,"Huicai technical school, Foshan",,23.039667,113.105492,157,71,17,31,7,11,19,18,1014,94,1,20150106170000
56,"Sanshuiyun donghai, Foshan",,23.185788,112.865368,197,105,16,6,10,18,19,18,1014,94,1,20150106170000
57,"Nanhai Bureau of Meteorology, Foshan",,23.046836,113.145764,151,58,20,7,3,16,19,18,1014,94,1,20150106170000
58,"Sanshui Monitoring Station, Foshan",,23.163551,112.890843,288,132,10,22,11,24,19,18,1014,94,1,20150106170000
1087,Foshan,,23.018995,113.126899,153,58,17,6,4,15,19,18,1014,94,0,20150106170000
59,"Ronggui street committee, Shunde",,22.762729,113.258356,152,53,10,31,9,12,19,18,1015,94,1,20150106170000
60,Shunde,,22.80246,113.298701,82,60,49,29,13,8,23,18,1012,73,0,20150106170000
61,"Donghu, Jiangmen",,22.590411,113.087351,156,64,19,24,6,7,18,16,1014,88,5,20150106170000
62,"Taoyuan Atmosphere Premier Station, Jiangmen",,22.72489,112.93404,99,54,10,13,9,11,18,16,1014,88,0,20150106170000
63,Jiangmen,,22.576047,113.087351,153,77,16,23,5,6,17,16,1015,94,2,20150106170000
64,"Kengkouzi station, Zhaoqing",,23.158865,112.570287,180,80,5,38,10,20,19,18,1014,94,0,20150106170000
65,"Mugangzi station, Zhaoqing",,23.067961,112.431934,184,118,10,42,12,29,19,18,1014,94,1,20150106170000
67,Zhaoqing,,23.044571,112.470346,229,136,18,46,41,9,20,19,1015,94,2,20150106170000
68,"Jinguo Bay, Huizhou",,22.937223,114.385567,93,43,27,14,4,7,19,17,1015,88,1,20150106170000
1091,"Xiabu, Huizhou",,23.077493,114.410275,89,53,33,13,4,19,20,16,1015,78,2,20150106170000
69,"Xijiao, Huizhou",,23.338178,114.112867,114,45,12,11,4,8,20,16,1015,78,2,20150106170000
70,"Jiangbei, Huizhou",,23.111706,114.415274,163,85,69,36,9,12,20,17,1014,83,1,20150106170000
71,"Huiyang chuanhu, Huizhou",,22.814485,114.329292,127,74,55,23,4,10,19,17,1014,88,1,20150106170000
72,"Daya bay management committee, Huizhou",,22.739283,114.53631,99,52,45,11,7,6,20,16,1014,78,2,20150106170000
73,Huizhou,,23.109349,114.421164,137,61,33,25,6,12,20,16,1015,78,1,20150106170000
74,"Guancheng No.2 water plant, Dongguan",,23.057294,113.753254,124,47,44,26,4,9,19,17,1015,88,1,20150106170000
75,"Dongcheng Shijing, Dongguan",,23.010039,113.799529,165,69,43,33,6,10,18,17,1015,94,2,20150106170000
76,"Nancheng Xiping, Dongguan",,22.963051,113.743494,134,69,42,42,10,8,20,16,1015,78,2,20150106170000
77,"Nancheng Yuanling, Dongguan",,23.025058,113.751308,151,66,47,33,11,13,20,16,1014,78,2,20150106170000
78,Dongguan,,23.017813,113.756958,153,66,47,33,12,13,20,16,1015,78,2,20150106170000
79,"Zimaling, Zhongshan",,22.505112,113.407183,91,43,20,5,7,9,18,16,1013,88,4,20150106170000
80,"Yangtze River tourist area, Zhongshan",,22.48589,113.439054,78,34,24,12,4,12,18,16,1014,88,0,20150106170000
81,"Huabai Park, Zhongshan",,22.51839,113.374362,82,36,11,22,7,15,18,16,1014,88,0,20150106170000
82,Zhongshan,,22.513997,113.398277,117,41,12,14,7,10,17,16,1015,94,2,20150106170000
83,"No.8 middle school, Shaoguan",,24.767777,113.583537,210,110,7,29,16,19,15,15,1016,98,2,20150106170000
83,"No.8 middle school, Shaoguan",,24.767777,113.583537,210,110,7,29,16,19,15,15,1016,98,2,20150106170000
84,"Forest area, Shaoguan",,24.796106,113.612131,183,97,10,14,47,16,15,15,1016,98,2,20150106170000
84,"Forest area, Shaoguan",,24.796107,113.612131,183,97,10,14,47,16,15,15,1016,98,2,20150106170000
86,"Shaoguan University, Shaoguan",,24.790864,113.646598,192,144,14,33,18,23,15,15,1016,98,2,20150106170000
86,"Shaoguan University, Shaoguan",,24.790864,113.646599,192,144,14,33,18,23,15,15,1016,98,2,20150106170000
88,"Qujiang Monitoring Station, Shaoguan",,24.683042,113.60157,109,51,12,23,26,14,15,10,1017,65,3,20150106170000
88,"Qujiang Monitoring Station, Shaoguan",,24.683042,113.60157,109,51,12,23,26,14,15,10,1017,65,3,20150106170000
89,Shaoguan,,24.807342,113.602712,178,96,9,13,31,16,15,15,1016,98,2,20150106170000
90,"Chaonanzi Station, Shantou",,23.251174,116.406606,151,51,82,16,4,8,18,17,1015,94,1,20150106170000
90,"Chaonanzi Station, Shantou",,23.251213,116.406762,151,51,82,16,4,8,18,17,1015,94,1,20150106170000
91,Shantou,,23.350642,116.686306,208,148,35,38,18,26,18,16,1016,88,1,20150106170000
92,"City Environmental Monitoring Station, Zhanjiang",,21.220431,110.397317,53,12,35,4,5,18,18,18,1014,99,4,20150106170000
93,"EPB Dormitory, Zhanjiang",,21.197376,110.406487,57,23,34,4,3,11,18,18,1014,96,3,20150106170000
94,"Xiashan Swimming Park, Zhanjiang",,21.200431,110.415655,74,30,28,1,8,18,22,19,1013,78,2,20150106170000
95,"Zhanjiang Theatre, Zhanjiang",,21.268177,110.366445,68,20,35,6,6,6,18,18,1015,97,3,20150106170000
96,"Mazhang EPA, Zhanjiang",,21.265486,110.335993,50,14,13,2,5,15,18,18,1014,96,3,20150106170000
97,"Potou District EPB, Zhanjiang",,21.247604,110.454508,30,12,37,3,2,6,18,18,1014,96,3,20150106170000
98,Zhanjiang,,21.26832,110.363883,57,38,40,7,4,6,19,18,1013,96,2,20150106170000
99,"Maogang sub-office EPB, Maoming",,21.466435,111.033462,95,53,34,5,3,3,20,18,0,93,1,20150106170000
100,"Petrochemical No. 7 elementaty school, Maoming",,21.648905,110.937861,95,48,30,1,3,7,20,19,0,93,3,20150106170000
101,"Jiankang road, Maoming",,21.662211,110.909482,99,33,25,4,3,7,20,19,0,93,3,20150106170000
102,"Gaoling, Maoming",,21.690558,110.871146,74,40,28,11,3,4,20,18,0,93,1,20150106170000
1094,Maoming,,21.660223,110.929968,85,49,25,8,2,7,21,19,0,87,3,20150106170000
103,"Jiaying University, Meizhou",,24.325415,116.12816,159,84,28,18,9,17,16,15,1015,94,1,20150106170000
104,"Mexian new town, Meizhou",,24.269283,116.084546,159,72,31,18,7,16,16,15,1015,94,1,20150106170000
105,"Environmental Monitoring Center, Meizhou",,24.262778,116.129621,164,114,32,18,7,16,16,15,1015,94,1,20150106170000
1095,Meizhou,,24.285988,116.127065,169,132,32,19,8,15,18,16,1016,88,1,20150106170000
106,"City EPA, Shanwei",,22.772349,115.370227,161,65,42,10,5,11,18,16,1015,78,1,20150106170000
107,"City government, Shanwei",,22.787161,115.375536,122,62,50,5,6,11,17,17,1015,96,2,20150106170000
108,"Xincheng Middle School, Shanwei",,22.789851,115.367124,157,61,29,11,4,11,17,15,1015,85,1,20150106170000
1099,Shanwei,,22.783576,115.38022,167,67,30,14,4,11,17,15,1015,85,1,20150106170000
109,"No.3 elementary school, Heyuan",,23.755946,114.699091,155,71,29,24,4,18,18,16,1015,90,1,20150106170000
109,"No.3 elementary school, Heyuan",,23.75435,114.703514,155,71,29,24,4,18,18,16,1015,90,1,20150106170000
111,"City water company, Heyuan",,23.688709,114.954652,149,59,34,27,4,11,18,16,1015,90,1,20150106170000
111,"City water company, Heyuan",,23.754246,114.682459,149,59,34,27,4,11,18,16,1015,90,1,20150106170000
113,"Heyuan high school, Heyuan",,23.720666,114.693879,112,51,33,17,4,8,18,16,1015,90,1,20150106170000
113,"Heyuan high school, Heyuan",,23.720037,114.699563,112,51,33,17,4,8,18,16,1015,90,1,20150106170000
115,Heyuan,,23.740888,114.705147,124,50,41,11,4,7,26,17,1013,48,2,20150106170000
116,"Yuanyang Lake, Yangjiang",,21.855869,111.983676,80,34,33,7,1,8,22,18,1014,74,3,20150106170000
1100,Yangjiang,,21.855227,111.987308,93,32,34,15,3,9,18,18,1014,95,3,20150106170000
118,"Town governement, Qingyuan",,23.708005,113.026215,182,98,10,29,14,34,19,18,1014,94,1,20150106170000
119,"Fupin district, Qingyuan",,23.624781,113.067713,74,37,47,12,12,13,18,13,1016,73,7,20150106170000
121,"Environment protection office, Qingyuan",,23.691109,113.047948,173,76,11,31,13,18,19,19,1015,100,2,20150106170000
121,"Environment protection office, Qingyuan",,23.685931,113.053239,173,76,11,31,13,18,19,19,1015,100,2,20150106170000
123,"Fengcheng Subdistrict, Qingyuan",,23.695447,113.068189,184,98,10,27,15,33,19,19,1014,100,1,20150106170000
124,Qingyuan,,23.679304,113.061513,183,105,22,58,13,19,22,19,1014,83,0,20150106170000
125,"Xiyuan Road, Chaozhou",,23.668654,116.638272,227,160,33,18,6,24,16,15,1015,94,1,20150106170000
126,"Archives Bureau, Chaozhou",,23.667881,116.649104,119,56,156,16,9,10,19,17,1014,88,2,20150106170000
127,"Municipal Corporation, Chaozhou",,23.65035,116.621859,170,79,85,29,9,11,18,17,1016,94,1,20150106170000
1101,Chaozhou,,23.654204,116.626969,254,191,29,29,21,28,15,15,1015,100,1,20150106170000
128,"Donghu Park, Jieyang",,23.532877,116.374427,129,53,112,37,9,15,18,17,1016,94,1,20150106170000
129,"Yuhu Middle School, Jieyang",,23.52682,116.414123,144,68,71,22,46,17,21,18,1014,83,0,20150106170000
130,"Experimental Primary School, Jieyang",,23.571473,116.364137,114,45,69,20,18,11,18,17,1015,94,1,20150106170000
1102,Jieyang,,23.547596,116.37754,142,56,51,12,12,15,23,18,1013,73,3,20150106170000
131,"City Environmental Monitoring Station, Yunfu",,22.936779,112.042248,93,49,30,19,4,11,22,19,1014,83,2,20150106170000
132,"The new city government headquarters, Yunfu",,22.914275,112.044475,61,33,31,12,3,9,19,15,1015,78,5,20150106170000
133,"Muyang police sub-station, Yunfu",,22.951267,112.05923,61,50,30,16,18,11,22,19,1014,83,0,20150106170000
1103,Yunfu,,22.912436,112.049811,82,77,21,16,5,20,19,18,1014,94,0,20150106170000
134,Yantian,,22.587949,114.266899,109,56,23,41,23,16,19,17,1014,88,2,20150106170000
135,Kwai Chung,,22.354168,114.134558,142,90,44,50,5,12,19,17,1015,88,2,20150106170000
135,Kwai Chung,,22.572837,113.867166,142,90,44,50,5,12,19,17,1015,88,2,20150106170000
137,Nanyou,,22.513802,113.928051,89,69,37,22,9,8,23,18,1014,73,2,20150106170000
138,Meisha,,22.59611,114.318345,95,52,42,17,2,9,21,17,1016,78,2,20150106170000
139,Xi xiang,,22.717524,114.252304,153,86,136,50,4,9,19,17,1015,88,2,20150106170000
140,Liyuan,,22.54732,114.101205,109,54,27,57,10,7,20,17,1014,83,1,20150106170000
1072,Kwai Chung,,22.354168,114.134558,95,30,37,25,6,10,20,17,1014,83,1,20150106170000
1072,Kwai Chung,,22.627947,114.428875,95,30,37,25,6,10,20,17,1014,83,1,20150106170000
141,OCT,,22.539549,113.992458,93,60,15,61,6,14,19,17,1014,88,1,20150106170000
142,Honghu,,22.559647,114.121976,109,60,35,63,5,7,20,17,1014,83,1,20150106170000
143,Mission Hills,,22.694131,114.050496,164,82,96,38,8,8,20,18,1013,88,3,20150106170000
144,Shenzhen,,22.540382,114.062982,142,55,39,28,8,13,20,16,1015,78,2,20150106170000
145,Chengdu,,30.622581,104.069564,119,56,7,29,4,27,7,5,1023,87,0,20150106170000
146,"Jinquan lianghe, Chengdu",,30.710359,103.974209,246,180,10,22,7,29,8,7,1022,93,0,20150106170000
147,"Shilidian, Chengdu",,30.684718,104.17845,248,196,6,30,8,22,8,7,1022,93,0,20150106170000
148,"Sanwayao, Chengdu",,30.568159,104.081524,65,27,46,12,4,9,9,-1,1022,50,1,20150106170000
149,"Shahepu, Chengdu",,30.633685,104.120536,68,40,15,13,4,4,9,0,1021,54,1,20150106170000
150,"Liang Lane, Chengdu",,30.682601,104.076522,117,62,45,38,4,4,9,0,1023,54,1,20150106170000
151,"Caotang Temple, Chengdu",,30.651891,104.0284,93,58,23,28,4,3,9,0,1023,54,1,20150106170000
152,"Lingyansi, Chengdu",,31.025729,103.615022,155,70,31,15,5,1,8,2,1025,66,0,20150106170000
153,"Fuleshan, Mianyang",,31.472493,104.7806,30,8,32,1,5,3,7,-1,1024,44,2,20150106170000
154,"High-tech Zone Water Company, Mianyang",,31.463309,104.674293,147,57,29,29,20,6,8,0,1026,46,3,20150106170000
155,"No.3 water company, Mianyang",,31.505002,104.731054,38,20,32,4,4,1,10,-1,1023,33,2,20150106170000
156,Mianyang,,31.465174,104.681731,46,15,32,14,7,3,7,-1,1025,48,4,20150106170000
157,"Dongshan Park, Deyang",,31.118648,104.424587,53,31,15,10,2,2,9,-1,1025,50,3,20150106170000
158,"Xixiaoqu, Deyang",,31.131159,104.390972,276,175,4,35,20,20,8,7,1021,93,0,20150106170000
159,"City Procuratorate, Deyang",,31.114554,104.407986,42,19,13,16,4,6,8,-1,1024,53,3,20150106170000
160,"Refractory Factory, Deyang",,31.108606,104.356506,74,26,28,7,7,2,9,0,1023,54,1,20150106170000
161,Deyang,,31.124715,104.400703,159,96,13,27,11,20,8,6,1023,87,0,20150106170000
162,"Nongnongping, Panzhihua",,26.566698,101.695438,87,51,35,20,7,21,17,-1,0,18,3,20150106170000
163,"Hemenkou, Panzhihua",,26.589072,101.578312,91,60,15,16,14,9,12,1,0,33,4,20150106170000
164,"Bingcaogang, Panzhihua",,26.58143,101.718473,139,84,25,33,32,19,14,4,0,41,1,20150106170000
165,"Renhe, Panzhihua",,26.498166,101.746887,134,61,28,21,3,13,5,3,0,81,1,20150106170000
166,"Jinjina, Panzhihua",,26.553226,101.84862,89,77,13,34,21,8,12,1,0,33,4,20150106170000
167,Panzhihua,,26.578779,101.720211,99,106,30,30,46,26,14,4,0,41,1,20150106170000
168,"Shima Middle School, Yibin",,28.815979,104.599199,168,93,19,29,18,10,10,4,1025,58,1,20150106170000
169,"Municipal party committee, Yibin",,28.762654,104.624834,132,52,17,16,20,8,13,2,1022,38,2,20150106170000
170,"No. 4 middle school, Yibin",,28.783257,104.608407,165,86,21,29,13,9,10,4,1025,58,1,20150106170000
171,"City government, Yibin",,28.760477,104.644079,104,59,11,12,7,10,10,4,1022,56,2,20150106170000
172,"Huangjinzui, Yibin",,28.712319,104.578389,154,73,32,27,19,7,13,2,1022,38,2,20150106170000
173,"Shaping Middle School, Yibin",,28.795569,104.681393,162,73,29,12,9,6,10,4,1025,58,1,20150106170000
174,Yibin,,28.748384,104.645766,114,53,24,23,14,9,7,4,1025,74,1,20150106170000
175,"Datang Hill, Zigong",,29.359969,104.757388,170,121,28,12,68,16,9,2,0,61,2,20150106170000
176,"Yanma Road, Zigong",,29.355752,104.724036,144,58,23,16,4,7,12,0,1001,45,2,20150106170000
177,"Tanmulin Street, Zigong",,29.353555,104.777397,109,48,28,12,7,4,9,2,0,61,2,20150106170000
178,"Chunhua Road, Zigong",,29.33825,104.771895,171,81,27,34,13,10,10,1,0,54,2,20150106170000
179,Zigong,,29.33617,104.781138,158,69,26,19,15,16,9,1,0,58,1,20150106170000
180,"Jiushi Hill, Luzhou",,28.955347,105.434207,109,64,21,9,4,7,8,3,0,69,1,20150106170000
181,"Xiaoshishang Port, Luzhou",,28.899583,105.447192,129,55,21,10,9,6,11,1,0,49,2,20150106170000
182,"Lantianxian Bridge, Luzhou",,28.852766,105.4358,95,40,18,13,5,4,8,3,0,69,1,20150106170000
183,"City Environment Monitoring Station, Luzhou",,28.895898,105.435802,134,56,22,33,8,2,10,1,0,51,2,20150106170000
184,Luzhou,,28.868782,105.445938,142,57,15,6,23,7,7,4,0,76,1,20150106170000
185,"City Committee, Nanchong",,30.799993,106.082906,144,53,15,15,14,4,8,6,1026,78,2,20150106170000
186,"Refinery Factory, Nanchong",,30.819412,106.10712,158,67,19,6,3,5,8,6,1026,78,2,20150106170000
187,"Gaoping District Monitoring Station, Nanchong",,30.783291,106.110417,154,59,17,27,5,6,8,6,1026,78,2,20150106170000
188,"Jialing District EPB, Nanchong",,30.761255,106.06818,137,63,20,22,18,9,9,4,1024,59,2,20150106170000
189,"City Environmental Monitoring Station, Nanchong",,30.836519,106.11272,124,50,27,6,4,6,10,5,1023,64,1,20150106170000
190,Nanchong,,30.835511,106.114717,202,116,28,22,8,21,8,3,1022,62,1,20150106170000
1249,"City Monitoring Station, Neijiang",,29.592673,105.036234,139,65,28,17,6,6,10,1,0,56,2,20150106170000
1250,"Dongxing District Government , Neijiang",,29.592148,105.074966,119,57,32,11,2,2,10,1,0,56,2,20150106170000
1251,"No 2 middle school, Neijiang",,29.579135,105.068548,122,53,34,15,3,3,10,1,0,54,2,20150106170000
1252,Neijiang,,29.577653,105.06166,152,75,37,30,7,6,10,1,0,56,2,20150106170000
1253,"City Monitoring Station, Suining",,30.517431,105.564623,82,52,44,18,16,7,9,1,0,60,2,20150106170000
1254,"Administrative center , Suining",,30.530907,105.593309,218,131,6,22,18,12,10,-3,0,34,4,20150106170000
1255,Suining,,30.530053,105.596307,215,142,21,20,17,24,10,-3,0,36,4,20150106170000
1256,"City Monitoring Station, Leshan",,29.560651,103.759211,109,54,25,28,9,6,7,0,0,58,2,20150106170000
1257,"Leshan Giant Buddha Scenic Area , Leshan",,29.543938,103.772706,97,51,29,29,9,7,7,0,0,58,2,20150106170000
1258,Leshan,,29.54935,103.767777,119,52,17,22,9,10,8,-2,0,44,1,20150106170000
1259,"Heilongtan , Meishan",,30.047726,103.900649,119,47,29,16,1,-,8,0,1024,57,1,20150106170000
1260,"Bureau of Meteorology, Meishan",,30.084591,103.843715,155,81,52,18,9,23,8,2,1025,66,0,20150106170000
1261,"Xuguang Community , Meishan",,30.066277,103.8516,153,75,34,20,8,6,8,2,1025,66,0,20150106170000
1262,"City Monitoring Station, Meishan",,30.059205,103.836229,142,71,31,16,7,3,8,2,1025,66,0,20150106170000
1263,Meishan,,30.072618,103.85064,134,79,49,31,9,23,8,0,1024,57,1,20150106170000
1264,"Ziyang middle school, Ziyang",,30.147763,104.638024,104,64,24,8,30,5,9,1,0,58,1,20150106170000
1265,Ziyang,,30.126054,104.63004,107,71,38,17,52,8,10,1,0,56,2,20150106170000
1377,"Dazhou Technical College, Dazhou",,31.277414,107.531672,99,29,30,14,3,32,6,,1026,85,1,20150106170000
1378,"City Environmental Monitoring Station, Dazhou",,31.212692,107.529474,107,52,25,13,3,4,6,,1026,85,1,20150106170000
1379,"Civic Center, Dazhou",,31.203669,107.465774,158,69,23,12,6,6,6,,1026,85,1,20150106170000
191,Shenyang US Consulate,,41.785668,123.432865,99,65,,28,77,,-19,-25,1025,60,2,20150106170000
192,"Huishan, Shenyang",,41.835421,123.647773,97,60,34,12,20,5,-9,-22,1024,35,4,20150106170000
193,"Hunnan, Shenyang",,41.758263,123.540809,34,43,20,6,23,3,-8,-23,1024,30,7,20150106170000
194,"Zhangshi, Shenyang",,41.771679,123.289859,153,88,15,33,50,7,-9,-22,1024,35,2,20150106170000
195,"Artillery College, Shenyang",,41.835749,123.547799,57,84,30,17,28,7,-10,-22,1025,38,1,20150106170000
196,"Beiling, Shenyang",,41.849633,123.434146,55,32,23,4,13,4,-6,-17,1023,42,3,20150106170000
197,"Wenyi Road, Shenyang",,41.767444,123.416144,97,84,22,26,71,4,-9,-22,1024,35,4,20150106170000
198,"Xiaoheyan, Shenyang",,41.779828,123.484015,85,57,28,30,60,4,-9,-22,1024,35,2,20150106170000
199,"Taiyuan Street, Shenyang",,41.799646,123.406146,129,70,13,28,98,5,-14,-23,1025,48,2,20150106170000
200,"Ermao, Shenyang",,41.783011,123.366679,144,104,30,34,89,7,-9,-22,1024,35,2,20150106170000
201,"Liaoning University, Shenyang",,41.830704,123.361071,127,56,25,10,6,4,-9,-22,1024,35,2,20150106170000
202,Shenyang,,41.808126,123.437611,137,76,14,32,98,4,-17,-23,1025,61,1,20150106170000
1104,"wenhua street, Shenyang , Shenyang",,41.774139,123.441839,97,94,15,25,60,3,-8,-22,1026,32,4,20150106170000
1105,"Tanglin Road , Shenyang , Shenyang",,41.823665,123.562317,25,56,19,6,17,4,-9,-23,1025,32,5,20150106170000
203,"Ganjingzi, Dalian",,38.9747,121.616893,78,62,12,7,11,1,-5,-16,1026,43,4,20150106170000
204,"Zhoushuizi, Dalian",,38.951928,121.569981,89,60,22,17,44,6,-4,-13,1026,50,0,20150106170000
205,"Xinghai No 3 station, Dalian",,38.885779,121.568864,34,20,26,30,44,3,-2,-15,1027,37,5,20150106170000
206,"Qingniwa Bridge, Dalian",,38.91274,121.638018,72,36,25,19,40,4,-4,-13,1026,50,0,20150106170000
207,"Fujiazhuang, Dalian",,38.864647,121.629947,59,34,27,57,59,4,-4,-13,1026,50,0,20150106170000
208,"Qixianling, Dalian",,38.856978,121.523169,70,61,20,4,7,6,-4,-17,1024,36,10,20150106170000
209,"Lushun, Dalian",,38.808946,121.264063,76,43,20,5,23,2,-5,-18,1026,36,8,20150106170000
210,"Jinzhou, Dalian",,39.132192,121.753259,149,69,20,7,11,2,-4,-13,1026,50,0,20150106170000
211,"BDA, Dalian",,39.05213,121.782022,30,26,21,17,21,2,-2,-15,1027,37,5,20150106170000
212,"D&D Port, Dalian",,39.064087,121.981874,70,84,6,5,8,9,-3,-14,1023,43,10,20150106170000
213,Dalian,,38.91478,121.619625,95,63,12,5,12,7,-3,-14,1023,43,10,20150106170000
214,"Bearing Factory, Dandong",,40.068929,124.345703,97,55,22,3,18,11,-10,-21,1025,24,2,20150106170000
215,"Financial school, Dandong",,40.158723,124.432593,57,56,16,4,11,7,-8,-22,1020,17,6,20150106170000
216,"Yuanbaoshan water, Dandong",,40.149431,124.391698,65,30,21,4,12,11,-8,-22,1020,17,6,20150106170000
217,"Experimental Primary School, Dandong",,39.887343,124.158056,163,111,23,31,18,10,-10,-21,1025,24,2,20150106170000
218,Dandong,,40.002046,124.360479,152,82,27,30,53,12,-11,-21,1025,29,3,20150106170000
1106,"minzhu bridge, Dandong , Dandong",,40.112974,124.373604,163,111,12,31,18,10,-10,-21,1025,24,2,20150106170000
1107,"yuanbaoshan, Dandong , Dandong",,40.146298,124.399081,72,48,24,10,25,11,-6,-23,1024,13,5,20150106170000
1108,"linjiang houjie, Dandong , Dandong",,40.152757,124.431745,91,54,13,22,41,8,-10,-21,1025,24,2,20150106170000
219,"BDA, Panjin",,41.157144,122.06645,137,59,11,21,18,20,-6,-24,0,21,5,20150106170000
220,"Xinglongtai, Panjin",,41.140948,122.111343,122,55,14,24,17,6,-7,-27,0,19,3,20150106170000
221,"Dingxiang, Panjin",,41.16139,121.928781,59,36,27,29,12,9,-7,-27,0,19,3,20150106170000
222,Panjin,,41.122089,122.076206,85,57,11,10,30,19,-10,-26,0,24,4,20150106170000
223,"No.3 water company, Yingkou",,40.682052,122.385352,112,57,32,19,23,8,-9,-12,1027,66,2,20150106170000
224,"Yingkou University, Yingkou",,40.683689,122.388285,65,40,33,12,43,7,-9,-12,1027,66,2,20150106170000
225,"Botanical garden, Yingkou",,40.711674,122.281568,76,33,38,24,22,5,-5,-14,1025,40,2,20150106170000
226,Yingkou,,40.668578,122.24059,46,30,27,13,43,6,-11,-19,1027,36,2,20150106170000
1109,"jinghu west street, Yingkou , Yingkou",,40.653831,122.221943,68,45,24,21,56,5,-13,-20,1026,37,2,20150106170000
1110,"Daqing Road , Yingkou , Yingkou",,40.709181,122.28243,76,33,26,24,22,5,-5,-14,1025,40,2,20150106170000
227,"Xishanpo, Huludao",,40.724078,120.921974,139,67,17,18,62,5,,,0,,,20150106170000
228,"Huagong hospital, Huludao",,40.755662,120.848435,74,53,20,23,51,10,,,0,,,20150106170000
229,"New district park, Huludao",,40.723415,120.853801,38,28,21,9,20,7,,,0,,,20150106170000
230,"Lianshan district governement, Huludao",,40.775488,120.872292,50,28,20,10,5,6,,,0,,,20150106170000
231,Huludao,,40.712501,120.842107,76,84,19,15,105,9,,,0,,,20150106170000
1111,"Dongcheng District , Huludao , Huludao",,40.775362,120.871706,38,130,16,3,6,6,,,0,,,20150106170000
1112,"huagong street, Huludao , Huludao",,40.758901,120.842935,170,140,11,23,58,16,,,0,,,20150106170000
232,Anshan,,41.110466,123.000147,59,41,21,6,13,8,-11,-24,1025,34,3,20150106170000
233,"Qianshan Park, Anshan",,41.033486,123.143897,124,64,31,16,15,7,-9,-22,1024,35,2,20150106170000
234,"Tiexi, Anshan",,41.121636,122.97506,91,73,12,28,49,41,-9,-23,1025,32,5,20150106170000
235,"Taiping Station, Anshan",,41.153322,123.052433,167,92,18,16,45,12,-9,-22,1024,35,4,20150106170000
236,"Central Station, Anshan",,41.106731,123.002736,153,63,21,23,69,8,-12,-21,1025,48,3,20150106170000
237,"Shengou Temple, Anshan",,41.137157,123.031901,82,49,22,13,33,10,-9,-20,1024,41,4,20150106170000
1113,"Qianshan , Anshan , Anshan",,41.014521,123.122538,117,60,23,18,14,7,-9,-22,1024,35,4,20150106170000
1114,"Tiexi Sandao jie, Anshan",,41.103264,122.978613,193,113,11,36,52,22,-9,-22,1024,35,4,20150106170000
1115,"Taiyang, Anshan",,41.094946,123.019037,153,80,13,23,50,9,-12,-21,1025,48,3,20150106170000
238,Fushun,,41.883028,123.962984,50,82,20,3,4,9,-9,-23,1025,32,5,20150106170000
239,"Shenfu new town, Fushun",,41.804638,123.631684,107,68,16,21,3,5,-16,-24,1024,51,2,20150106170000
240,"Reservoir, Fushun",,41.8464,123.802857,163,47,27,20,52,12,-12,-21,1025,48,3,20150106170000
241,"Train Station, Fushun",,41.89726,124.017604,85,53,27,26,20,15,-9,-22,1024,35,2,20150106170000
242,"Dongzhou, Fushun",,41.855578,124.044738,176,57,25,29,18,11,-9,-22,1024,35,4,20150106170000
243,"Xinhua, Fushun",,41.888598,123.932932,176,110,25,29,21,16,-10,-22,1025,38,1,20150106170000
244,"Wanghua, Fushun",,41.888825,123.093723,170,91,22,26,37,14,-8,-22,1026,32,4,20150106170000
1397,"Dahuofang reservoir, Fushun , Fushun",,41.885998,124.185917,-,-,-,-,-,-,-,-,0,-,-,20150106170000
1367,"Dongzhou district, Fushun , Fushun",,41.864885,124.044353,176,57,17,29,18,11,-9,-22,1024,35,4,20150106170000
1368,"Wanghua district, Fushun , Fushun",,41.849112,123.815882,158,72,12,25,17,12,-19,-25,1025,60,2,20150106170000
245,Benxi,,41.296267,123.772371,207,81,64,103,81,31,-9,-22,1024,35,4,20150106170000
246,"Weining, Benxi",,41.349663,123.826071,21,56,50,9,4,32,-10,-23,1025,35,5,20150106170000
247,"Occupational disease hospital, Benxi",,41.305432,123.74645,109,65,28,30,56,24,-10,-22,1025,38,1,20150106170000
248,"Dongming, Benxi",,41.292369,123.765058,99,38,16,33,40,8,-6,-17,1023,42,3,20150106170000
249,"Caitun, Benxi",,41.301591,123.746039,163,77,14,21,52,15,-9,-22,1024,35,4,20150106170000
250,"Xihu, Benxi",,41.331332,123.773537,158,84,25,24,51,16,-10,-22,1025,38,1,20150106170000
251,"Dayu, Benxi",,41.308091,123.818442,109,55,28,28,51,5,-9,-22,1024,35,4,20150106170000
1116,"Xinlitun , Benxi , Benxi",,41.264104,123.811523,109,65,10,30,56,24,-10,-22,1025,38,1,20150106170000
252,Jinzhou,,41.097169,121.132647,30,14,30,13,52,10,-8,-26,1027,10,3,20150106170000
253,"Beihu Park, Jinzhou",,41.141447,121.137339,13,11,18,3,16,8,-4,-26,1025,6,6,20150106170000
254,"Monitoring station, Jinzhou",,41.113441,121.140911,137,46,29,35,54,5,-4,-21,1027,13,0,20150106170000
1369,"Baigu Water Plant, Jinzhou",,41.123847,121.206296,170,54,31,30,43,10,-2,-24,1026,7,3,20150106170000
255,"Nanshan, Jinzhou",,41.570689,122.046753,192,114,25,28,58,19,-4,-21,1027,13,0,20150106170000
1118,"BDA, Jinzhou",,40.853915,121.061756,155,62,18,36,64,18,-4,-21,1027,13,0,20150106170000
1119,"tianan street, Jinzhou , Jinzhou",,41.124468,121.126119,170,46,17,34,61,7,-4,-21,1027,13,0,20150106170000
1120,"baigu street, Jinzhou, Jinzhou",,41.12214,121.21027,154,75,17,21,19,18,-4,-21,1027,13,0,20150106170000
1121,Chaoyang,,41.576022,120.456053,50,40,20,5,11,25,-5,-24,1026,9,1,20150106170000
1389,"Longcheng Agricultural Park, Chaoyang",,41.617348,120.399685,53,15,19,2,8,11,0,-26,1025,4,4,20150106170000
256,"Flour Mill, Chaoyang",,41.567024,120.430447,102,57,23,13,18,7,0,-26,1025,4,4,20150106170000
257,"Landscape Management Office, Chaoyang",,41.573716,120.461652,57,67,19,12,50,2,0,-26,1025,4,4,20150106170000
1122,"Agricultural Area, Chaoyang",,43.93968,125.247371,124,25,16,8,22,25,-8,-28,1026,7,1,20150106170000
1123,Tieling,,42.225197,123.732174,68,52,28,8,11,4,-9,-23,1025,32,5,20150106170000
259,"Jinsha River, Tieling",,42.224895,123.732812,63,28,32,3,11,6,-7,-18,1023,42,4,20150106170000
1391,"Benzhan, Tieling",,42.288504,123.85474,95,54,22,23,6,4,-6,-22,1023,28,2,20150106170000
260,"Waterpark, Tieling",,42.297031,123.880748,161,98,22,19,34,10,-8,-22,1026,32,4,20150106170000
261,"Steel Factory, Tieling",,42.24215,123.804596,42,39,23,5,5,5,-6,-18,1023,39,1,20150106170000
1124,"Huigong Street West , Tieling , Tieling",,42.311115,123.845614,21,46,15,3,5,5,-6,-17,1023,42,3,20150106170000
1125,Liaoyang,,41.269312,123.24268,82,53,19,17,26,18,-18,-24,1024,60,2,20150106170000
262,"Steel Pipe Factory, Liaoyang",,41.274154,123.135012,197,62,22,38,24,24,-9,-22,1024,35,1,20150106170000
263,"Yuanlin Compound, Liaoyang",,41.286152,123.18415,180,56,18,9,16,21,-6,-18,1023,39,1,20150106170000
1392,"No. 201 blood bank, Liaoyang",,41.257488,123.155844,104,54,15,18,13,12,-6,-22,1023,28,2,20150106170000
264,"Chemical Factory, Liaoyang",,41.2025,123.218071,160,52,27,27,54,17,-8,-22,1023,32,3,20150106170000
1126,"Riverside Road , Liaoyang , Liaoyang",,41.176884,123.419859,153,77,10,24,27,28,-9,-22,1024,35,4,20150106170000
1127,Fuxin,,42.02373,121.675733,63,45,22,9,16,5,-8,-26,0,22,4,20150106170000
1393,"Yulong Xinchengzi Station, Fuxin",,42.050687,121.664588,34,20,26,3,9,5,-7,-27,0,20,4,20150106170000
265,"Environment protection office, Fuxin",,42.00535,121.631585,38,20,,10,23,,-8,-25,0,24,4,20150106170000
266,"Agricultural Area, Fuxin",,42.071291,121.696445,55,40,17,4,22,15,-9,-24,0,27,4,20150106170000
267,"Industrial Area, Fuxin",,42.041052,121.715554,65,58,15,10,20,10,-9,-24,0,27,4,20150106170000
1128,"Yulong Metro , Fuxin , Fuxin",,42.035091,121.666531,63,45,22,9,16,5,-8,-26,0,22,4,20150106170000
1129,"Dongyuan , Fuxin , Fuxin",,42.029119,121.681553,38,20,18,10,23,15,-8,-25,0,24,4,20150106170000
268,"City Monitoring Station, Jinan",,36.662614,117.054645,104,40,18,25,27,0,0,-17,1028,15,2,20150106170000
269,"Shandong Institute of Economics, Jinan",,36.63819,117.074975,99,53,13,24,28,6,-2,-14,1029,25,1,20150106170000
270,"Quancheng Plaza, Jinan",,36.661711,117.027043,57,26,18,16,25,10,1,-19,1028,9,2,20150106170000
271,"Kegansuo, Jinan",,36.611582,116.99384,97,76,21,25,19,12,-2,-14,1029,25,1,20150106170000
272,"Agriculture Science Institute, Jinan",,36.663115,116.95063,156,100,24,43,47,10,-2,-14,1029,25,1,20150106170000
273,"Lanxiang technical school, Jinan",,36.700421,116.95342,53,28,10,10,20,7,1,-18,1030,12,2,20150106170000
274,"Chemical factory, Jinan",,36.687463,116.994406,-,-,-,-,-,-,-,-,0,-,-,20150106170000
275,"Provincial Seed Warehouse, Jinan",,36.685706,117.066348,97,65,21,44,66,0,-2,-14,1029,25,1,20150106170000
276,"Shandong Architecture University, Jinan",,36.681732,117.191868,87,53,19,9,24,10,1,-19,1028,9,2,20150106170000
277,"Baosheng cable company, Jinan",,36.724638,117.130855,68,38,15,6,17,12,1,-19,1028,9,2,20150106170000
278,"Paomaling, Jinan",,36.47869,117.219027,46,15,23,6,28,11,1,-18,1030,12,2,20150106170000
279,"Changqing District Communist Party School, Jinan",,36.548797,116.770859,-,-,-,-,-,-,-,-,0,-,-,20150106170000
280,"BDA, Jinan",,36.685835,117.130851,85,44,20,27,14,9,-2,-14,1029,25,1,20150106170000
281,Jinan,,36.651426,117.126625,182,105,2,22,28,0,2,-4,1025,58,5,20150106170000
282,"Shinan district No. 1, Qingdao",,36.065534,120.40839,80,55,26,7,11,3,2,-17,1026,24,4,20150106170000
283,"Shibei district No. 1, Qingdao",,36.069919,120.341264,46,8,18,17,9,8,2,-17,1026,24,4,20150106170000
284,"Shibei district No. 2, Qingdao",,36.104146,120.36637,72,28,26,17,6,4,0,-16,1026,30,4,20150106170000
285,"Huangdao District No. 1, Qingdao",,35.958935,120.191041,38,50,22,14,9,9,3,-16,1026,24,4,20150106170000
286,"Huangdao District No. 2, Qingdao",,35.970487,120.160339,63,20,8,9,10,15,2,-17,1026,24,4,20150106170000
287,"Laoshan District No. 1, Qingdao",,36.085881,120.451839,70,30,32,20,26,6,1,-17,1026,25,4,20150106170000
288,"Laoshan District No. 2, Qingdao",,36.091075,120.490388,38,34,35,10,11,1,2,-17,1026,24,4,20150106170000
289,"Licang District No. 1, Qingdao",,36.184872,120.38533,89,58,27,23,13,8,0,-16,1026,30,4,20150106170000
290,"Licang District No. 2, Qingdao",,36.154369,120.432287,68,23,22,9,4,4,2,-17,1026,24,4,20150106170000
291,"Chengyang District No. 1, Qingdao",,36.308502,120.40008,-,-,-,-,-,-,-,-,0,-,-,20150106170000
292,"Chengyang District No. 2, Qingdao",,36.308429,120.465806,53,23,29,5,19,6,3,-15,1026,26,4,20150106170000
293,Qingdao,,36.067358,120.387773,78,57,26,6,10,3,3,-16,1026,24,4,20150106170000
294,"Zichuan Meteo. Stations, Zibo",,36.637916,117.960222,68,69,32,13,13,12,11,3,0,55,4,20150106170000
295,"Dongfeng Chemical factory, Zibo",,36.838576,118.050785,153,58,25,39,38,15,-1,-16,0,30,1,20150106170000
296,"Boshan shuangshan, Zibo",,36.497278,117.853581,-,-,-,-,-,-,-,-,0,-,-,20150106170000
297,"Linzi Putian Park, Zibo",,36.820171,118.315022,-,-,-,-,-,-,-,-,0,-,-,20150106170000
298,"Qilu Petrochemical, Zibo",,36.765907,118.254967,114,40,21,20,26,7,0,-16,0,26,3,20150106170000
299,"Zhoucun sanjin Group, Zibo",,36.8044,117.85694,65,36,14,22,44,14,1,-14,0,29,4,20150106170000
300,"Vocational College, Zibo",,36.825208,117.926305,78,39,22,17,33,13,0,-16,0,26,3,20150106170000
301,"BDA, Zibo",,36.905214,118.021824,74,23,13,14,14,12,1,-14,0,29,4,20150106170000
302,Zibo,,36.813618,118.060948,184,105,13,22,17,27,-1,-8,0,63,5,20150106170000
303,"Shizhong District Government, Zaozhuang",,34.850397,117.569545,112,76,17,14,16,7,2,-8,1028,33,2,20150106170000
304,"Sewage treatment plant, Zaozhuang",,34.818951,117.595345,159,87,14,12,25,9,4,-5,1027,40,2,20150106170000
305,"Xuecheng EPA, Zaozhuang",,34.790214,117.272455,169,100,17,25,51,7,2,-8,1028,33,2,20150106170000
306,"Yicheng District government, Zaozhuang",,34.772806,117.57647,142,87,17,23,38,8,2,-8,1028,33,2,20150106170000
307,"Taierzhuang EPA, Zaozhuang",,34.579462,117.741067,129,82,17,12,22,0,3,-6,1030,41,1,20150106170000
308,"Shanting EPA, Zaozhuang",,35.070373,117.457691,119,67,27,14,18,4,2,-8,1028,33,2,20150106170000
309,"City EPA, Zaozhuang",,34.809466,117.320608,151,82,17,12,22,5,4,-5,1027,40,2,20150106170000
310,"High-tech zone, Zaozhuang",,34.821779,117.363495,104,70,22,20,29,7,3,-7,1028,34,1,20150106170000
311,Zaozhuang,,34.809693,117.329634,216,149,13,30,50,14,5,-2,1023,51,4,20150106170000
312,"City EPA, Dongying",,37.432052,118.672871,50,61,18,5,11,3,0,-9,0,50,7,20150106170000
313,"Vocational College, Dongying",,37.438653,118.630567,25,15,28,7,14,8,1,-10,0,40,4,20150106170000
314,"Xianhe Oil Production Plant, Dongying",,37.442419,118.510222,34,34,23,11,15,9,1,-10,0,40,4,20150106170000
315,"Gengjin village, Dongying",,37.445072,118.55839,97,71,14,12,14,17,0,-7,0,53,8,20150106170000
316,"City environmental company, Dongying",,37.466599,118.508012,42,34,13,14,16,6,0,-8,0,51,5,20150106170000
317,"Hekou  district, Dongying",,37.883786,118.522171,21,7,26,5,7,6,1,-10,0,37,5,20150106170000
318,"BDA, Dongying",,37.435162,118.701827,-,-,-,-,-,-,-,-,0,-,-,20150106170000
319,Dongying,,37.435429,118.680434,46,66,17,4,15,10,0,-8,0,52,8,20150106170000
320,"Bearing Factory, Yantai",,37.544126,121.376956,78,52,21,17,20,6,,,0,,,20150106170000
321,"Xijiao Chemical Station, Yantai",,37.547148,121.323695,78,40,26,14,29,3,,,0,,,20150106170000
322,"Fushan Monitoring Stations, Yantai",,37.472245,121.260116,17,9,26,5,5,5,,,0,,,20150106170000
323,"Mouping EPA, Yantai",,37.376681,121.586509,21,35,32,8,6,7,,,0,,,20150106170000
324,"Laishan EPA, Yantai",,37.478422,121.44829,-,-,-,-,-,-,,,0,,,20150106170000
325,"Laishan Shengquan Industrial Park, Yantai",,37.4271,121.408386,42,32,25,5,19,5,,,0,,,20150106170000
326,"China Agricultural University, Yantai",,37.423568,121.511838,57,24,31,1,5,3,,,0,,,20150106170000
327,"BDA EPA, Yantai",,37.560827,121.257954,68,49,17,4,6,4,,,0,,,20150106170000
329,"Dajijia, Yantai",,37.673849,121.071465,17,11,27,6,4,3,,,0,,,20150106170000
330,Yantai,,37.464793,121.453142,59,62,13,8,14,8,,,0,,,20150106170000
331,"BDA, Weifang",,36.720022,119.054064,55,39,25,10,17,8,,,0,,,20150106170000
332,"Business School, Weifang",,36.682442,119.105909,57,39,24,8,28,6,,,0,,,20150106170000
333,"Hanting District, Weifang",,36.773484,119.199705,34,32,31,6,16,4,,,0,,,20150106170000
334,"Gongda Company, Weifang",,36.657635,119.167266,144,75,34,31,33,7,,,0,,,20150106170000
335,"City EPA, Weifang",,36.701272,119.16838,-,-,-,-,-,-,,,0,,,20150106170000
336,"City Arbitration Committee, Weifang",,36.702422,119.145927,55,40,29,12,17,7,,,0,,,20150106170000
337,"Xinhui Group, Weifang",,36.641581,119.11679,63,50,31,11,22,7,,,0,,,20150106170000
338,"Jincheng Middle School, Weifang",,36.773611,119.115539,68,33,29,9,25,5,,,0,,,20150106170000
339,Weifang,,36.707217,119.167638,21,39,14,6,12,15,,,0,,,20150106170000
340,"City Monitoring Station, Jining",,35.408443,116.623917,124,60,13,19,40,10,2,-14,1028,17,3,20150106170000
1090,"Shengdi Hollidays Resort, Jining",,35.424746,116.699093,109,54,12,17,20,12,2,-14,1028,17,3,20150106170000
341,"Sewage treatment plant, Jining",,35.364286,116.609177,-,-,-,-,-,-,-,-,0,-,-,20150106170000
342,"Electrochemical Factory, Jining",,35.390473,116.552956,149,82,16,32,52,14,1,-14,1028,19,2,20150106170000
343,"Rencheng BDA, Jining",,35.390484,116.662995,76,54,9,14,18,16,2,-14,1028,17,3,20150106170000
344,"Agricultural School, Jining",,35.44235,116.601682,104,60,12,15,52,10,2,-14,1028,17,3,20150106170000
345,"BDA Huojucheng, Jining",,35.436377,116.642953,85,49,15,12,14,9,2,-14,1028,17,3,20150106170000
346,Jining,,35.414473,116.59239,176,129,5,40,32,26,5,4,1020,88,3,20150106170000
347,"Taishan monitoring station, Taian",,36.194362,117.159648,153,74,15,29,44,11,-10,-27,0,11,7,20150106170000
348,"Shandong Electric Power School, Taian",,36.176071,117.12413,153,84,13,36,35,11,-10,-27,0,11,7,20150106170000
349,"Population Education school, Taian",,36.194417,117.104131,161,99,15,29,45,8,-10,-27,0,11,7,20150106170000
350,"Houfeng company, Taian",,36.204863,117.19015,55,48,16,17,20,12,-9,-30,0,6,8,20150106170000
351,"Nongda new campus, Taian",,36.170179,117.165191,89,42,8,14,19,19,-9,-30,0,6,8,20150106170000
352,"Transportation technical school, Taian",,36.202126,117.047068,38,34,12,6,6,15,-9,-30,0,6,8,20150106170000
353,"ICT Technology, Taian",,36.116621,117.107458,34,41,7,8,49,11,-9,-30,0,6,8,20150106170000
354,Taian,,36.200502,117.093682,184,125,15,30,35,25,-10,-11,0,86,11,20150106170000
355,"City Environmental Monitoring Station, Weihai",,37.513939,122.067058,53,37,50,8,10,3,1,-6,0,57,9,20150106170000
356,"Woodworking Factory, Weihai",,37.325455,122.160777,-,-,-,-,-,-,-,-,0,-,-,20150106170000
357,"Lantian Hotel, Weihai",,37.514641,122.146276,25,26,32,7,6,3,1,-6,0,58,9,20150106170000
358,"Zhang village government, Weihai",,37.485561,122.049436,42,19,26,7,9,6,0,-6,0,56,10,20150106170000
359,"Gao District Bank, Weihai",,37.534919,122.056294,25,20,28,3,11,2,1,-6,0,56,9,20150106170000
360,"Huxia technical school, Weihai",,37.427951,122.130811,34,33,28,7,6,4,1,-6,0,56,8,20150106170000
361,Weihai,,37.5141,122.125477,38,77,38,6,5,8,0,-6,0,64,15,20150106170000
362,"City governement square, Rizhao",,35.4075,119.526008,137,62,31,18,15,5,1,-8,1027,35,2,20150106170000
363,"Port Authority, Rizhao",,35.381297,119.55396,151,69,27,10,7,3,0,-10,1028,33,3,20150106170000
364,"City Monitoring Station, Rizhao",,35.388683,119.496405,55,46,22,6,8,7,2,-10,1026,27,3,20150106170000
365,"Professor Garden, Rizhao",,35.462161,119.574193,-,-,-,-,-,-,-,-,0,-,-,20150106170000
366,"Vocational and Technical College, Rizhao",,35.441939,119.538187,65,41,29,6,7,5,2,-10,1026,27,3,20150106170000
367,"Lanshan EPA branch, Rizhao",,35.293405,119.345716,57,32,26,6,11,3,2,-10,1026,27,3,20150106170000
368,"Jinma Industrial Park, Rizhao",,35.373339,119.514108,72,47,25,12,13,4,2,-10,1026,27,3,20150106170000
369,Rizhao,,35.416089,119.532316,76,54,30,12,8,4,2,-10,1026,27,3,20150106170000
370,"Vegetable oil factory, Laiwu",,36.205028,117.700917,124,37,29,28,41,7,0,-18,1028,13,2,20150106170000
371,"Nursing home, Laiwu",,36.266067,117.652769,159,37,15,8,26,13,2,-17,1026,11,2,20150106170000
372,"Xinyi middle school, Laiwu",,36.245086,117.739025,109,32,14,9,15,10,2,-17,1026,11,2,20150106170000
373,"Risheng International School, Laiwu",,36.208125,117.730959,112,38,6,12,19,8,2,-17,1026,11,2,20150106170000
374,"Gangcheng EPA, Laiwu",,36.066836,117.871823,109,45,5,12,30,18,2,-17,1026,11,2,20150106170000
375,"City EPA, Laiwu",,36.228913,117.694797,76,42,19,19,30,12,2,-17,1026,11,2,20150106170000
376,Laiwu,,36.213688,117.682612,117,42,38,20,37,6,2,-17,1026,11,2,20150106170000
377,"Lunan Pharmaceutical Factory, Linyi",,35.061671,118.299527,153,100,27,37,38,7,1,-12,0,35,2,20150106170000
378,"Yihe compound, Linyi",,35.056752,118.34739,158,95,35,26,19,6,1,-11,0,36,2,20150106170000
379,"Linyi University, Linyi",,35.114777,118.293414,124,87,20,22,17,16,2,-10,0,38,2,20150106170000
380,City EPA,Nanfang,35.104871,118.353518,119,69,16,16,20,13,2,-10,0,38,2,20150106170000
381,"Xinguang woolen factory, Linyi",,34.981004,118.282,132,90,21,37,26,18,0,-13,0,34,2,20150106170000
382,"Hongfu Baijiu Factory, Linyi",,34.998788,118.257275,225,350,10,42,46,62,12,-3,0,32,2,20150106170000
384,"Hedong insurance company, Linyi",,35.089354,118.40812,132,51,23,12,10,16,-1,-6,0,64,4,20150106170000
385,"Jianghua vehicule center, Linyi",,35.010082,118.435749,76,65,13,14,18,9,2,-10,0,38,2,20150106170000
386,Linyi,,35.10428,118.362202,151,99,27,25,17,16,1,-11,0,36,2,20150106170000
387,"Heima group, Dezhou",,37.466063,116.314134,176,103,21,31,28,15,-2,-12,1028,31,1,20150106170000
388,"Monitoring station, Dezhou",,37.433107,116.377312,57,34,17,12,14,6,1,-20,1031,8,4,20150106170000
389,"Supervision Station, Dezhou",,37.449689,116.324709,155,77,20,28,22,12,-2,-12,1028,31,1,20150106170000
390,"Huayu technical school, Dezhou",,37.462809,116.357559,87,39,18,13,19,4,3,-20,1028,7,2,20150106170000
391,"Shuangyi group, Dezhou",,37.478848,116.316362,168,68,16,23,32,5,3,-20,1028,7,2,20150106170000
392,Dezhou,,37.434959,116.363366,91,79,16,13,21,16,0,-18,1029,13,7,20150106170000
679,Xiamen,,24.477187,118.094402,230,126,29,50,12,14,16,15,1015,94,1,20150106180000
393,"Dongchang District Government, Liaocheng",,36.444473,115.971733,74,50,12,22,50,12,-2,-20,1031,12,3,20150106170000
394,"Light Machinery Factory No. 2, Liaocheng",,36.456788,116.002383,164,79,20,37,46,8,-1,-14,1029,22,1,20150106170000
395,"City committee communist party school, Liaocheng",,36.479537,115.989288,144,77,13,37,41,11,-1,-14,1029,22,1,20150106170000
396,"Customs, Liaocheng",,36.431933,115.956974,55,36,15,23,57,8,1,-20,1031,9,3,20150106170000
397,"Hongshun Garden, Liaocheng",,36.471124,115.960319,59,33,8,11,10,14,2,-18,1029,10,1,20150106170000
398,"BDA, Liaocheng",,36.459407,116.043621,65,31,10,17,35,6,2,-18,1029,10,1,20150106170000
399,Liaocheng,,36.456792,115.991051,78,59,5,18,19,35,0,-22,1023,16,7,20150106170000
400,"City EPA, Binzhou",,37.38024,118.026895,70,48,20,17,14,20,-6,-14,1031,42,0,20150106170000
401,"Beizhong new school, Binzhou",,37.38374,117.988996,85,48,34,33,27,9,-1,-13,1029,27,1,20150106170000
402,"No.2 water factory, Binzhou",,37.36155,118.002648,132,60,14,23,25,21,1,-17,1028,13,0,20150106170000
403,"Keling Chemical factory, Binzhou",,37.396138,117.943609,-,-,-,-,-,-,-,-,0,-,-,20150106170000
404,"Yinhe logistics company, Binzhou",,37.356122,117.943326,63,18,17,9,12,15,3,-17,1028,11,2,20150106170000
405,"Bilin compond, Binzhou",,37.36815,117.978964,59,16,21,13,18,12,1,-17,1028,13,0,20150106170000
406,Binzhou,,37.382639,117.976606,93,60,13,15,21,38,-2,-10,1029,38,0,20150106170000
407,"Bureau of Meteorology, Heze",,35.248625,115.428775,91,56,34,14,15,5,2,-22,0,13,2,20150106170000
408,"Sewage treatment plant, Heze",,35.222517,115.531511,34,52,20,11,17,12,4,-19,0,16,1,20150106170000
409,"Municipal CPPCC, Heze",,35.237125,115.480591,151,68,24,18,22,11,1,-21,0,16,1,20150106170000
410,"Huarun Pharmaceutical Company, Heze",,35.261463,115.524873,127,66,26,16,18,7,2,-22,0,13,2,20150106170000
411,"Heze University, Heze",,35.269706,115.460934,134,68,20,11,18,15,4,-18,0,18,3,20150106170000
412,Heze,,35.233354,115.486503,82,52,38,9,12,5,4,-19,0,16,1,20150106170000
413,"Shiji Park, Shijiazhuang",,38.03155,114.547873,151,63,12,23,20,27,-4,-15,1028,43,2,20150106170000
414,"Xinan College, Shijiazhuang",,38.012764,114.473163,157,65,11,21,23,14,-4,-15,1028,43,2,20150106170000
415,"Chemical College, Shijiazhuang",,38.055503,114.569816,127,53,12,20,35,38,-4,-15,1028,43,2,20150106170000
416,"Worker hospital, Shijiazhuang",,38.051784,114.461209,70,47,11,21,8,13,-4,-15,1028,43,2,20150106170000
417,"Northwest Water Company, Shijiazhuang",,38.140638,114.508038,99,78,16,26,18,19,-4,-15,1028,43,2,20150106170000
418,"High-tech zone, Shijiazhuang",,38.040482,114.610775,153,76,65,34,29,9,-2,-17,1026,31,2,20150106170000
419,"Fenglong Montain, Shijiazhuang",,37.910829,114.360264,151,92,30,6,31,8,-4,-16,1027,40,2,20150106170000
1130,"Zhengding Unicom, Shijiazhuang",,38.159458,114.59879,151,98,8,33,53,10,0,-19,1031,23,4,20150106170000
1131,"Luancheng Communications, Shijiazhuang",,37.906534,114.638785,147,62,10,26,36,27,-4,-15,1028,43,2,20150106170000
1132,"Gaocheng Experimental School, Shijiazhuang",,38.039518,114.867812,85,56,6,12,21,18,2,-22,1030,16,5,20150106170000
1133,"Wuji EPA, Shijiazhuang",,38.17862,114.997012,102,66,13,12,35,13,2,-22,1030,16,5,20150106170000
1134,"Shenze Power Supply Bureau, Shijiazhuang",,38.197674,115.219126,164,103,9,22,36,21,0,-19,1031,23,4,20150106170000
1135,"Zhaoxian EPA, Shijiazhuang",,37.77171,114.775957,107,62,11,20,44,12,0,-19,1031,23,4,20150106170000
1136,"Gaoyi County City Hall, Shijiazhuang",,37.623535,114.612729,161,72,5,25,61,29,0,-19,1031,23,4,20150106170000
1137,"Zanhuang County City Hall, Shijiazhuang",,37.672898,114.398269,175,118,6,17,54,13,2,-22,1030,16,5,20150106170000
561,Qianhu water plant,,29.774416,121.648136,53,27,23,10,6,10,7,1,1022,66,4,20150106170000
1138,"Jingxing Bureau of Meteorology, Shijiazhuang",,38.038788,114.158406,175,177,15,38,71,15,-4,-15,1028,43,2,20150106170000
1139,"Pingshan Ye River, Shijiazhuang",,38.266657,114.210275,107,63,3,2,10,6,-4,-15,1028,43,2,20150106170000
420,Shijiazhuang,,38.042926,114.520834,177,99,21,79,38,33,1,-19,1026,22,3,20150106170000
421,"No. 12 middle school, Tangshan",,39.659306,118.190271,,,,,,,-,-,0,-,-,20150106170000
422,"Ceramics Company, Tangshan",,39.669255,118.225185,70,50,28,9,7,7,-3,-22,1028,22,5,20150106170000
423,"Commodities Bureau, Tangshan",,39.642301,118.191265,164,98,26,29,38,7,0,-21,1027,20,3,20150106170000
424,"Leidazhanzi Station, Tangshan",,39.644375,118.150383,168,102,29,40,42,8,2,-22,1026,16,4,20150106170000
425,"Supply and marketing cooperatives, Tangshan",,39.632334,118.17232,76,58,25,13,7,6,-3,-22,1028,22,5,20150106170000
1140,"Guye District City Hall, Tangshan",,39.741379,118.460246,174,113,16,38,44,4,1,-20,1027,20,2,20150106170000
1141,"Kaiping Stations, Tangshan",,39.675246,118.275149,176,95,18,30,27,9,1,-21,1027,18,3,20150106170000
1142,"Fengnan District City Hall, Tangshan",,39.5834,118.097454,170,90,18,11,18,8,1,-21,1027,18,3,20150106170000
1143,"Fengrun City Hall, Tangshan",,39.840355,118.175338,151,59,20,25,32,10,0,-23,1029,17,8,20150106170000
1144,"Qianxi EPA, Tangshan",,40.153339,118.317265,119,44,24,17,49,9,0,-23,1029,17,8,20150106170000
1145,"Caofeidian Xinli  Primary School, Tangshan",,39.291232,118.462182,91,71,12,31,24,7,-3,-21,1029,24,4,20150106170000
1146,"Zunhua EPA, Tangshan",,40.206249,117.997315,184,118,25,30,63,11,1,-20,1027,20,2,20150106170000
1147,"Qianan No.1 middle school, Tangshan",,40.004248,118.717055,55,43,31,17,9,2,-2,-22,1030,21,5,20150106170000
1266,"Luannan County , Tangshan",,39.511132,118.686928,109,65,17,22,18,14,2,-22,1026,16,4,20150106170000
1267,"Yutian County , Tangshan",,39.908249,117.751417,80,70,25,28,18,5,2,-22,1026,16,4,20150106170000
426,Tangshan,,39.632175,118.186472,59,64,24,28,24,5,-3,-21,1029,24,4,20150106170000
427,"City Monitoring Station, Qinhuangdao",,39.958109,119.607773,117,77,15,45,38,7,,,0,,,20150106170000
428,"Beidaihe, Qinhuangdao",,39.829209,119.53194,127,77,8,24,26,12,,,0,,,20150106170000
429,"Shanhai Pass, Qinhuangdao",,40.019298,119.767898,127,77,38,10,20,12,,,0,,,20150106170000
430,"Contruction Plazz, Qinhuangdao",,39.943187,119.542912,74,93,17,33,39,5,,,0,,,20150106170000
431,"City government, Qinhuangdao",,39.93711,119.612769,232,212,11,36,40,56,,,0,,,20150106170000
1148,"Qinglong EPA, Qinhuangdao",,40.419223,118.958002,76,49,22,1,15,2,,,0,,,20150106170000
1149,"Changli EPA, Qinhuangdao",,39.714369,119.173237,124,94,16,38,21,15,,,0,,,20150106170000
1268,"Lulong County Bureau of Meteorology , Qinhuangdao",,39.901091,118.904857,109,54,21,4,13,9,,,0,,,20150106170000
432,Qinhuangdao,,39.936485,119.606263,78,93,17,33,39,5,,,0,,,20150106170000
433,"CongTai Park, Handan",,36.620197,114.501891,85,54,22,4,8,3,,,0,,,20150106170000
434,"City EPA, Handan",,36.618145,114.518822,5,24,21,17,8,7,,,0,,,20150106170000
435,"East Sewage Factory, Handan",,36.616064,114.548714,102,51,18,8,12,3,,,0,,,20150106170000
436,"Mine Hospital, Handan",,36.578149,114.509854,25,51,20,11,8,1,,,0,,,20150106170000
1150,"Fengfeng mine Inland Revenue Department, Handan",,36.423085,114.245994,195,101,11,21,54,16,,,0,,,20150106170000
1151,"Shexian EPA, Handan",,36.589084,113.692341,154,74,8,28,57,21,,,0,,,20150106170000
1152,"Ci County Vocational Education Center, Handan",,36.380247,114.390119,162,80,11,27,50,11,,,0,,,20150106170000
1153,"Yongnian government guesthouse, Handan",,36.783297,114.502905,139,81,-,22,25,6,,,0,,,20150106170000
1154,"Wuan BDA, Handan",,36.686223,114.269009,159,97,7,31,53,18,,,0,,,20150106170000
1085,Handan,,36.625683,114.544812,74,40,9,8,7,4,,,0,,,20150106170000
437,"Road and Bridge Corporation, Xingtai",,37.096415,114.538799,109,85,17,29,22,8,0,-22,1027,8,5,20150106170000
438,"Dahuo fontain, Xingtai",,37.097563,114.488001,112,56,19,24,16,9,2,-22,1028,6,4,20150106170000
439,"Xingtai Normal College, Xingtai",,37.053404,114.531819,112,68,11,23,26,8,2,-22,1028,6,4,20150106170000
440,"Environment protection office, Xingtai",,37.06253,114.490985,168,136,7,21,35,40,0,-16,1030,16,2,20150106170000
1155,"Cultural centers within the mound, Xingtai",,37.293569,114.524873,-,-,-,-,-,-,-,-,0,-,-,20150106170000
383,Xingtai,,37.071066,114.510749,117,79,16,18,31,7,0,-22,1027,8,5,20150106170000
441,"City Monitoring Station, Baoding",,38.871737,115.527103,153,89,19,18,67,5,1,-20,1027,9,2,20150106170000
442,"Surface water Company, Baoding",,38.842891,115.467326,182,94,23,24,45,11,1,-20,1027,9,2,20150106170000
443,"Huadian II, Baoding",,38.896748,115.528102,166,78,23,22,55,5,1,-20,1027,9,2,20150106170000
444,"Reception Center, Baoding",,38.911905,115.477301,129,54,18,14,13,34,4,-17,1026,9,5,20150106170000
445,"Film Factory, Baoding",,38.876949,115.448383,186,139,25,32,20,10,1,-20,1027,9,2,20150106170000
446,"Natatorium, Baoding",,38.863815,115.499212,161,119,27,28,37,9,1,-20,1027,9,2,20150106170000
1156,"Qingyuan City Hall, Baoding",,38.771758,115.502189,144,61,3,15,14,18,0,-21,1031,8,4,20150106170000
1157,"Xushui EPA, Baoding",,39.025781,115.668023,180,127,9,30,56,18,-2,-18,1028,16,2,20150106170000
1158,"Zhuozhou Monitoring Stations, Baoding",,39.493241,116.040187,127,51,8,10,49,15,0,-21,1031,8,4,20150106170000
1159,"Gaobeidian EPA, Baoding",,39.3329,115.885891,226,153,12,36,59,17,-2,-18,1028,16,2,20150106170000
447,Baoding,,38.874791,115.471124,216,168,26,34,34,16,-2,-18,1028,16,2,20150106170000
448,"Century Compound, Zhangjiakou",,40.770279,114.909106,117,63,25,18,58,8,-11,-22,1035,22,2,20150106170000
449,"North Pumping Station, Zhangjiakou",,40.874362,114.910119,97,64,28,11,32,15,-1,-22,1029,8,3,20150106170000
450,"Hardware Warehouse, Zhangjiakou",,40.81232,114.887119,132,71,27,21,18,22,-1,-22,1029,8,3,20150106170000
451,"Tanji Chang, Zhangjiakou",,40.796301,114.89811,68,53,27,14,28,6,-5,-20,1031,15,3,20150106170000
1160,"Xiahuayuan EPA, Zhangjiakou",,40.509345,115.302442,134,69,14,26,57,5,-5,-20,1031,15,3,20150106170000
1161,"Huaian EPA, Zhangjiakou",,40.68157,114.398646,57,36,21,1,94,10,-5,-22,1033,12,2,20150106170000
1162,"Huailai Fuqian Primary School, Zhangjiakou",,40.422204,115.530285,70,56,11,10,52,5,-5,-22,1033,12,2,20150106170000
1269,"Zhangbei EPA , Zhangjiakou",,41.166775,114.732369,97,40,18,9,10,3,-1,-22,1029,8,3,20150106170000
1270,"Kangbao County Environmental Protection Agency , Zhangjiakou",,41.837866,114.591246,68,44,24,3,3,2,-1,-22,1029,8,3,20150106170000
1271,"Guyuan County welfare , Zhangjiakou",,41.669984,115.687401,97,33,17,8,9,4,-11,-22,1035,22,2,20150106170000
1272,"Shangyi County Environmental Protection Bureau , Zhangjiakou",,41.086638,113.984688,114,57,28,16,16,15,-1,-22,1029,8,3,20150106170000
1273,"Yuxian Secondary School , Zhangjiakou",,39.84699,114.601986,207,115,9,25,80,24,-11,-22,1035,22,2,20150106170000
1274,"Yang County Vocational Education Center , Zhangjiakou",,40.106343,114.134732,218,139,21,25,41,7,-11,-22,1035,22,2,20150106170000
1275,"Wan county Environmental Protection Agency , Zhangjiakou",,40.770459,114.75033,65,30,22,7,13,5,-11,-22,1035,22,2,20150106170000
1276,"Zhuolu County Environmental Protection Agency , Zhangjiakou",,40.374273,115.221393,55,28,24,6,12,5,-5,-22,1033,12,2,20150106170000
452,Zhangjiakou,,40.825744,114.893659,102,47,27,5,19,6,-5,-20,1031,15,3,20150106180000
453,"Railway, Chengde",,40.917557,117.972331,205,113,35,34,39,5,-1,-21,1028,10,4,20150106180000
454,"Cultural Center, Chengde",,40.974625,117.824437,177,103,35,17,19,11,-10,-23,1031,18,1,20150106180000
455,"Bank of China, Chengde",,40.985582,117.958304,129,73,34,25,10,7,-10,-23,1031,18,1,20150106180000
456,"BDA, Chengde",,40.937567,117.969325,104,71,34,14,11,18,-10,-23,1031,18,1,20150106180000
457,"Ligong, Chengde",,41.012579,117.94428,50,21,32,17,15,2,-10,-23,1031,18,1,20150106180000
1163,"Chengde County EPA, Chengde",,40.776643,118.17646,59,34,32,6,16,0,-10,-23,1031,18,1,20150106180000
1164,"Xinglong County City Hall, Chengde",,40.424301,117.513488,53,23,29,6,8,3,-8,-27,1030,9,4,20150106180000
1165,"Luanping EPA, Chengde",,40.950792,117.350715,168,73,16,29,19,7,-10,-23,1031,18,1,20150106180000
1166,"Fengning County City Hall, Chengde",,41.216739,116.658037,170,81,15,21,48,12,-4,-21,1028,12,1,20150106180000
1277,"Longhua EPA , Chengde",,41.311956,117.739605,97,40,18,12,30,6,-2,-22,1029,9,4,20150106180000
458,Chengde,,40.955652,117.968737,151,68,34,27,24,15,-10,-23,1031,18,1,20150106180000
459,"Municipal EPB, Cangzhou",,38.323507,116.876746,82,47,16,17,17,5,-6,-22,1030,28,5,20150106180000
460,"Cangxian Urban Construction Bureau, Cangzhou",,38.299495,116.890734,122,62,15,23,52,14,-6,-22,1029,28,4,20150106180000
461,"TV Broadcast Station, Cangzhou",,38.325525,116.863761,97,50,14,13,20,10,2,-22,1029,16,9,20150106180000
1167,"Qing County City Hall, Cangzhou",,38.589643,116.815876,46,30,-,9,34,7,3,-22,1027,15,8,20150106180000
1168,"Poyoushi City Hall, Cangzhou",,38.089516,116.590575,117,48,8,15,48,7,2,-22,1029,16,9,20150106180000
1169,"Huanghua Finance Bureau Training Center, Cangzhou",,38.377793,117.343356,76,11,8,12,15,3,2,-22,1029,16,9,20150106180000
462,Cangzhou,,38.305035,116.844625,112,57,20,20,20,13,0,-20,1027,21,3,20150106180000
463,"Environmental Monitoring Supervision Center, Langfang",,39.558157,116.720995,30,32,12,5,2,4,-3,-22,1028,22,5,20150106180000
464,"TCM Medical Material Company, Langfang",,39.519096,116.689914,57,31,14,14,15,4,-3,-21,1029,24,4,20150106180000
465,"BDA, Langfang",,39.576175,116.779041,134,67,19,13,5,5,2,-21,1026,17,4,20150106180000
466,"North China Institute of Aerospace, Langfang",,39.53517,116.743027,158,79,12,21,24,7,1,-20,1027,20,2,20150106180000
1170,"Guan Party School, Langfang",,39.446185,116.311026,99,49,19,22,8,8,2,-22,1029,16,9,20150106180000
1171,"Xianghe EPA, Langfang",,39.76725,117.015252,167,86,21,26,22,6,2,-22,1026,16,4,20150106180000
1172,"Wenan County EPA, Langfang",,38.880927,116.47001,193,108,23,29,41,15,0,-20,1027,21,3,20150106180000
1173,"Three Rivers Department of Transportation, Langfang",,39.989419,117.091528,132,87,27,27,36,6,2,-22,1026,16,4,20150106180000
1278,"Yongqing EPA , Langfang",,39.329071,116.510917,191,126,13,39,29,10,1,-21,1027,18,3,20150106180000
1279,"Dacheng EPA, Langfang",,38.712628,116.665751,144,60,20,16,22,10,2,-22,1029,16,9,20150106180000
467,Langfang,,39.539148,116.689668,57,31,14,14,15,4,-3,-21,1029,24,4,20150106180000
468,"Hengshui City EPB, Hengshui",,37.739679,115.695929,68,57,17,15,17,10,2,-19,0,18,2,20150106180000
469,"Environmental Monitoring Station, Hengshui",,37.738593,115.648837,117,55,14,23,28,8,-3,-17,0,31,2,20150106180000
470,"Electrical Machine North Factory, Hengshui",,37.758686,115.70094,78,57,21,13,18,10,2,-19,0,18,2,20150106180000
1174,"Anping EPA, Hengshui",,38.238559,115.537988,161,95,10,20,18,10,2,-19,0,18,2,20150106180000
1175,"Jizhou EPA, Hengshui",,37.548552,115.58679,82,44,17,19,17,5,2,-19,0,18,2,20150106180000
1280,"Zaoqiang EPA, Hengshui",,37.520698,115.714936,124,63,44,15,35,5,2,-19,0,18,2,20150106180000
1281,"Wuyi EPA, Hengshui",,37.801554,115.898697,151,64,6,23,3,3,2,-19,0,18,2,20150106180000
1282,"Wuqiang EPA , Hengshui",,38.03557,115.959767,170,92,10,20,2,3,0,-21,0,17,2,20150106180000
1283,"Raoyang EPA , Hengshui",,38.230652,115.741041,153,87,11,15,16,4,1,-21,0,17,2,20150106180000
1284,"Gucheng County , Hengshui",,37.347569,115.966707,80,41,25,9,23,6,2,-19,0,18,2,20150106180000
666,"Songshan Road, Chifeng",,42.171487,118.89501,53,30,17,12,54,5,-11,-24,1029,18,3,20150106180000
471,Hengshui,,37.739562,115.676066,149,81,25,29,30,58,0,-22,0,16,2,20150106180000
1176,"Xinji City Hall, Xinji",,37.949711,115.230084,170,98,4,35,55,13,0,-18,0,23,2,20150106180000
472,"Fukang road, Tianjin",,39.098136,117.157621,159,109,26,44,40,11,1,-19,1027,22,3,20150106180000
473,"Nankou road, Tianjin",,39.174022,117.199688,161,105,19,43,59,16,1,-19,1027,22,3,20150106180000
474,"Qinjian street, Tianjin",,39.166588,117.15104,59,27,21,11,7,4,3,-22,1028,15,8,20150106180000
475,"Nanjing Road, Tianjin",,39.120958,117.195112,160,80,28,28,32,17,-1,-18,1027,27,1,20150106180000
476,"Dazhigu No.8 road, Tianjin",,39.111811,117.25147,21,14,18,10,11,8,-4,-23,1029,22,6,20150106180000
477,"Qianjin street, Tianjin",,39.09371,117.207981,55,54,21,7,10,1,-4,-23,1029,22,7,20150106180000
478,"Huaihe street, Tianjin",,39.227167,117.191293,63,25,19,4,2,7,-1,-22,1027,19,8,20150106180000
479,"Xiangshan street, Tianjin",,39.134752,117.275125,68,37,19,12,10,12,-1,-22,1027,19,8,20150106180000
480,"Yuejin Road, Tianjin",,39.088177,117.320884,34,12,17,10,15,10,-1,-22,1027,19,8,20150106180000
482,"No.4 street, Tianjin",,39.035228,117.713424,76,40,24,29,89,21,2,-21,1026,17,4,20150106180000
483,"Yongming road, Tianjin",,38.840392,117.463805,46,21,22,11,9,8,-7,-22,1029,30,3,20150106180000
484,"Xinhua street, Tianjin",,39.138671,117.010083,170,97,9,34,39,19,0,-20,1027,21,3,20150106180000
485,"Jingu Road, Tianjin",,38.985659,117.381254,38,30,18,17,17,10,-7,-22,1029,30,3,20150106180000
486,"Tanggu Yingkou street, Tianjin",,39.021768,117.656454,42,7,17,18,13,9,-6,-22,1029,28,4,20150106180000
487,"Hexi Yijing road, Tianjin",,39.248392,117.798043,42,25,21,7,5,4,-3,-23,1029,21,7,20150106180000
488,"Jianshe Road, Tianjin",,39.720075,117.310588,70,82,13,26,52,6,-2,-22,1030,21,5,20150106180000
489,"Quanzhou South road, Tianjin",,39.373857,117.050329,25,14,21,8,8,8,-4,-23,1029,22,7,20150106180000
490,"Donghuan road, Tianjin",,40.043144,117.451062,76,61,13,7,11,11,3,-22,1028,15,8,20150106180000
491,"Tuanpowa, Tianjin",,38.920418,117.16299,168,87,13,28,16,14,1,-19,1027,22,3,20150106180000
493,"Beiwei No.2 road, Tianjin",,38.943857,116.920624,61,35,12,13,14,6,3,-22,1028,15,8,20150106180000
494,"Haitai fazhan No.2 road, Tianjin",,39.079608,117.096583,46,13,16,18,58,6,-7,-22,1029,30,3,20150106180000
495,"Hangtian road, Tianjin",,39.152244,117.381309,166,98,25,38,44,14,1,-21,1027,18,3,20150106180000
496,"Hanbei road, Tianjin",,39.159768,117.770477,59,18,21,3,5,14,3,-22,1028,15,8,20150106180000
497,"Baobai highway, Tianjin",,39.51757,117.349635,165,92,11,31,21,18,0,-20,1027,21,3,20150106180000
498,Tianjin,,39.085164,117.207281,151,90,20,43,46,7,1,-20,1027,20,2,20150106180000
499,"Wolong bridge, Hangzhou",,30.24371,120.132762,127,54,33,21,4,13,3,0,1026,81,2,20150106180000
500,"Hemu primary school, Hangzhou",,30.309669,120.124507,193,79,21,12,11,21,14,6,1017,59,3,20150106180000
501,"Zhejiang Agricultural University, Hangzhou",,30.265601,120.197583,181,87,54,10,9,14,14,6,1017,59,3,20150106180000
502,"Xiasha, Hangzhou",,30.303516,120.352618,99,48,29,26,5,6,3,0,1026,81,4,20150106180000
503,"Yunqi, Hangzhou",,30.178555,120.093142,239,67,36,33,10,14,8,4,1024,76,4,20150106180000
504,"Xixi, Hangzhou",,30.272425,120.068144,185,74,21,18,12,13,13,6,1017,63,4,20150106180000
505,"Chengxiang town, Hangzhou",,30.179493,120.274184,281,136,18,33,14,15,8,5,1024,81,4,20150106180000
506,"Qiandao lake, Hangzhou",,29.638139,119.031092,78,13,20,14,7,14,5,0,1024,70,4,20150106180000
507,"Linping town, Hangzhou",,30.415948,120.305059,89,49,27,16,9,12,5,1,1024,76,5,20150106180000
508,"Fuyang monitoring station, Hangzhou",,30.048419,119.963469,57,36,33,18,6,9,5,1,1024,76,3,20150106180000
509,"No.2 Middle School, Hangzhou",,30.044303,119.956356,91,58,24,12,7,9,3,0,1027,81,1,20150106180000
510,"City Hall, Hangzhou",,30.234185,119.723503,299,87,62,16,12,10,10,4,1020,66,6,20150106180000
511,"No. 4 middle school, Hangzhou",,30.229428,119.699591,167,75,2,34,8,10,12,4,1018,58,5,20150106180000
512,Hangzhou,,30.271756,120.159765,129,62,131,21,5,9,4,1,1026,81,3,20150106180000
513,"City Station, Wenzhou",,28.009715,120.679129,222,150,19,42,13,13,11,8,0,83,4,20150106180000
514,"Ouhai, Wenzhou",,28.001846,120.641982,227,161,16,40,15,11,11,8,0,83,4,20150106180000
515,"Longwan, Wenzhou",,27.968122,120.768393,153,73,12,33,16,13,12,9,0,78,3,20150106180000
516,"Nanpu, Wenzhou",,27.981763,120.683685,222,149,19,33,14,17,11,8,0,83,4,20150106180000
517,Wenzhou,,27.990985,120.703425,195,124,22,24,11,17,10,7,0,84,4,20150106180000
518,"Monitoring station, Jiaxing",,30.75437,120.767373,263,175,29,34,22,20,9,5,1020,76,8,20150106180000
519,"Jiaxing University, Jiaxing",,30.745099,120.735004,262,166,27,29,16,16,8,5,1022,81,8,20150106180000
520,"Qinghe Primary School, Jiaxing",,30.775685,120.747969,294,0,24,38,28,17,9,5,1020,76,8,20150106180000
521,Jiaxing,,30.751627,120.762862,61,29,23,17,10,10,6,-1,1023,61,7,20150106180000
522,"Chengbei water plant, Huzhou",,30.891155,120.096593,302,0,16,33,12,19,9,5,1020,76,8,20150106180000
523,"Jishan new village, Huzhou",,30.859939,120.120168,305,0,15,26,11,20,9,5,1020,76,8,20150106180000
524,"Town west water plant, Huzhou",,30.862371,120.084577,294,160,17,38,13,15,11,4,1017,62,5,20150106180000
525,Huzhou,,30.892304,120.091694,151,51,16,14,2,10,3,1,1025,87,4,20150106180000
526,"Donghu middle school, Shaoxing",,29.990447,120.647547,107,54,5,24,9,14,5,1,1024,76,5,20150106180000
527,"City EPA station, Shaoxing",,30.001695,120.584318,245,181,24,36,16,12,9,5,1023,76,4,20150106180000
528,"Chengdong BDA committee, Shaoxing",,29.986643,120.613578,308,166,21,35,13,12,10,4,1020,66,6,20150106180000
529,"Paojiang station, Shaoxing",,30.07574,120.62154,312,258,26,32,23,12,9,5,1023,76,4,20150106180000
530,"Shaoxing technical school, Shaoxing",,29.930983,120.577131,293,193,7,13,9,12,9,5,1023,76,4,20150106180000
531,"Library, Shaoxing",,29.706266,120.253183,292,149,16,31,13,22,9,5,1023,76,4,20150106180000
532,"Transporation management station, Shaoxing",,29.726405,120.221602,152,0,4,16,6,13,5,1,1024,76,3,20150106180000
533,"Dongpu Town Governement, Shaoxing",,30.049601,120.539893,97,47,8,22,8,5,3,0,1027,81,3,20150106180000
534,Shaoxing,,29.993122,120.590182,152,85,23,25,16,13,7,3,1022,76,6,20150106180000
535,"City Monitoring Station, Jinhua",,29.100031,119.690373,61,36,5,25,10,15,5,2,0,82,3,20150106180000
536,"No.15 middle school, Jinhua",,29.074022,119.652121,270,155,4,46,36,22,10,8,0,87,3,20150106180000
537,"No.4 middle school, Jinhua",,29.110109,119.653654,220,137,4,34,26,20,9,5,0,73,4,20150106180000
538,"Beiyuan, Jinhua",,29.332898,120.083351,244,191,15,53,54,23,13,7,0,62,1,20150106180000
539,"Jiangdong, Jinhua",,29.302486,120.095291,252,202,25,54,53,25,14,6,0,60,1,20150106180000
540,Jinhua,,29.076083,119.65215,99,53,4,28,9,17,6,3,0,82,4,20150106180000
541,"EPA building, Quzhou",,28.937291,118.876081,129,61,15,22,6,21,7,7,1021,100,5,20150106180000
542,"Experimental school, Quzhou",,28.961502,118.880916,175,93,31,31,52,22,11,7,1017,68,1,20150106180000
543,"Quzhou University, Quzhou",,28.971452,118.860052,187,120,11,26,20,23,11,7,1017,68,1,20150106180000
544,Quzhou,,28.966994,118.864252,174,99,8,26,8,18,10,10,1020,100,6,20150106180000
545,"Putuo east port, Zhoushan",,29.951412,122.317679,53,38,26,6,2,16,7,1,1023,66,4,20150106180000
546,"Dinghai tanfeng, Zhoushan",,30.018014,122.126566,46,21,32,6,2,10,7,5,1022,87,4,20150106180000
547,Zhoushan,,29.983049,122.210763,30,29,28,6,2,5,6,0,1024,66,4,20150106180000
548,"Taizhou EPA building, Taizhou",,28.651216,121.42331,197,126,33,20,9,9,12,8,0,74,3,20150106180000
549,"Luqiao Tian Yang Wang, Taizhou",,28.574364,121.381194,179,111,27,20,7,21,12,8,0,79,3,20150106180000
550,"Huangyan EPA building, Taizhou",,28.656151,121.285064,139,62,29,23,5,10,12,8,0,79,3,20150106180000
551,"Yu Zhuang Qian, Lishui",,28.419638,119.883884,179,92,22,39,27,11,10,7,1016,73,0,20150106180000
552,"Monitoring station building, Lishui",,28.444379,119.923103,206,141,20,50,33,38,12,7,1015,60,0,20150106180000
553,"Liandu primary school, Lishui",,28.450912,119.939332,144,53,12,21,5,14,10,6,1020,71,3,20150106180000
554,Lishui,,28.464224,119.927201,38,22,10,17,4,12,7,5,1024,83,2,20150106180000
1248,Jingningxian,,27.977454,119.634837,184,123,13,31,12,26,,,,,,20150106180000
555,Taigu Primary School,,29.864178,121.60022,260,169,11,44,26,13,12,4,1018,58,5,20150106180000
556,Qianhu shuihan,,29.862459,121.5328,291,199,7,46,23,11,10,5,1021,71,4,20150106180000
557,Sanjiang secondary schools,,29.891563,121.568427,63,32,24,16,4,7,3,2,1025,93,3,20150106180000
558,Longsai Hospital,,29.957301,121.726734,93,44,25,23,6,6,3,2,1025,93,3,20150106180000
559,Beilun District EPB,,29.911633,121.850773,246,172,13,50,29,13,12,4,1018,58,5,20150106180000
560,Wanli University,,29.821314,121.574364,50,29,23,12,6,8,6,0,1024,66,3,20150106180000
667,Chifeng,,42.259752,118.893027,72,25,21,21,52,6,-11,-24,1029,18,3,20150106180000
562,Municipal management station,,29.899182,121.626691,298,175,7,45,22,18,10,5,1021,71,4,20150106180000
1177,Daxie Literary Museum,,29.9027,121.986447,53,25,28,9,8,4,3,2,1025,93,3,20150106180000
1178,Cixi EPB,,30.165807,121.248991,97,36,17,13,6,9,3,2,1025,93,3,20150106180000
1179,Cixi Experimently Primary School,,30.179808,121.268672,97,51,18,11,6,6,3,2,1025,93,3,20150106180000
1180,"Yongsan Park, Yuyao",,30.050842,121.162477,293,165,5,30,9,17,10,5,1022,71,4,20150106180000
1181,"Qilupu Water Company, Yuyao",,30.039112,121.133416,55,51,19,12,7,6,3,2,1025,93,3,20150106180000
1182,Fenghua EPB,,29.666557,121.42069,315,183,18,38,18,13,10,5,1022,71,4,20150106180000
1183,"Yuelong station, Ninghai",,29.296505,121.445872,57,27,14,13,5,5,3,2,1025,93,3,20150106180000
1184,"Wenfeng Primary School, Xiangshan",,29.470908,121.889544,50,39,20,7,4,6,6,0,1024,66,3,20150106180000
1185,"Chengnan Primary School, Ninghai",,29.293812,121.43666,78,32,15,13,5,7,3,2,1025,93,3,20150106180000
1186,"Xingang Primary School, Xiangshan",,29.203878,121.952514,85,54,23,8,5,8,7,0,1023,61,3,20150106180000
1356,Haishu City Monitoring Center,,29.86835,121.539341,76,47,17,11,3,4,3,2,1025,93,3,20150106180000
1357,Fenghua Xikou government,,29.693164,121.29331,53,20,19,9,2,7,3,2,1025,93,3,20150106180000
1294,Ningbo,,29.865766,121.548164,195,123,22,32,21,14,15,8,1016,63,3,20150106180000
1187,Fuyang,,30.046157,119.96468,156,156,30,31,13,20,12,4,1018,58,5,20150106180000
1188,Yiwu,,29.304353,120.079794,284,245,9,52,62,23,12,8,0,76,2,20150106180000
1189,Zhuji,,29.711185,120.240748,181,117,11,39,21,28,14,6,1016,59,3,20150106180000
563,"Shanxi Road , Nanjing",,32.06795,118.779216,91,58,14,12,2,0,6,-2,1025,57,5,20150106180000
564,"Ruijin Road , Nanjing",,32.029321,118.80817,97,63,8,18,5,0,1,0,1027,93,2,20150106180000
565,"Xuanwu Lake, Nanjing",,32.075423,118.800188,89,61,14,19,6,0,2,0,1027,87,0,20150106180000
566,"Olympic Center, Nanjing",,32.007171,118.742217,296,188,8,42,30,0,9,5,1019,76,4,20150106180000
567,"Xianlin University Town , Nanjing",,32.106958,118.919882,68,66,14,13,6,0,2,0,1027,87,2,20150106180000
568,Nanjing,,32.058179,118.802061,87,77,14,14,8,0,1,0,1027,93,1,20150106180000
569,"Shangfang hill , Suzhou",,31.24502,120.565211,181,89,23,34,11,0,15,5,1013,51,2,20150106180000
570,"Wuzhong District , Suzhou",,31.268105,120.61717,78,72,19,22,7,0,7,-1,1022,57,9,20150106180000
571,"Suzhou New District , Suzhou",,31.297277,120.547262,234,131,12,54,37,0,13,5,1015,58,7,20150106180000
572,"Suzhou Industrial Area, Suzhou",,31.307603,120.673257,99,55,20,28,14,0,3,1,1025,87,4,20150106180000
573,"Xiangcheng district, Suzhou",,31.368674,120.645209,228,171,6,19,23,0,9,5,1020,76,8,20150106180000
574,Suzhou,,31.296701,120.589493,93,55,22,20,19,0,3,0,1026,81,5,20150106180000
575,"South suburb , Nantong",,31.957836,120.917218,61,38,30,4,6,0,4,-2,0,59,5,20150106180000
576,"Xinghu park, Nantong",,31.927873,120.944254,294,173,29,59,54,0,10,2,0,57,5,20150106180000
577,"Zilang school, Nantong",,32.039638,120.814358,63,44,27,8,6,0,4,-2,0,59,5,20150106180000
578,Nantong,,31.978005,120.898555,85,74,28,12,11,0,7,-2,0,50,8,20150106180000
579,Lianyungang,,34.595509,119.226814,152,84,21,27,10,7,8,8,1016,96,0,20150106180000
580,"Hongmen police substation, Lianyungang",,34.588692,119.146693,258,103,26,17,25,0,8,4,1016,66,4,20150106180000
581,"Xugou Nuclear Expert Village , Lianyungang",,34.749957,119.373707,246,174,11,17,14,0,8,4,1016,66,4,20150106180000
582,"Hengrui pharmaceutical company, BDA, Lianyungang",,34.697574,119.353668,91,63,32,17,9,0,1,-6,1028,52,0,20150106180000
583,"City Monitoring Station, Lianyungang",,34.586791,119.186929,206,141,25,15,21,0,6,3,1020,73,7,20150106180000
584,"Yellow river new village , Xuzhou",,34.271542,117.177241,89,122,7,27,38,0,3,-2,1026,59,2,20150106180000
585,"Tongshan Veterinary Hospital , Xuzhou",,34.307086,117.197766,117,78,14,21,19,0,2,-8,1028,33,2,20150106180000
586,"New Town , Xuzhou",,34.213992,117.261718,264,219,29,37,42,0,6,4,1018,77,3,20150106180000
587,"Taoyuan road, Xuzhou",,34.289822,117.249721,124,87,16,11,35,0,3,-7,1028,34,1,20150106180000
588,"Agricultural Science Academy , Xuzhou",,34.27655,117.299079,117,81,15,25,34,0,2,-8,1028,33,2,20150106180000
589,"Tongshan EPA, Xuzhou",,34.179384,117.171798,251,165,18,15,52,0,7,4,1021,73,4,20150106180000
590,Xuzhou,,34.20346,117.289825,89,73,14,22,39,0,3,-6,1030,41,1,20150106180000
591,Yangzhou,,32.39233,119.418446,159,69,10,19,10,5,11,9,0,90,6,20150106180000
592,"Hanjiang Monitoring Station, Yangzhou",,32.374218,119.394484,76,57,35,1,4,0,2,-7,0,45,4,20150106180000
593,"No. 4 Hospital, Yangzhou",,32.401394,119.44444,267,252,17,31,30,0,8,4,0,74,5,20150106180000
594,"City Monitoring Station, Yangzhou",,32.406588,119.41591,208,184,27,57,56,0,8,0,0,51,5,20150106180000
595,"University Town , Wuxi",,31.484752,120.273571,292,179,16,32,24,0,11,4,1017,62,5,20150106180000
596,"Shibei High School , Wuxi",,31.619969,120.279584,87,67,23,15,12,0,3,1,1024,87,4,20150106180000
597,"Yuhong Elementary School , Wuxi",,31.561155,120.249588,87,55,35,13,13,0,3,0,1026,81,7,20150106180000
598,Wuxi,,31.488746,120.31575,89,54,25,12,17,0,3,-1,1025,75,6,20150106180000
599,Changzhou,,31.808037,119.979205,172,86,6,22,36,13,11,9,0,88,5,20150106180000
600,"Chengjian School, Changzhou",,31.776476,119.937681,87,56,21,5,6,0,4,-3,0,56,5,20150106180000
601,"Changzhou Engineering Institute , Changzhou",,31.806828,119.966724,178,89,13,13,18,0,6,1,0,68,7,20150106180000
602,"Wujin Monitoring Station, Changzhou",,31.701788,119.939676,80,53,19,9,10,0,7,-2,0,49,6,20150106180000
603,"City Monitoring Station, Changzhou",,31.777201,119.979426,153,66,14,13,9,0,6,-1,0,52,6,20150106180000
604,Zhenjiang,,32.18597,119.431281,170,79,4,39,15,13,9,8,0,93,5,20150106180000
605,"New District Administrative office , Zhenjiang",,32.186174,119.685021,114,64,17,10,9,0,5,-2,1024,61,4,20150106180000
606,"Vocational Education Center , Zhenjiang",,32.212973,119.496253,91,35,30,11,8,0,6,-2,1025,57,5,20150106180000
607,"Dantu Monitoring Station , Zhenjiang",,32.130026,119.435432,74,38,19,10,9,0,2,0,1027,87,0,20150106180000
608,"City Monitoring Station, Zhenjiang",,32.202178,119.439766,223,155,21,45,21,0,10,5,1017,71,3,20150106180000
609,"Gaogang Adminstrative office , Taizhoushi",,32.300768,119.886757,-,-,-,-,-,-,-,-,0,-,-,20150106180000
610,"Students Innovation Park , Taizhoushi",,32.461672,119.892761,80,140,15,5,14,0,5,-4,0,50,7,20150106180000
611,Taizhoushi,,32.453555,119.927852,80,78,18,8,16,0,6,-6,0,39,6,20150106180000
612,"Yancheng power station , Yancheng",,33.400859,120.123067,276,151,19,13,17,0,,,0,,,20150106180000
613,Yancheng,,33.345939,120.168504,144,52,30,5,3,7,11,10,1016,95,4,20150106180000
614,"Wenfeng Middle School , Yancheng",,33.370531,120.134041,244,146,37,9,22,0,,,0,,,20150106180000
615,"BDA Management Committe, Yancheng",,33.393191,120.22978,42,31,31,6,9,0,,,0,,,20150106180000
616,"City Monitoring Station, Yancheng",,33.390623,120.164423,55,70,32,1,8,0,,,0,,,20150106180000
617,Suqian,,33.960666,118.281004,160,87,24,7,5,7,11,10,0,91,6,20150106180000
618,"Suqian College , Suqian",,33.951472,118.298523,199,157,25,12,34,0,6,2,0,73,6,20150106180000
619,"Suqian Middle School , Suqian",,33.95784,118.249505,218,189,8,56,50,0,7,2,0,72,5,20150106180000
620,"Suyu District Environmental Protection Agency , Suqian",,33.94932,118.326569,282,140,32,43,15,0,7,2,0,72,5,20150106180000
621,"City Monitoring Station, Suqian",,33.956982,118.277022,112,60,10,4,11,0,3,-9,0,39,5,20150106180000
622,Taizhou,,28.653436,121.425185,161,79,33,19,10,10,12,9,0,84,2,20150106180000
623,Donghu Liyuan,,30.572324,114.377844,243,89,4,35,9,24,4,1,1027,81,3,20150106180000
624,Yuehu Lake,,30.554662,114.256937,231,91,3,36,8,17,4,1,1027,81,3,20150106180000
625,Hankou Huaqiao ,,30.61724,114.287652,234,100,4,35,17,22,4,1,1027,81,3,20150106180000
626,Wuchang Ziyang ,,30.530801,114.309438,201,73,6,34,9,21,5,2,1025,81,4,20150106180000
627,Qingshan Ganghua,,30.622435,114.375599,244,94,3,32,19,22,4,1,1027,81,3,20150106180000
628,Dunkou Xinou,,30.480091,114.162176,414,152,16,24,26,19,7,2,1021,71,4,20150106180000
629,Donghu Gaoxin,,30.48095,114.40724,196,57,7,29,6,28,5,2,1025,81,4,20150106180000
630,Wujianshan,,30.63114,114.135907,226,87,7,34,50,16,10,1,1020,54,3,20150106180000
631,Yuanshun Road,,30.297142,113.858587,192,91,7,26,14,18,2,0,1027,87,2,20150106180000
632,Wuhan,,30.590689,114.310838,292,152,5,38,46,13,10,1,1020,54,3,20150106180000
1190,"Silingsan Factory, Yichang",,30.713288,111.306585,177,92,9,18,21,12,4,1,1029,76,1,20150106180000
1190,"Silingsan Factory, Yichang",,30.713288,111.306585,177,92,9,18,21,12,4,1,1029,76,1,20150106180000
633,Yichang,,30.689528,111.292131,1,1,10,0,0,18,7,1,1026,52,2,20150106180000
633,Yichang,,30.689528,111.292131,1,1,10,0,0,18,7,1,1026,52,2,20150106180000
1191,"City Library , Jingzhou",,30.31494,112.260844,172,103,20,23,16,15,5,2,1028,71,2,20150106180000
1191,"City Library , Jingzhou",,30.31494,112.260844,172,103,20,23,16,15,5,2,1028,71,2,20150106180000
1192,"City committee communist party school, Jingzhou",,30.349004,112.212531,191,139,30,16,25,13,10,-2,1024,28,4,20150106180000
1192,"City committee communist party school, Jingzhou",,30.35054,112.20743,191,139,30,16,25,13,10,-2,1024,28,4,20150106180000
1193,"kerong EPA, Jingzhou",,30.302965,112.29443,176,98,24,19,13,25,5,2,1028,71,2,20150106180000
1193,"kerong EPA, Jingzhou",,30.302965,112.29443,176,98,24,19,13,25,5,2,1028,71,2,20150106180000
634,Jingzhou,,30.332608,112.245451,1,1,27,0,0,22,6,3,1027,76,4,20150106180000
634,Jingzhou,,30.332608,112.245451,1,1,27,0,0,22,6,3,1027,76,4,20150106180000
635,Huangshi,,30.19723,115.043908,304,183,5,28,5,22,7,,1026,100,5,20150106180000
635,Huangshi,,30.19723,115.043908,304,183,5,28,5,22,7,,1026,100,5,20150106180000
1194,"Chenjiaying, Huangshi",,30.232823,115.067923,199,138,7,17,21,15,10,,1021,84,5,20150106180000
1195,"Chenjiawan , Huangshi",,30.200422,115.082138,200,126,6,13,13,21,10,,1021,84,5,20150106180000
1196,"Xinxialu, Huangshi",,30.17332,114.954357,238,158,4,32,25,24,4,,1029,100,2,20150106180000
1197,"Tie montian, Huangshi",,30.203885,114.906439,231,123,2,27,1,23,4,,1029,100,2,20150106180000
1198,"BDA, Huangshi",,30.207491,115.031739,235,149,2,28,3,25,4,,1029,100,2,20150106180000
636,Shiyan,,32.627208,110.803311,160,88,14,21,52,13,0,,0,84,1,20150106180000
636,Shiyan,,32.627208,110.803311,160,88,14,21,52,13,0,,0,84,1,20150106180000
1199,"Wudang Mountain , Shiyan",,32.392921,111.047655,162,82,20,6,11,9,1,,0,75,2,20150106180000
1200,"Riverside Village , Shiyan",,32.647286,110.785335,159,78,17,13,21,8,-1,,0,85,1,20150106180000
1201,"Liujiagou , Shiyan",,32.636732,110.731129,163,79,24,28,22,8,-1,,0,85,1,20150106180000
637,Xiangyang,,32.007029,112.128496,248,147,8,20,32,13,4,,1028,56,7,20150106180000
637,Xiangyang,,32.007029,112.128496,248,147,8,20,32,13,4,,1028,56,7,20150106180000
638,Ezhou,,30.389244,114.899884,248,151,16,17,22,17,9,,1030,100,9,20150106180000
638,Ezhou,,30.389244,114.899884,248,151,16,17,22,17,9,,1030,100,9,20150106180000
1203,"City government, Ezhou",,30.391836,114.892822,200,118,4,21,11,27,2,,1037,100,3,20150106180000
1204,"Zhaojiaba, Ezhou",,30.368966,114.90365,214,135,2,22,8,34,2,,1037,100,3,20150106180000
1205,"Fankou BDA, Ezhou",,30.410759,114.818225,203,133,6,13,7,19,1,,1038,100,4,20150106180000
639,Jingmen,,31.033208,112.205093,202,137,11,15,32,14,4,,,92,5,20150106180000
639,Jingmen,,31.033208,112.205093,202,137,11,15,32,14,4,,,92,5,20150106180000
1372,"Zhuyuan primary school, Jingmen",,31.046123,112.207214,195,111,12,13,15,11,2,,1009,97,4,20150106180000
1394,"duodao, Jingmen",,30.986962,112.202729,160,80,16,12,30,12,-3,,1023,88,2,20150106180000
1373,"City government, Jingmen",,31.035297,112.198897,162,123,12,18,26,12,-3,,1023,88,2,20150106180000
640,Xiaogan,,30.922089,113.922387,192,122,4,19,18,24,-1,,1038,88,3,20150106180000
640,Xiaogan,,30.922089,113.922387,192,122,4,19,18,24,-1,,1038,88,3,20150106180000
1206,"wenhua street, Shenyang , Xiaogan",,30.925856,113.92104,190,125,4,19,19,27,-1,,1038,88,3,20150106180000
1207,"Dongcheng District , Huludao , Xiaogan",,30.917963,113.943904,193,120,4,19,18,20,-1,,1038,88,3,20150106180000
641,Huanggang,,30.45124,114.877378,232,136,18,15,17,17,8,,1031,97,10,20150106180000
641,Huanggang,,30.45124,114.877378,232,136,18,15,17,17,8,,1031,97,10,20150106180000
1208,"Dazhou Island, Huanggang",,30.446205,114.900323,193,126,8,30,7,25,3,,1037,100,6,20150106180000
1209,"Workers Center , Huanggang",,30.469244,114.912504,203,118,8,31,13,24,3,,1037,100,6,20150106180000
642,Xianning,,29.838978,114.327898,216,136,7,32,36,24,7,,993,95,1,20150106180000
642,Xianning,,29.838978,114.327898,216,136,7,32,36,24,7,,993,95,1,20150106180000
1210,"Municipal Development and Reform Commission , Xianning",,29.818645,114.328461,193,110,2,28,11,21,3,,998,100,1,20150106180000
1211,"Xianan District Governement, Xianning",,29.51107,114.181864,304,185,4,34,21,47,6,,1004,100,5,20150106180000
1212,"Yangtze River Industrial Park , Xianning",,29.883098,114.32909,188,106,7,39,25,30,3,,998,100,1,20150106180000
1213,"Qianshan Park, Xianning",,29.815351,114.328689,335,190,2,32,13,19,7,,995,100,2,20150106180000
643,Suizhou,,31.688342,113.388675,174,101,11,19,16,34,3,,1022,69,4,20150106180000
643,Suizhou,,31.688342,113.388675,174,101,11,19,16,34,3,,1022,69,4,20150106180000
1338,"City committee communist party school, Suizhou",,31.725316,113.3648,178,115,11,26,9,18,1,,1023,71,3,20150106180000
1339,"Forestry Bureau, Suizhou",,31.690065,113.383157,189,101,12,15,11,46,1,,1023,71,3,20150106180000
644,Enshi,,30.269587,109.493042,109,48,10,5,5,7,3,,,100,1,20150106180000
644,Enshi,,30.292138,109.484562,109,48,10,5,5,7,3,,,100,1,20150106180000
1374,"State Power Company, Enshi",,30.296275,109.508711,161,78,8,10,15,10,-4,,,87,1,20150106180000
645,Xiantao,,30.360228,113.460616,208,169,3,34,51,13,7,,1033,73,8,20150106180000
645,Xiantao,,30.360228,113.460616,208,169,3,34,51,13,7,,1033,73,8,20150106180000
646,Qianjiang,,30.399387,112.905661,168,78,11,16,27,19,2,,1036,99,5,20150106180000
646,Qianjiang,,30.399387,112.905661,168,78,11,16,27,19,2,,1036,99,5,20150106180000
1388,"Qianjiang City Station, Qianjiang",,30.384684,112.945841,188,122,6,26,38,21,-3,,1038,91,2,20150106180000
647,Tianmen,,30.661027,113.172549,171,82,18,19,8,7,2,,1037,100,6,20150106180000
647,Tianmen,,30.661027,113.172549,171,82,18,19,8,7,2,,1037,100,6,20150106180000
1088,Shennongjia,,31.741307,110.685554,161,74,16,12,16,4,-1,,,76,1,20150106180000
1088,Shennongjia,,31.741307,110.685554,161,74,16,12,16,4,-1,,,76,1,20150106180000
1214,"Xiangcheng Yundong Street, Xiangfan",,32.017716,112.16102,172,90,7,23,19,9,-3,,1029,80,1,20150106180000
1359,"Fancheng Xinhua Road , Xiangfan",,32.0544,112.145224,162,91,8,23,24,14,-3,,1029,80,1,20150106180000
655,"City Environmental Monitoring Station, Baotou",,40.657201,109.886738,160,82,17,39,55,45,,,0,,,20150106180000
656,"Donghe EPB, Baotou",,40.586213,110.002224,155,100,18,40,54,21,,,0,,,20150106180000
657,"Baotou shopping mall, Baotou",,40.508334,109.819085,174,93,15,26,34,40,,,0,,,20150106180000
658,"Huilong logistics, Baotou",,40.633436,109.879821,164,90,21,36,46,23,,,0,,,20150106180000
659,Baotou,,40.658597,109.846051,187,151,26,40,65,39,,,0,,,20150106180000
660,"Huatai Automobile Mall, Eerduosi",,39.837048,109.972209,57,32,34,32,13,7,-7,-21,1032,19,0,20150106180000
661,"Olympus Garden, Eerduosi",,39.789171,109.987742,57,35,17,13,32,2,-10,-20,1036,27,1,20150106180000
662,Eerduosi,,39.609284,109.78704,72,59,17,31,38,5,-5,-22,1031,14,2,20150106180000
663,"Tianyi Road, Chifeng",,42.275552,118.88507,38,23,21,11,19,6,-7,-24,1030,12,1,20150106180000
664,"Songshan No.1 Middle School, Chifeng",,42.329307,118.793045,76,42,14,26,34,5,-7,-24,1030,12,1,20150106180000
665,"Hada Street, Chifeng",,42.280714,118.988235,21,38,17,8,17,5,-5,-24,1028,9,4,20150106180000
674,Fuzhou,,26.071406,119.301294,172,81,49,19,2,2,13,9,1020,77,8,20150106180000
675,"Xidong, Xiamen",,24.815345,118.161848,155,71,33,12,9,6,23,16,1014,65,2,20150106180000
676,"Hongwen, Xiamen",,24.473969,118.156281,163,84,37,15,2,5,17,14,1017,82,6,20150106180000
677,"Gulangyu, Xiamen",,24.443168,118.068571,-,-,-,-,-,-,-,-,0,-,-,20150106180000
678,"Huli, Xiamen",,24.51235,118.099146,93,33,27,17,3,9,18,14,1015,77,6,20150106180000
680,"Qingyuan Montain, Quanzhou",,24.939503,118.598337,147,54,49,12,6,12,16,13,1017,82,4,20150106180000
681,"Tushan Street, Quanzhou",,24.90867,118.586397,203,133,42,32,18,19,16,15,1016,94,1,20150106180000
682,"Wanan, Quanzhou",,24.304154,118.070903,176,103,30,47,7,15,22,15,1015,64,2,20150106180000
683,Quanzhou,,24.87179,118.68001,202,150,42,49,21,22,18,16,1016,88,1,20150106180000
687,"Jiancaoping, Taiyuan",,37.887889,112.528383,366,97,15,19,64,24,-4,-16,1023,40,1,20150106180000
688,"Jianhe, Taiyuan",,37.910779,112.579258,173,103,10,22,86,34,-3,-17,1023,34,1,20150106180000
689,"Shanglan, Taiyuan",,38.011589,112.440679,107,45,9,36,66,19,-3,-17,1023,34,1,20150106180000
690,"Jinyuan, Taiyuan",,37.713164,112.475552,50,31,14,17,63,15,-8,-20,1026,38,2,20150106180000
691,"Xiaodian, Taiyuan",,37.782137,112.483533,160,72,7,17,68,25,-3,-17,1023,34,1,20150106180000
692,"Taoyuan, Taiyuan",,37.869752,112.543332,46,35,7,12,13,22,-4,-18,1026,34,3,20150106180000
693,"Wucheng, Taiyuan",,37.819998,112.576252,91,53,7,7,48,17,-8,-19,1025,42,2,20150106180000
694,"Nanzhai, Taiyuan",,37.985902,112.555312,97,64,15,15,29,18,-3,-16,1023,37,1,20150106180000
695,"Jinsheng, Taiyuan",,37.781205,112.494494,169,105,9,13,80,29,-5,-15,1023,46,2,20150106180000
696,Taiyuan,,37.871115,112.555178,114,65,7,22,54,24,-3,-16,1023,37,1,20150106180000
697,"Monitoring station, Changzhi",,36.194062,113.10389,156,78,11,15,55,22,,,0,,,20150106180000
698,"Auditing bureau, Changzhi",,36.212787,113.095221,155,66,20,44,5,36,,,0,,,20150106180000
699,"Qinghua station, Changzhi",,36.154328,113.116385,152,66,12,31,32,19,,,0,,,20150106180000
700,"No.8 middle school, Changzhi",,36.185451,113.099481,156,74,18,27,57,20,,,0,,,20150106180000
701,Changzhi,,36.195553,113.12292,156,74,18,27,57,20,,,0,,,20150106180000
702,"Yungang Hotel, Datong",,40.076997,113.278079,178,118,40,14,54,28,-13,-24,1035,25,1,20150106180000
703,"college of education, Datong",,40.085608,113.27808,129,79,16,14,50,23,-14,-21,1036,41,2,20150106180000
704,Datong,,40.078016,113.307143,197,194,41,24,68,26,-13,-24,1035,25,1,20150106180000
705,"Technical Schools, Linfen",,36.07131,111.509046,188,105,19,15,100,31,-7,-17,0,42,2,20150106180000
706,"Municipal party committee, Linfen",,36.087425,111.508771,169,109,23,22,83,39,-7,-17,0,42,2,20150106180000
1073,"City Monitoring Station, Linfen",,36.097676,111.518739,188,94,12,16,75,37,-7,-17,0,42,2,20150106180000
707,"South Airport, Linfen",,36.041614,111.497968,124,55,11,22,93,22,-6,-16,0,44,2,20150106180000
708,Linfen,,36.087944,111.525098,188,109,23,22,100,39,-7,-17,0,42,2,20150106180000
709,"City center, Yangquan",,37.848012,113.578636,176,118,22,32,95,15,-5,-15,1023,46,2,20150106180000
710,Yangquan,,37.857475,113.586921,119,61,28,28,122,9,0,-17,1022,27,4,20150106180000
711,"Water Company, Jincheng",,35.504787,112.857245,122,70,10,13,36,12,0,-12,1028,26,1,20150106180000
712,"Baiyun shopping mall, Jincheng",,35.492858,112.841566,159,84,11,17,48,19,0,-16,1028,16,1,20150106180000
713,"City EPA, Jincheng",,35.488422,112.858528,155,85,12,17,74,7,0,-16,1028,16,1,20150106180000
714,"Institute of Technology, Jincheng",,35.484844,112.878073,161,101,12,10,58,8,0,-16,1028,16,1,20150106180000
715,"No.1 middle school, Jincheng",,35.478725,112.838636,180,121,8,16,18,8,0,-12,1028,26,1,20150106180000
716,Jincheng,,35.490287,112.85794,158,95,148,13,53,19,6,-14,1023,11,1,20150106180000
718,"District Government, Shuozhou",,39.320857,112.430641,187,30,11,28,90,20,-2,-24,1029,7,2,20150106180000
719,"City EPA, Shuozhou",,39.331495,112.407997,57,40,17,10,17,7,-2,-17,1030,18,5,20150106180000
720,"No.2 middle school, Shuozhou",,39.377963,112.432877,63,43,40,25,63,6,-7,-23,1032,14,3,20150106180000
721,Shuozhou,,39.332756,112.439672,169,92,44,28,94,11,-8,-23,1033,15,1,20150106180000
722,"Jinlun compound, Jinzhong",,37.697891,112.771017,162,107,14,9,58,26,-5,-15,1023,46,2,20150106180000
723,"Hydraulic Component Factory, Jinzhong",,37.688355,112.725844,178,120,6,22,63,26,-5,-16,1023,43,2,20150106180000
724,"Nandu compound, Jinzhong",,37.713148,112.732036,174,112,18,23,74,27,-5,-15,1023,46,2,20150106180000
725,"Yuci district government, Jinzhong",,37.698228,112.714167,177,89,9,21,58,36,-5,-15,1023,46,2,20150106180000
726,Jinzhong,,37.687705,112.759187,61,54,21,10,51,11,-3,-17,1026,34,6,20150106180000
727,"Yuncheng Middle School, Yuncheng",,35.012345,111.003215,68,74,22,6,10,28,2,-5,1028,48,2,20150106180000
728,"Yudou BDA, Yuncheng",,35.05065,111.029571,124,87,30,14,54,27,-2,-11,1028,38,1,20150106180000
729,"Yuncheng college, Yuncheng",,35.038753,111.051992,93,43,19,3,1,16,2,-5,1028,48,2,20150106180000
730,"Regional Technical School, Yuncheng",,35.028727,110.974076,114,49,27,11,3,27,2,-5,1028,48,2,20150106180000
731,"Airport new district, Yuncheng",,35.084515,111.05339,80,53,34,4,6,33,2,-5,1028,48,2,20150106180000
732,Yuncheng,,35.025675,111.013344,149,91,34,16,56,38,-2,-11,1028,38,1,20150106180000
733,"Jiyin, Xinzhou",,38.413292,112.742432,259,195,25,23,76,34,-5,-15,1023,46,2,20150106180000
734,"BDA, Xinzhou",,38.450069,112.736723,179,88,31,31,60,23,-5,-15,1023,46,2,20150106180000
735,"Convention Center, Xinzhou",,38.492043,112.709772,194,114,39,18,51,29,-5,-15,1023,46,2,20150106180000
736,Xinzhou,,38.417244,112.740742,266,176,36,33,86,26,-4,-15,1023,43,1,20150106180000
737,"City EPA, Luliang",,37.522189,111.144365,119,49,9,12,48,32,-4,-19,1032,18,1,20150106180000
738,"Soybean factory, Luliang",,37.51689,111.135101,363,72,10,21,102,25,-4,-19,1032,18,1,20150106180000
739,"Water Company, Luliang",,37.53394,111.138834,85,53,12,14,19,33,-2,-17,1029,17,2,20150106180000
740,Luliang,,37.519091,111.150681,166,93,9,21,112,34,-6,-16,1033,34,0,20150106180000
741,"City government, Sanmenxia",,34.776251,111.198781,89,43,16,15,10,18,2,-5,1028,48,2,20150106180000
743,"BDA, Sanmenxia",,34.800434,111.204332,63,69,23,15,32,4,1,-12,1028,23,1,20150106180000
744,Sanmenxia,,34.771506,111.206129,91,74,22,26,35,19,5,-12,1027,16,4,20150106180000
745,"Food Factory, Changchun",,43.919094,125.329521,42,55,20,10,23,4,-16,-24,1019,51,4,20150106180000
746,"Bus Factory, Changchun",,43.912337,125.293431,72,30,23,15,10,5,-12,-24,1019,37,2,20150106180000
747,"Institute of Posts and Telecommunications, Changchun",,43.842368,125.285005,82,54,20,29,34,7,-14,-25,1019,40,1,20150106180000
748,"Laodong Park, Changchun",,43.877293,125.371519,107,63,17,18,53,8,-22,-27,1023,65,1,20150106180000
749,"Forest area, Changchun",,43.871825,125.331519,104,77,20,24,52,9,-22,-27,1023,65,1,20150106180000
750,"Jinyuetan, Changchun",,43.79031,125.460561,152,82,30,25,28,7,-22,-27,1023,65,1,20150106180000
751,"Shuaiwanzi, Changchun",,43.552321,125.639086,180,90,31,17,14,6,-14,-24,1020,44,2,20150106180000
752,"Economic Development Zone Sanitation Department, Changchun",,43.869221,125.42365,53,74,19,15,57,5,-16,-24,1019,51,4,20150106180000
753,"High-tech Zone Administrative Committee, Changchun",,43.819064,125.256375,89,76,29,28,22,7,-22,-27,1023,65,1,20150106180000
754,"Daishan Park, Changchun",,43.852365,125.223399,34,50,30,3,1,2,-16,-24,1019,51,4,20150106180000
755,Changchun,,43.819415,125.329977,82,54,20,29,34,7,-14,-25,1019,40,1,20150106180000
756,"Hadawan, Jilin",,43.888081,126.545727,229,184,20,29,13,27,-19,-20,0,93,2,20150106180000
757,"Fengman, Jilin",,43.768169,126.678802,129,68,35,17,35,7,-19,-20,0,93,2,20150106180000
758,"Electric Power College, Jilin",,43.827403,126.502281,159,76,37,23,14,15,-19,-20,0,93,2,20150106180000
759,"Jiangnan Park, Jilin",,43.83531,126.556519,155,72,29,28,16,13,-19,-20,0,93,2,20150106180000
760,"Dongjuzi, Jilin",,43.838597,126.590068,161,83,31,26,13,11,-19,-20,0,93,2,20150106180000
763,Jilin,,43.840137,126.555262,161,184,37,29,35,27,-19,-20,0,93,2,20150106180000
764,"Lingbei, Haerbin",,45.756979,126.548008,57,14,19,4,10,7,-19,-24,1015,66,6,20150106180000
765,"Songbei Commercial University, Haerbin",,45.818624,126.566963,25,16,22,16,5,6,-21,-25,1015,71,6,20150106180000
766,"Acheng huining, Haerbin",,45.544286,126.985183,78,26,16,4,1,5,-21,-25,1015,71,6,20150106180000
767,"Nangang College Street, Haerbin",,45.724121,126.604906,151,63,25,20,39,5,-20,-25,1015,65,6,20150106180000
768,"Taiping Hongwei Park, Haerbin",,45.775332,126.695101,76,45,19,26,44,7,-20,-25,1015,65,6,20150106180000
769,"Daowai Chengde Square, Haerbin",,45.768637,126.640955,61,18,20,10,15,4,-21,-25,1015,71,4,20150106180000
770,"Xiangfang Hongqi Street, Haerbin",,45.733936,126.691083,85,49,15,27,62,5,-21,-25,1015,71,6,20150106180000
771,"Dongli Heping Road, Haerbin",,45.727765,126.651974,82,62,16,30,70,1,-21,-25,1015,71,4,20150106180000
772,"Daoli Jianguo Road, Haerbin",,45.749715,126.59891,87,29,25,34,44,6,-17,-24,1019,56,3,20150106180000
773,"Pingfang Light Factory, Haerbin",,45.611951,126.620898,180,30,2,29,28,6,-17,-24,1019,56,3,20150106180000
774,"Hulan Normal College, Haerbin",,45.983745,126.616553,34,10,25,6,6,5,-21,-25,1015,71,4,20150106180000
775,"Provincial Academy of Agricultural Sciences, Haerbin",,45.686141,126.626517,57,20,16,7,32,3,-20,-24,1014,71,6,20150106180000
776,Haerbin,,45.805757,126.541007,55,8,22,5,9,8,-20,-24,1014,71,6,20150106180000
777,"Anju Compound, Qiqihaer",,47.365672,123.937016,85,28,30,5,2,5,-16,-25,1024,32,2,20150106180000
778,"Farming Vehicule Factory, Qiqihaer",,47.326793,123.961427,85,14,26,18,57,7,-15,-24,1021,31,0,20150106180000
779,"Fuqu EPA, Qiqihaer",,47.1853,123.62322,53,13,28,16,2,5,-15,-24,1021,31,0,20150106180000
780,"City Center Square, Qiqihaer",,47.343096,123.96192,70,33,26,13,18,8,-15,-24,1021,31,0,20150106180000
1217,"City Environmental Monitoring Station, Qiqihaer",,47.303639,123.957551,70,41,19,6,21,4,-15,-24,1021,31,0,20150106180000
781,Qiqihaer,,47.356387,123.924736,53,50,28,16,2,5,-15,-24,1021,31,0,20150106180000
782,"Saertu District, Daqing",,46.582368,125.152904,61,21,23,6,9,3,-18,-25,1023,38,1,20150106180000
783,"Datong District, Daqing",,46.036786,124.842115,277,138,22,14,38,8,-16,-25,1021,28,1,20150106180000
784,"Honggang District, Daqing",,46.418381,124.88973,102,20,31,24,9,4,-16,-25,1021,28,1,20150106180000
785,"Longfeng District, Daqing",,46.535426,125.107043,82,34,24,24,11,3,-16,-25,1021,28,1,20150106180000
786,"Ranghulu District, Daqing",,46.635123,124.85648,72,32,31,18,11,3,-16,-25,1021,28,1,20150106180000
787,Daqing,,46.591414,125.110838,74,25,23,16,53,2,-19,-26,1016,37,3,20150106180000
788,"Locomotive Factory, Mudanjiang",,44.610589,129.652672,74,43,24,5,4,3,-12,-19,1014,43,8,20150106180000
789,"No. 1 hospital, Mudanjiang",,44.567775,129.617043,78,49,27,3,6,8,-9,-15,1012,43,7,20150106180000
1220,"EPA building, Mudanjiang",,44.567777,129.620658,65,31,27,1,6,3,-18,-26,1019,34,7,20150106180000
1221,"Cultural Square, Mudanjiang",,44.586388,129.623164,74,30,23,6,9,5,-18,-26,1019,34,7,20150106180000
790,Mudanjiang,,44.553619,129.640246,99,52,41,11,20,6,-16,-23,1014,36,8,20150106180000
791,"Mingzhu Plaza, Hefei",,31.782847,117.201512,194,164,20,17,23,18,6,1,1027,70,6,20150106180000
792,"Sanli Street, Hefei",,31.874637,117.312573,112,58,14,17,3,7,1,-2,1027,81,0,20150106180000
793,"Hupo Compound, Hefei",,31.868583,117.264491,342,151,10,19,26,17,7,4,1022,81,3,20150106180000
794,"Dongpu Reservoir, Hefei",,31.90319,117.165584,142,41,17,10,6,4,1,-2,1027,81,0,20150106180000
795,"Changjiang middle road, Hefei",,31.855185,117.255484,228,157,4,8,39,14,6,4,1025,87,3,20150106180000
796,"Luyang District, Hefei",,31.941771,117.271504,91,36,18,5,10,6,1,-2,1027,81,0,20150106180000
896,Yueyang,,29.354548,113.134922,219,181,32,27,36,35,10,2,1022,49,4,20150106190000
797,"Yaohai District, Hefei",,31.856595,117.341644,236,148,17,21,14,17,6,4,1025,87,3,20150106180000
798,"Baohe District, Hefei",,31.793644,117.307554,197,154,5,5,24,12,6,2,1026,76,4,20150106190000
799,"Lake district, Hefei",,31.736619,117.283501,107,61,10,14,7,8,1,-2,1027,81,0,20150106190000
800,"High-tech zone, Hefei",,31.849755,117.129624,175,171,31,9,23,11,3,-1,1026,75,4,20150106190000
801,Hefei,,31.819449,117.232753,228,157,4,8,39,14,6,4,1025,87,3,20150106190000
802,"Hudong Road No.4 Elementary School, Maanshan",,31.684121,118.511017,117,61,8,19,8,14,2,1,1027,93,1,20150106190000
803,"Tianping Garment Factory, Maanshan",,31.64197,118.488043,155,165,16,21,10,15,2,0,1027,87,1,20150106190000
804,"City education base, Maanshan",,31.711216,118.648913,124,50,13,5,1,7,2,1,1027,93,1,20150106190000
805,"Cihu No.2 elementary school, Maanshan",,31.748546,118.515729,147,63,11,21,3,12,2,0,1027,87,0,20150106190000
806,"Maanshan steel factory power plant, Maanshan",,31.690864,118.48528,253,193,19,16,59,26,7,2,1025,71,4,20150106190000
807,Maanshan,,31.668461,118.511939,154,61,30,21,13,15,2,1,1027,93,2,20150106190000
808,"Science Innovation Center, Wuhu",,31.417056,118.375406,247,126,14,20,9,21,9,3,1020,66,3,20150106190000
809,"No.4 Water Plant, Wuhu",,31.315914,118.376231,112,51,31,10,19,18,2,1,1027,93,1,20150106190000
810,"Monitoring station, Wuhu",,31.348955,118.358154,127,56,21,7,3,10,2,1,1027,93,1,20150106190000
811,"Wuqierling Factory, Wuhu",,31.382068,118.407639,114,48,15,22,17,6,1,0,1027,93,2,20150106190000
812,Wuhu,,31.351007,118.438322,270,170,37,23,26,27,8,2,1023,66,4,20150106190000
1395,"Laonian University, Chuzhou",,32.313279,118.314788,129,73,15,6,6,5,5,,1015,61,6,20150106190000
1396,"Monitoring station, Chuzhou",,32.30409,118.321199,80,49,49,6,5,6,5,,1015,61,6,20150106190000
1331,Chuzhou,,32.299549,118.322508,129,70,49,10,10,9,5,,1015,61,6,20150106190000
813,"Jiangxi Foreign Affairs Office, Nanchang",,28.678027,115.903436,162,73,10,17,7,6,12,10,1018,86,2,20150106190000
814,"Provincial forestry company, Nanchang",,28.69065,115.898546,109,42,15,9,7,15,6,5,1022,87,4,20150106190000
815,"Institute of Forestry, Nanchang",,28.731518,115.82478,97,38,70,6,11,6,6,1,1026,65,2,20150106190000
816,"Jingdong town government, Nanchang",,28.680659,115.972736,72,31,19,6,6,7,6,1,1026,65,2,20150106190000
817,"Contruction Industry College, Nanchang",,28.684018,115.865891,57,20,15,7,10,13,6,1,1026,65,2,20150106190000
818,"Xianghu, Nanchang",,28.637831,115.9033,95,13,16,15,8,10,6,1,1026,65,2,20150106190000
819,"Martial Arts School, Nanchang",,28.794538,115.752876,184,18,14,11,11,6,6,1,1026,65,2,20150106190000
820,"Petrifaction Company, Nanchang",,28.608634,115.912999,80,31,17,8,7,7,6,1,1026,65,2,20150106190000
821,"Provincial Station, Nanchang",,28.677155,115.941896,76,40,17,7,6,8,6,1,1026,65,2,20150106190000
822,Nanchang,,28.679883,115.863022,147,46,19,18,12,18,6,3,1024,72,3,20150106190000
823,"Lushan Mountain Observatory, Jiujiang",,29.5751,115.998926,63,20,35,4,5,8,-3,-3,1026,98,3,20150106190000
824,"Shili, Jiujiang",,29.668119,115.992381,99,11,16,7,63,7,-3,-3,1026,98,3,20150106190000
825,"Maoshantou, Jiujiang",,29.700819,115.967192,87,36,11,6,5,8,-3,-3,1026,98,3,20150106190000
826,"Xiyuan, Jiujiang",,29.723929,115.998206,82,20,16,14,60,7,-3,-3,1026,98,3,20150106190000
827,"Wuqierling Factory, Jiujiang",,29.640802,116.022713,65,26,23,9,11,13,-2,-2,1024,99,5,20150106190000
